$GPGGA,072314.00,4824.6000,N,00429.9997,W,0,,100.000,145.125,M,,M,0,*58
$GNGSA,A,1,,,,,,,,,,,,,,,,,,,,,100.000,100.000,100.000*2F
$GPGSA,A,1,,,,,,,,,,,,,,,,,,,,,100.000,100.000,100.000*31
$GLGSA,A,1,,,,,,,,,,,,,,,,,,,,,100.000,100.000,100.000*2D
$BDGSA,A,1,,,,,,,,,,,,,,,,,,,,,100.000,100.000,100.000*20
$QZGSA,A,1,,,,,,,,,,,,,,,,,,,,,100.000,100.000,100.000*2D
$GPGSV,5,1,20,2,30,308,32,3,24,92,,5,5,,,6,68,271,*46
$GPGSV,5,2,20,7,22,156,,9,79,193,,17,13,214,,19,24,229,*71
$GPGSV,5,3,20,22,6,97,,23,55,61,,26,,49,,30,5,,*7C
$GLGSV,5,4,20,69,8,70,,70,59,38,,71,52,286,,79,21,32,*67
$GLGSV,5,5,20,80,27,97,,85,28,201,,86,53,272,,87,18,334,*5D
$GPRMC,072314.00,V,4824.6000,N,00429.9997,W,0.000,0.000,270217,,E,N*1E
$GPGGA,072315.00,4824.6000,N,00429.9997,W,0,,100.000,145.125,M,,M,0,*59
$GNGSA,A,1,,,,,,,,,,,,,,,,,,,,,100.000,100.000,100.000*2F
$GPGSA,A,1,,,,,,,,,,,,,,,,,,,,,100.000,100.000,100.000*31
$GLGSA,A,1,,,,,,,,,,,,,,,,,,,,,100.000,100.000,100.000*2D
$BDGSA,A,1,,,,,,,,,,,,,,,,,,,,,100.000,100.000,100.000*20
$QZGSA,A,1,,,,,,,,,,,,,,,,,,,,,100.000,100.000,100.000*2D
$GPGSV,5,1,20,2,30,308,31,3,24,92,,5,5,,,6,68,271,*45
$GPGSV,5,2,20,7,22,156,,9,79,193,,17,13,214,,19,24,229,*71
$GPGSV,5,3,20,22,6,97,,23,55,61,,26,,49,,30,5,,*7C
$GLGSV,5,4,20,69,8,70,,70,59,39,,71,52,286,,79,21,32,*66
$GLGSV,5,5,20,80,27,97,,85,28,201,,86,53,272,35,87,18,334,*5B
$GPRMC,072315.00,V,4824.6000,N,00429.9997,W,0.000,0.000,270217,,E,N*1F
$GPGGA,072316.00,4824.6000,N,00429.9997,W,0,1,100.000,145.125,M,,M,0,*6B
$GNGSA,A,1,2,,,,,,,,,,,,,,,,,,,,100.000,100.000,100.000*1D
$GPGSA,A,1,2,,,,,,,,,,,,,,,,,,,,100.000,100.000,100.000*03
$GLGSA,A,1,,,,,,,,,,,,,,,,,,,,,100.000,100.000,100.000*2D
$BDGSA,A,1,,,,,,,,,,,,,,,,,,,,,100.000,100.000,100.000*20
$QZGSA,A,1,,,,,,,,,,,,,,,,,,,,,100.000,100.000,100.000*2D
$GPGSV,5,1,20,2,30,308,31,3,24,92,,5,5,,,6,68,271,*45
$GPGSV,5,2,20,7,22,156,,9,79,193,,17,13,214,,19,24,229,*71
$GPGSV,5,3,20,22,6,97,,23,55,61,,26,,49,,30,5,,*7C
$GLGSV,5,4,20,69,8,70,,70,59,39,,71,52,286,,79,21,32,*66
$GLGSV,5,5,20,80,27,97,,85,28,201,,86,53,272,29,87,18,334,*56
$GPRMC,072316.00,V,4824.6000,N,00429.9997,W,0.000,0.000,270217,,E,N*1C
$GPGGA,072317.00,4824.6000,N,00429.9997,W,0,2,100.000,145.125,M,,M,0,*69
$GNGSA,A,1,2,86,,,,,,,,,,,,,,,,,,,100.000,100.000,100.000*13
$GPGSA,A,1,2,,,,,,,,,,,,,,,,,,,,100.000,100.000,100.000*03
$GLGSA,A,1,86,,,,,,,,,,,,,,,,,,,,100.000,100.000,100.000*23
$BDGSA,A,1,,,,,,,,,,,,,,,,,,,,,100.000,100.000,100.000*20
$QZGSA,A,1,,,,,,,,,,,,,,,,,,,,,100.000,100.000,100.000*2D
$GPGSV,5,1,20,2,30,308,32,3,24,92,,5,5,,,6,68,271,20*44
$GPGSV,5,2,20,7,22,156,,9,79,193,,17,13,214,20,19,24,229,20*71
$GPGSV,5,3,20,22,6,97,,23,55,61,20,26,,49,,30,5,,*7E
$GLGSV,5,4,20,69,8,70,,70,59,39,,71,52,286,29,79,21,32,*6D
$GLGSV,5,5,20,80,27,97,,85,28,201,18,86,53,272,30,87,18,334,28*5D
$GPRMC,072317.00,V,4824.6000,N,00429.9997,W,0.000,0.000,270217,,E,N*1D
$GPGGA,072318.00,4824.6000,N,00429.9997,W,0,2,100.000,145.125,M,,M,0,*66
$GNGSA,A,1,2,86,,,,,,,,,,,,,,,,,,,100.000,100.000,100.000*13
$GPGSA,A,1,2,,,,,,,,,,,,,,,,,,,,100.000,100.000,100.000*03
$GLGSA,A,1,86,,,,,,,,,,,,,,,,,,,,100.000,100.000,100.000*23
$BDGSA,A,1,,,,,,,,,,,,,,,,,,,,,100.000,100.000,100.000*20
$QZGSA,A,1,,,,,,,,,,,,,,,,,,,,,100.000,100.000,100.000*2D
$GPGSV,5,1,20,2,30,308,29,3,24,92,,5,5,,,6,68,271,29*47
$GPGSV,5,2,20,7,22,156,,9,79,193,20,17,13,214,30,19,24,229,23*71
$GPGSV,5,3,20,22,6,97,,23,55,61,22,26,,49,,30,5,,*7C
$GLGSV,5,4,20,69,8,70,,70,59,39,,71,52,286,32,79,21,32,*67
$GLGSV,5,5,20,80,27,97,,85,28,201,33,86,53,272,31,87,18,334,26*5B
$GPRMC,072318.00,V,4824.6000,N,00429.9997,W,0.000,0.000,270217,,E,N*12
$GPGGA,072319.01,4824.6000,N,00429.9997,W,0,2,100.000,145.125,M,,M,0,*66
$GNGSA,A,1,2,86,,,,,,,,,,,,,,,,,,,100.000,100.000,100.000*13
$GPGSA,A,1,2,,,,,,,,,,,,,,,,,,,,100.000,100.000,100.000*03
$GLGSA,A,1,86,,,,,,,,,,,,,,,,,,,,100.000,100.000,100.000*23
$BDGSA,A,1,,,,,,,,,,,,,,,,,,,,,100.000,100.000,100.000*20
$QZGSA,A,1,,,,,,,,,,,,,,,,,,,,,100.000,100.000,100.000*2D
$GPGSV,6,1,24,2,30,308,31,3,24,92,,5,5,,,6,68,271,32*43
$GPGSV,6,2,24,7,22,156,,9,79,193,28,17,13,214,28,19,24,229,26*72
$GPGSV,6,3,24,22,6,97,,23,55,61,25,26,,49,,30,5,,*7C
$GLGSV,6,4,24,69,8,70,,70,59,39,,71,52,286,34,79,21,32,*66
$GLGSV,6,5,24,80,27,97,,85,28,201,31,86,53,272,35,87,18,334,30*5D
$BDGSV,6,6,24,207,15,39,,210,22,64,,211,5,,,213,30,309,*6A
$GPRMC,072319.01,V,4824.6000,N,00429.9997,W,0.000,0.000,270217,,E,N*12
$GPGGA,072320.04,4825.1770,N,00428.2797,W,0,7,4.139,143.308,M,,M,0,*6B
$GNGSA,A,1,2,6,17,19,71,85,86,,,,,,,,,,,,,,5.021,4.139,2.842*24
$GPGSA,A,1,2,6,17,19,,,,,,,,,,,,,,,,,5.021,4.139,2.842*3F
$GLGSA,A,1,71,85,86,,,,,,,,,,,,,,,,,,5.021,4.139,2.842*2C
$BDGSA,A,1,,,,,,,,,,,,,,,,,,,,,5.021,4.139,2.842*24
$QZGSA,A,1,,,,,,,,,,,,,,,,,,,,,5.021,4.139,2.842*29
$GPGSV,6,1,24,2,30,308,29,3,24,92,,5,5,,,6,68,271,31*49
$GPGSV,6,2,24,7,22,156,11,9,79,193,25,17,13,214,26,19,24,229,25*72
$GPGSV,6,3,24,22,6,97,,23,55,61,22,26,,49,,30,5,,*7B
$GLGSV,6,4,24,69,8,70,,70,59,39,,71,52,286,33,79,21,32,*61
$GLGSV,6,5,24,80,27,97,,85,28,201,32,86,53,272,32,87,18,334,30*59
$BDGSV,6,6,24,207,15,39,,210,22,64,,211,5,,,213,30,309,*6A
$GPRMC,072320.04,V,4825.1770,N,00428.2797,W,2.998,0.000,270217,,E,N*15
$GPGGA,072321.04,4825.1705,N,00428.2754,W,1,9,1.448,140.749,M,,M,0,*6C
$GNGSA,A,3,2,6,9,17,19,23,71,85,86,,,,,,,,,,,,2.446,1.448,1.971*18
$GPGSA,A,3,2,6,9,17,19,23,,,,,,,,,,,,,,,2.446,1.448,1.971*03
$GLGSA,A,3,71,85,86,,,,,,,,,,,,,,,,,,2.446,1.448,1.971*28
$BDGSA,A,3,,,,,,,,,,,,,,,,,,,,,2.446,1.448,1.971*20
$QZGSA,A,3,,,,,,,,,,,,,,,,,,,,,2.446,1.448,1.971*2D
$GPGSV,6,1,24,2,30,308,32,3,24,92,,5,5,,,6,68,271,32*40
$GPGSV,6,2,24,7,22,156,8,9,79,193,26,17,13,214,25,19,24,229,26*49
$GPGSV,6,3,24,22,6,97,,23,55,61,22,26,,49,,30,5,,*7B
$GLGSV,6,4,24,69,8,70,,70,59,39,,71,52,286,37,79,21,32,*65
$GLGSV,6,5,24,80,27,97,,85,28,201,34,86,53,272,34,87,18,334,33*5A
$BDGSV,6,6,24,207,15,39,,210,22,64,,211,5,,,213,30,309,*6A
$GPRMC,072321.04,A,4825.1705,N,00428.2754,W,0.197,0.000,270217,,E,A*04
$GPGGA,072322.04,4825.1749,N,00428.2717,W,1,9,1.448,141.882,M,,M,0,*69
$GNGSA,A,3,2,6,9,17,19,23,71,85,86,,,,,,,,,,,,2.445,1.448,1.971*1B
$GPGSA,A,3,2,6,9,17,19,23,,,,,,,,,,,,,,,2.445,1.448,1.971*00
$GLGSA,A,3,71,85,86,,,,,,,,,,,,,,,,,,2.445,1.448,1.971*2B
$BDGSA,A,3,,,,,,,,,,,,,,,,,,,,,2.445,1.448,1.971*23
$QZGSA,A,3,,,,,,,,,,,,,,,,,,,,,2.445,1.448,1.971*2E
$GPGSV,6,1,24,2,30,308,32,3,24,92,,5,5,,,6,68,271,34*46
$GPGSV,6,2,24,7,22,156,8,9,79,193,26,17,13,214,31,19,24,229,26*4C
$GPGSV,6,3,24,22,6,97,,23,55,61,22,26,,49,,30,5,,*7B
$GLGSV,6,4,24,69,8,70,24,70,59,39,,71,52,286,37,79,21,32,24*65
$GLGSV,6,5,24,80,27,97,,85,28,201,37,86,53,272,36,87,18,334,34*5C
$BDGSV,6,6,24,207,15,39,,210,22,64,,211,5,,,213,30,309,*6A
$GPRMC,072322.04,A,4825.1749,N,00428.2717,W,2.644,0.000,270217,,E,A*03
$GPGGA,072323.04,4825.1696,N,00428.2718,W,1,9,1.448,136.673,M,,M,0,*64
$GNGSA,A,3,2,6,9,17,19,23,71,85,86,,,,,,,,,,,,2.445,1.448,1.971*1B
$GPGSA,A,3,2,6,9,17,19,23,,,,,,,,,,,,,,,2.445,1.448,1.971*00
$GLGSA,A,3,71,85,86,,,,,,,,,,,,,,,,,,2.445,1.448,1.971*2B
$BDGSA,A,3,,,,,,,,,,,,,,,,,,,,,2.445,1.448,1.971*23
$QZGSA,A,3,,,,,,,,,,,,,,,,,,,,,2.445,1.448,1.971*2E
$GPGSV,6,1,24,2,30,308,31,3,24,92,24,5,5,,,6,68,271,31*46
$GPGSV,6,2,24,7,22,156,8,9,79,193,23,17,13,214,29,19,24,229,28*4E
$GPGSV,6,3,24,22,6,97,,23,55,61,21,26,,49,,30,5,,*78
$GLGSV,6,4,24,69,8,71,23,70,59,39,,71,52,286,36,79,21,32,18*6D
$GLGSV,6,5,24,80,27,97,,85,28,201,35,86,53,272,33,87,18,334,27*59
$BDGSV,6,6,24,207,15,39,,210,22,64,,211,5,,,213,30,309,*6A
$GPRMC,072323.04,A,4825.1696,N,00428.2718,W,4.013,0.000,270217,,E,A*0C
$GPGGA,072324.04,4825.1687,N,00428.2764,W,1,9,1.448,141.924,M,,M,0,*65
$GNGSA,A,3,2,6,9,17,19,23,71,85,86,,,,,,,,,,,,2.445,1.448,1.970*1A
$GPGSA,A,3,2,6,9,17,19,23,,,,,,,,,,,,,,,2.445,1.448,1.970*01
$GLGSA,A,3,71,85,86,,,,,,,,,,,,,,,,,,2.445,1.448,1.970*2A
$BDGSA,A,3,,,,,,,,,,,,,,,,,,,,,2.445,1.448,1.970*22
$QZGSA,A,3,,,,,,,,,,,,,,,,,,,,,2.445,1.448,1.970*2F
$GPGSV,6,1,24,2,30,308,31,3,24,92,23,5,5,,,6,68,271,31*41
$GPGSV,6,2,24,7,22,156,,9,79,193,24,17,13,214,28,19,24,229,29*71
$GPGSV,6,3,24,22,6,97,,23,55,61,22,26,,49,,30,5,,*7B
$GLGSV,6,4,24,69,8,71,25,70,59,39,,71,52,286,37,79,21,32,20*61
$GLGSV,6,5,24,80,27,97,,85,28,201,38,86,53,272,35,87,18,334,22*57
$BDGSV,6,6,24,207,15,39,,210,22,64,,211,5,,,213,30,309,*6A
$GPRMC,072324.04,A,4825.1687,N,00428.2764,W,4.196,0.000,270217,,E,A*0C
$GPGGA,072325.29,4825.1652,N,00428.2797,W,1,10,1.093,144.781,M,,M,0,*51
$GNGSA,A,3,2,3,6,9,17,19,23,71,85,86,,,,,,,,,,,1.907,1.093,1.563*2D
$GPGSA,A,3,2,3,6,9,17,19,23,,,,,,,,,,,,,,1.907,1.093,1.563*36
$GLGSA,A,3,71,85,86,,,,,,,,,,,,,,,,,,1.907,1.093,1.563*2E
$BDGSA,A,3,,,,,,,,,,,,,,,,,,,,,1.907,1.093,1.563*26
$QZGSA,A,3,,,,,,,,,,,,,,,,,,,,,1.907,1.093,1.563*2B
$GPGSV,6,1,24,2,30,308,32,3,24,92,22,5,5,,,6,68,271,32*40
$GPGSV,6,2,24,7,22,156,,9,79,193,25,17,13,214,32,19,24,229,26*74
$GPGSV,6,3,24,22,6,97,,23,55,61,22,26,,49,,30,5,,*7B
$GLGSV,6,4,24,69,8,71,29,70,59,39,,71,52,286,37,79,21,32,19*67
$GLGSV,6,5,24,80,27,97,,85,28,201,37,86,53,272,35,87,18,334,24*5E
$BDGSV,6,6,24,207,15,39,,210,22,64,,211,5,,,213,30,309,*6A
$GPRMC,072325.29,A,4825.1652,N,00428.2797,W,3.081,0.000,270217,,E,A*06
$GPGGA,072326.29,4825.1637,N,00428.2813,W,1,12,0.901,145.862,M,,M,0,*50
$GNGSA,A,3,2,3,6,9,17,19,23,69,71,79,85,86,,,,,,,,,1.499,0.901,1.198*25
$GPGSA,A,3,2,3,6,9,17,19,23,,,,,,,,,,,,,,1.499,0.901,1.198*3F
$GLGSA,A,3,69,71,79,85,86,,,,,,,,,,,,,,,,1.499,0.901,1.198*26
$BDGSA,A,3,,,,,,,,,,,,,,,,,,,,,1.499,0.901,1.198*2F
$QZGSA,A,3,,,,,,,,,,,,,,,,,,,,,1.499,0.901,1.198*22
$GPGSV,8,1,25,2,30,308,33,3,24,92,22,4,5,,,6,68,270,32*4E
$GPGSV,8,2,25,7,22,156,,9,79,193,26,17,13,214,30,19,24,229,29*75
$GPGSV,8,3,25,22,6,97,,23,55,61,22*4B
$GLGSV,8,4,25,69,8,71,31,70,59,39,,71,52,286,38,72,6,262,24*69
$GLGSV,8,5,25,73,6,139,,79,21,32,19,80,27,97,,85,28,201,38*5E
$GLGSV,8,6,25,86,53,272,35,87,18,334,21*64
$BDGSV,8,7,25,205,7,111,,207,15,39,,210,22,64,,211,5,,*5C
$BDGSV,8,8,25,213,30,309,*66
$GPRMC,072326.29,A,4825.1637,N,00428.2813,W,3.587,0.000,270217,,E,A*06
$GPGGA,072327.00,4825.1617,N,00428.2839,W,1,12,0.901,148.043,M,,M,0,*56
$GNGSA,A,3,2,3,6,9,17,19,23,69,71,79,85,86,,,,,,,,,1.499,0.901,1.198*25
$GPGSA,A,3,2,3,6,9,17,19,23,,,,,,,,,,,,,,1.499,0.901,1.198*3F
$GLGSA,A,3,69,71,79,85,86,,,,,,,,,,,,,,,,1.499,0.901,1.198*26
$BDGSA,A,3,,,,,,,,,,,,,,,,,,,,,1.499,0.901,1.198*2F
$QZGSA,A,3,,,,,,,,,,,,,,,,,,,,,1.499,0.901,1.198*22
$GPGSV,8,1,25,2,30,308,32,3,24,92,23,4,5,,,6,68,270,33*4F
$GPGSV,8,2,25,7,22,156,,9,79,193,24,17,13,214,28,19,24,229,29*7E
$GPGSV,8,3,25,22,6,97,,23,55,61,22*4B
$GLGSV,8,4,25,69,8,71,31,70,59,39,,71,52,286,38,72,6,262,21*6C
$GLGSV,8,5,25,73,6,139,,79,21,32,19,80,27,97,,85,28,201,38*5E
$GLGSV,8,6,25,86,53,272,36,87,18,334,21*67
$BDGSV,8,7,25,205,7,111,,207,15,39,,210,22,64,,211,5,,*5C
$BDGSV,8,8,25,213,30,309,*66
$GPRMC,072327.00,A,4825.1617,N,00428.2839,W,3.464,0.000,270217,,E,A*0A
$GPGGA,072328.00,4825.1619,N,00428.2840,W,1,10,0.931,168.260,M,,M,0,*59
$GNGSA,A,3,2,3,6,9,17,19,23,71,79,85,,,,,,,,,,,1.612,0.931,1.316*22
$GPGSA,A,3,2,3,6,9,17,19,23,,,,,,,,,,,,,,1.612,0.931,1.316*39
$GLGSA,A,3,71,79,85,,,,,,,,,,,,,,,,,,1.612,0.931,1.316*21
$BDGSA,A,3,,,,,,,,,,,,,,,,,,,,,1.612,0.931,1.316*29
$QZGSA,A,3,,,,,,,,,,,,,,,,,,,,,1.612,0.931,1.316*24
$GPGSV,8,1,25,2,30,308,31,3,24,92,21,4,5,,,6,68,270,32*4F
$GPGSV,8,2,25,7,22,156,,9,79,193,24,17,13,214,29,19,24,229,26*70
$GPGSV,8,3,25,22,6,97,,23,55,61,22*4B
$GLGSV,8,4,25,69,8,71,28,70,59,39,,71,52,286,38,72,6,262,18*6E
$GLGSV,8,5,25,73,6,139,,79,21,32,20,80,27,97,,85,28,201,38*54
$GLGSV,8,6,25,86,53,272,35,87,18,334,23*66
$BDGSV,8,7,25,205,7,111,,207,15,39,,210,22,64,,211,5,,*5C
$BDGSV,8,8,25,213,30,309,*66
$GPRMC,072328.00,A,4825.1619,N,00428.2840,W,4.102,271.386,270217,,E,A*0E
$GPGGA,072329.00,4825.1620,N,00428.2856,W,1,11,0.874,165.518,M,,M,0,*51
$GNGSA,A,3,2,3,6,9,17,19,23,71,72,79,85,,,,,,,,,,1.439,0.874,1.143*2E
$GPGSA,A,3,2,3,6,9,17,19,23,,,,,,,,,,,,,,1.439,0.874,1.143*30
$GLGSA,A,3,71,72,79,85,,,,,,,,,,,,,,,,,1.439,0.874,1.143*2D
$BDGSA,A,3,,,,,,,,,,,,,,,,,,,,,1.439,0.874,1.143*20
$QZGSA,A,3,,,,,,,,,,,,,,,,,,,,,1.439,0.874,1.143*2D
$GPGSV,8,1,25,2,30,308,33,3,24,92,23,4,5,,,6,68,270,33*4E
$GPGSV,8,2,25,7,22,156,35,9,79,193,26,17,13,214,30,19,24,229,27*7D
$GPGSV,8,3,25,22,6,97,23,23,55,61,21*49
$GLGSV,8,4,25,69,8,71,31,70,59,39,,71,52,286,38,72,6,262,23*6E
$GLGSV,8,5,25,73,6,139,,79,21,32,18,80,27,97,,85,28,201,35*52
$GLGSV,8,6,25,86,53,272,37,87,18,334,23*64
$BDGSV,8,7,25,205,7,111,,207,15,39,,210,22,64,,211,5,,*5C
$BDGSV,8,8,25,213,30,309,*66
$GPRMC,072329.00,A,4825.1620,N,00428.2856,W,3.377,274.321,270217,,E,A*0D
$GPGGA,072330.00,4825.1596,N,00428.2964,W,1,13,0.739,172.622,M,,M,0,*5F
$GNGSA,A,3,2,3,6,7,9,17,19,23,69,71,72,79,85,,,,,,,,1.260,0.739,1.021*1F
$GPGSA,A,3,2,3,6,7,9,17,19,23,,,,,,,,,,,,,1.260,0.739,1.021*0E
$GLGSA,A,3,69,71,72,79,85,,,,,,,,,,,,,,,,1.260,0.739,1.021*2B
$BDGSA,A,3,,,,,,,,,,,,,,,,,,,,,1.260,0.739,1.021*29
$QZGSA,A,3,,,,,,,,,,,,,,,,,,,,,1.260,0.739,1.021*24
$GPGSV,8,1,25,2,30,308,34,3,24,92,23,4,5,,,6,68,270,35*4F
$GPGSV,8,2,25,7,22,156,36,9,79,193,28,17,13,214,33,19,24,229,31*74
$GPGSV,8,3,25,22,6,97,25,23,55,61,23*4D
$GLGSV,8,4,25,69,8,71,31,70,59,39,,71,52,286,38,72,6,262,25*68
$GLGSV,8,5,25,73,6,139,,79,21,32,18,80,27,97,,85,28,201,36*51
$GLGSV,8,6,25,86,53,272,38,87,18,334,25*6D
$BDGSV,8,7,25,205,7,111,,207,15,39,,210,22,64,,211,5,,*5C
$BDGSV,8,8,25,213,30,309,*66
$GPRMC,072330.00,A,4825.1596,N,00428.2964,W,1.964,309.751,270217,,E,A*09
$GPGGA,072331.00,4825.1589,N,00428.2970,W,1,13,0.739,174.581,M,,M,0,*59
$GNGSA,A,3,2,3,6,7,9,17,19,23,69,71,72,79,85,,,,,,,,1.260,0.739,1.021*1F
$GPGSA,A,3,2,3,6,7,9,17,19,23,,,,,,,,,,,,,1.260,0.739,1.021*0E
$GLGSA,A,3,69,71,72,79,85,,,,,,,,,,,,,,,,1.260,0.739,1.021*2B
$BDGSA,A,3,,,,,,,,,,,,,,,,,,,,,1.260,0.739,1.021*29
$QZGSA,A,3,,,,,,,,,,,,,,,,,,,,,1.260,0.739,1.021*24
$GPGSV,8,1,25,2,30,308,33,3,24,92,25,4,5,,,6,68,270,36*4D
$GPGSV,8,2,25,7,22,156,34,9,79,193,29,17,13,214,33,19,24,229,29*7E
$GPGSV,8,3,25,22,6,97,28,23,55,61,22*41
$GLGSV,8,4,25,69,8,71,28,70,59,39,,71,52,286,39,72,6,262,26*62
$GLGSV,8,5,25,73,6,139,,79,21,32,18,80,27,97,,85,28,201,36*51
$GLGSV,8,6,25,86,53,272,38,87,18,334,29*61
$BDGSV,8,7,25,205,7,111,,207,15,39,,210,22,64,,211,5,,*5C
$BDGSV,8,8,25,213,30,309,*66
$GPRMC,072331.00,A,4825.1589,N,00428.2970,W,1.375,316.412,270217,,E,A*03
$GPGGA,072332.00,4825.1582,N,00428.2978,W,1,13,0.739,174.851,M,,M,0,*59
$GNGSA,A,3,2,3,6,7,9,17,19,23,69,71,72,79,85,,,,,,,,1.260,0.739,1.021*1F
$GPGSA,A,3,2,3,6,7,9,17,19,23,,,,,,,,,,,,,1.260,0.739,1.021*0E
$GLGSA,A,3,69,71,72,79,85,,,,,,,,,,,,,,,,1.260,0.739,1.021*2B
$BDGSA,A,3,,,,,,,,,,,,,,,,,,,,,1.260,0.739,1.021*29
$QZGSA,A,3,,,,,,,,,,,,,,,,,,,,,1.260,0.739,1.021*24
$GPGSV,8,1,25,2,30,308,34,3,24,92,27,4,5,,,6,68,270,36*48
$GPGSV,8,2,25,7,22,156,35,9,79,193,28,17,13,214,35,19,24,229,28*79
$GPGSV,8,3,25,22,6,97,30,23,55,61,24*4E
$GLGSV,8,4,25,69,8,71,31,70,59,39,,71,52,286,39,72,6,262,23*6F
$GLGSV,8,5,25,73,6,139,,79,21,32,18,80,27,97,,85,28,201,36*51
$GLGSV,8,6,25,86,53,272,38,87,18,334,34*6D
$BDGSV,8,7,25,205,7,111,,207,15,39,,210,22,64,,211,5,,*5C
$BDGSV,8,8,25,213,30,309,*66
$GPRMC,072332.00,A,4825.1582,N,00428.2978,W,0.946,326.315,270217,,E,A*0B
$GPGGA,072333.00,4825.1579,N,00428.2997,W,1,13,0.739,171.979,M,,M,0,*53
$GNGSA,A,3,2,3,6,7,9,17,19,23,69,71,72,79,85,,,,,,,,1.260,0.739,1.021*1F
$GPGSA,A,3,2,3,6,7,9,17,19,23,,,,,,,,,,,,,1.260,0.739,1.021*0E
$GLGSA,A,3,69,71,72,79,85,,,,,,,,,,,,,,,,1.260,0.739,1.021*2B
$BDGSA,A,3,,,,,,,,,,,,,,,,,,,,,1.260,0.739,1.021*29
$QZGSA,A,3,,,,,,,,,,,,,,,,,,,,,1.260,0.739,1.021*24
$GPGSV,8,1,25,2,30,308,34,3,24,92,24,4,5,,,6,68,270,36*4B
$GPGSV,8,2,25,7,22,156,33,9,79,193,30,17,13,214,33,19,24,229,28*70
$GPGSV,8,3,25,22,6,97,29,23,55,61,24*46
$GLGSV,8,4,25,69,8,71,33,70,59,39,,71,52,286,39,72,6,262,26*68
$GLGSV,8,5,25,73,6,139,,79,21,32,18,80,27,97,,85,28,201,36*51
$GLGSV,8,6,25,86,53,272,39,87,18,334,31*69
$BDGSV,8,7,25,205,7,111,,207,15,39,,210,22,64,,211,5,,*5C
$BDGSV,8,8,25,213,30,309,*66
$GPRMC,072333.00,A,4825.1579,N,00428.2997,W,1.308,332.090,270217,,E,A*05
$GPGGA,072334.00,4825.1575,N,00428.3021,W,1,14,0.716,171.865,M,,M,0,*5B
$GNGSA,A,3,2,3,6,7,9,17,19,22,23,69,71,72,79,85,,,,,,,1.211,0.716,0.977*1F
$GPGSA,A,3,2,3,6,7,9,17,19,22,23,,,,,,,,,,,,1.211,0.716,0.977*0E
$GLGSA,A,3,69,71,72,79,85,,,,,,,,,,,,,,,,1.211,0.716,0.977*2B
$BDGSA,A,3,,,,,,,,,,,,,,,,,,,,,1.211,0.716,0.977*29
$QZGSA,A,3,,,,,,,,,,,,,,,,,,,,,1.211,0.716,0.977*24
$GPGSV,8,1,25,2,30,308,33,3,24,92,24,4,5,,,6,68,270,36*4C
$GPGSV,8,2,25,7,22,156,32,9,79,193,29,17,13,214,30,19,24,229,26*74
$GPGSV,8,3,25,22,6,97,29,23,55,61,24*46
$GLGSV,8,4,25,69,8,71,34,70,59,39,,71,52,286,39,72,6,262,25*6C
$GLGSV,8,5,25,73,6,139,22,79,21,32,18,80,27,97,,85,28,201,34*53
$GLGSV,8,6,25,86,53,272,39,87,18,334,34*6C
$BDGSV,8,7,25,205,7,111,,207,15,39,,210,22,64,,211,5,,*5C
$BDGSV,8,8,25,213,30,309,*66
$GPRMC,072334.00,A,4825.1575,N,00428.3021,W,1.847,334.394,270217,,E,A*0A
$GPGGA,072335.00,4825.1578,N,00428.3038,W,1,14,0.716,169.823,M,,M,0,*54
$GNGSA,A,3,2,3,6,7,9,17,19,22,23,69,71,72,79,85,,,,,,,1.211,0.716,0.977*1F
$GPGSA,A,3,2,3,6,7,9,17,19,22,23,,,,,,,,,,,,1.211,0.716,0.977*0E
$GLGSA,A,3,69,71,72,79,85,,,,,,,,,,,,,,,,1.211,0.716,0.977*2B
$BDGSA,A,3,,,,,,,,,,,,,,,,,,,,,1.211,0.716,0.977*29
$QZGSA,A,3,,,,,,,,,,,,,,,,,,,,,1.211,0.716,0.977*24
$GPGSV,8,1,25,2,30,308,34,3,24,92,27,4,5,,,6,68,270,36*48
$GPGSV,8,2,25,7,22,156,31,9,79,193,30,17,13,214,26,19,24,229,25*7B
$GPGSV,8,3,25,22,6,97,27,23,55,61,24*48
$GLGSV,8,4,25,69,8,71,33,70,59,39,,71,52,286,39,72,6,262,23*6D
$GLGSV,8,5,25,73,6,139,21,79,21,32,19,80,27,97,,85,28,201,31*54
$GLGSV,8,6,25,86,53,272,39,87,18,334,34*6C
$BDGSV,8,7,25,205,7,111,,207,15,39,,210,22,64,,211,5,,*5C
$BDGSV,8,8,25,213,30,309,*66
$GPRMC,072335.00,A,4825.1578,N,00428.3038,W,1.997,322.661,270217,,E,A*0A
$GPGGA,072336.00,4825.1579,N,00428.3050,W,1,14,0.716,167.840,M,,M,0,*53
$GNGSA,A,3,2,3,6,7,9,17,19,22,23,69,71,72,79,85,,,,,,,1.211,0.716,0.977*1F
$GPGSA,A,3,2,3,6,7,9,17,19,22,23,,,,,,,,,,,,1.211,0.716,0.977*0E
$GLGSA,A,3,69,71,72,79,85,,,,,,,,,,,,,,,,1.211,0.716,0.977*2B
$BDGSA,A,3,,,,,,,,,,,,,,,,,,,,,1.211,0.716,0.977*29
$QZGSA,A,3,,,,,,,,,,,,,,,,,,,,,1.211,0.716,0.977*24
$GPGSV,8,1,25,2,30,308,32,3,24,92,26,4,5,,,6,68,270,36*4F
$GPGSV,8,2,25,7,22,156,31,9,79,193,27,17,13,214,30,19,24,229,31*7F
$GPGSV,8,3,25,22,6,97,29,23,55,61,24*46
$GLGSV,8,4,25,69,8,71,32,70,59,39,,71,52,286,40,72,6,262,23*62
$GLGSV,8,5,25,73,6,139,20,79,21,32,19,80,27,97,15,85,28,201,33*53
$GLGSV,8,6,25,86,53,272,38,87,18,334,35*6C
$BDGSV,8,7,25,205,7,111,,207,15,39,,210,22,64,,211,5,,*5C
$BDGSV,8,8,25,213,30,309,*66
$GPRMC,072336.00,A,4825.1579,N,00428.3050,W,1.944,312.150,270217,,E,A*0E
$GPGGA,072337.00,4825.1583,N,00428.3060,W,1,15,0.698,165.537,M,,M,0,*5D
$GNGSA,A,3,2,3,6,7,9,17,19,22,23,69,71,72,79,80,85,,,,,,1.199,0.698,0.975*11
$GPGSA,A,3,2,3,6,7,9,17,19,22,23,,,,,,,,,,,,1.199,0.698,0.975*08
$GLGSA,A,3,69,71,72,79,80,85,,,,,,,,,,,,,,,1.199,0.698,0.975*25
$BDGSA,A,3,,,,,,,,,,,,,,,,,,,,,1.199,0.698,0.975*2F
$QZGSA,A,3,,,,,,,,,,,,,,,,,,,,,1.199,0.698,0.975*22
$GPGSV,8,1,25,2,30,308,31,3,24,92,27,4,5,,,6,68,270,34*4F
$GPGSV,8,2,25,7,22,155,28,9,79,193,29,17,13,214,32,19,24,229,33*7A
$GPGSV,8,3,25,22,6,97,24,23,55,61,25*4A
$GLGSV,8,4,25,69,8,71,29,70,59,39,,71,52,286,39,72,6,262,23*66
$GLGSV,8,5,25,73,6,139,22,79,21,32,19,80,27,97,20,85,28,201,27*52
$GLGSV,8,6,25,86,53,272,36,87,18,334,34*63
$BDGSV,8,7,25,205,7,111,10,207,15,39,,210,22,64,,211,5,,*5D
$BDGSV,8,8,25,213,30,309,*66
$GPRMC,072337.00,A,4825.1583,N,00428.3060,W,2.258,308.667,270217,,E,A*04
$GPGGA,072338.00,4825.1586,N,00428.3068,W,1,15,0.698,163.287,M,,M,0,*55
$GNGSA,A,3,2,3,6,7,9,17,19,22,23,69,71,72,79,80,85,,,,,,1.199,0.698,0.975*11
$GPGSA,A,3,2,3,6,7,9,17,19,22,23,,,,,,,,,,,,1.199,0.698,0.975*08
$GLGSA,A,3,69,71,72,79,80,85,,,,,,,,,,,,,,,1.199,0.698,0.975*25
$BDGSA,A,3,,,,,,,,,,,,,,,,,,,,,1.199,0.698,0.975*2F
$QZGSA,A,3,,,,,,,,,,,,,,,,,,,,,1.199,0.698,0.975*22
$GPGSV,8,1,25,2,30,308,32,3,24,92,26,4,5,,,6,68,270,35*4C
$GPGSV,8,2,25,7,22,155,34,9,79,193,30,17,13,214,35,19,24,229,33*78
$GPGSV,8,3,25,22,6,97,26,23,55,61,22*4F
$GLGSV,8,4,25,69,8,71,26,70,59,39,26,71,52,286,37,72,6,262,20*60
$GLGSV,8,5,25,73,6,139,21,79,21,32,20,80,27,97,20,85,28,201,33*5E
$GLGSV,8,6,25,86,53,272,39,87,18,334,28*61
$BDGSV,8,7,25,205,7,111,10,207,15,39,,210,22,64,,211,5,,*5D
$BDGSV,8,8,25,213,30,309,*66
$GPRMC,072338.00,A,4825.1586,N,00428.3068,W,2.583,309.171,270217,,E,A*06
$GPGGA,072339.00,4825.1590,N,00428.3077,W,1,15,0.698,161.003,M,,M,0,*51
$GNGSA,A,3,2,3,6,7,9,17,19,22,23,69,71,72,79,80,85,,,,,,1.199,0.698,0.975*11
$GPGSA,A,3,2,3,6,7,9,17,19,22,23,,,,,,,,,,,,1.199,0.698,0.975*08
$GLGSA,A,3,69,71,72,79,80,85,,,,,,,,,,,,,,,1.199,0.698,0.975*25
$BDGSA,A,3,,,,,,,,,,,,,,,,,,,,,1.199,0.698,0.975*2F
$QZGSA,A,3,,,,,,,,,,,,,,,,,,,,,1.199,0.698,0.975*22
$GPGSV,8,1,25,2,30,308,34,3,24,92,25,4,5,,,6,68,270,35*49
$GPGSV,8,2,25,7,22,155,33,9,79,193,29,17,13,214,35,19,24,229,33*77
$GPGSV,8,3,25,22,6,97,27,23,55,61,23*4F
$GLGSV,8,4,25,69,8,71,27,70,59,39,26,71,52,286,39,72,6,262,20*6F
$GLGSV,8,5,25,73,6,139,22,79,21,32,22,80,27,97,19,85,28,201,36*50
$GLGSV,8,6,25,86,53,271,38,87,18,334,34*6E
$BDGSV,8,7,25,205,7,111,8,207,15,39,,210,22,64,,211,5,,*64
$BDGSV,8,8,25,213,30,309,*66
$GPRMC,072339.00,A,4825.1590,N,00428.3077,W,2.295,312.010,270217,,E,A*02
$GPGGA,072340.00,4825.1592,N,00428.3084,W,1,15,0.698,158.724,M,,M,0,*59
$GNGSA,A,3,2,3,6,7,9,17,19,22,23,69,71,72,79,80,85,,,,,,1.199,0.698,0.975*11
$GPGSA,A,3,2,3,6,7,9,17,19,22,23,,,,,,,,,,,,1.199,0.698,0.975*08
$GLGSA,A,3,69,71,72,79,80,85,,,,,,,,,,,,,,,1.199,0.698,0.975*25
$BDGSA,A,3,,,,,,,,,,,,,,,,,,,,,1.199,0.698,0.975*2F
$QZGSA,A,3,,,,,,,,,,,,,,,,,,,,,1.199,0.698,0.975*22
$GPGSV,8,1,25,2,30,308,33,3,24,92,24,4,5,,,6,68,270,36*4C
$GPGSV,8,2,25,7,22,155,34,9,79,193,30,17,13,214,34,19,24,229,33*79
$GPGSV,8,3,25,22,6,97,27,23,55,61,23*4F
$GLGSV,8,4,25,69,8,71,22,70,59,39,26,71,52,286,39,72,6,262,18*61
$GLGSV,8,5,25,73,6,139,23,79,21,32,22,80,27,97,20,85,28,201,37*5A
$GLGSV,8,6,25,86,53,271,38,87,18,334,32*68
$BDGSV,8,7,25,205,7,111,8,207,15,39,,210,22,64,,211,5,,*64
$BDGSV,8,8,25,213,30,309,*66
$GPRMC,072340.00,A,4825.1592,N,00428.3084,W,2.352,305.492,270217,,E,A*00
$GPGGA,072341.00,4825.1593,N,00428.3094,W,1,14,0.713,156.566,M,,M,0,*51
$GNGSA,A,3,2,3,6,7,9,17,19,23,69,71,72,79,80,85,,,,,,,1.245,0.713,1.021*18
$GPGSA,A,3,2,3,6,7,9,17,19,23,,,,,,,,,,,,,1.245,0.713,1.021*01
$GLGSA,A,3,69,71,72,79,80,85,,,,,,,,,,,,,,,1.245,0.713,1.021*2C
$BDGSA,A,3,,,,,,,,,,,,,,,,,,,,,1.245,0.713,1.021*26
$QZGSA,A,3,,,,,,,,,,,,,,,,,,,,,1.245,0.713,1.021*2B
$GPGSV,7,1,23,2,30,308,34,3,24,92,25,4,5,,,6,68,270,37*42
$GPGSV,7,2,23,7,22,155,35,9,79,193,30,17,13,214,33,19,24,229,33*76
$GPGSV,7,3,23,22,6,97,20,23,55,61,22*40
$GLGSV,7,4,23,69,8,71,20,70,59,39,25,71,52,286,39,72,7,262,17*67
$GLGSV,7,5,23,73,6,139,22,79,21,32,20,80,27,97,18,85,28,201,39*55
$GLGSV,7,6,23,86,53,271,39,87,18,334,33*61
$BDGSV,7,7,23,205,7,111,,207,15,39,,210,22,64,*52
$GPRMC,072341.00,A,4825.1593,N,00428.3094,W,2.737,294.544,270217,,E,A*05
$GPGGA,072342.00,4825.1597,N,00428.3103,W,1,15,0.698,154.026,M,,M,0,*59
$GNGSA,A,3,2,3,6,7,9,17,19,22,23,69,71,72,79,80,85,,,,,,1.199,0.698,0.974*10
$GPGSA,A,3,2,3,6,7,9,17,19,22,23,,,,,,,,,,,,1.199,0.698,0.974*09
$GLGSA,A,3,69,71,72,79,80,85,,,,,,,,,,,,,,,1.199,0.698,0.974*24
$BDGSA,A,3,,,,,,,,,,,,,,,,,,,,,1.199,0.698,0.974*2E
$QZGSA,A,3,,,,,,,,,,,,,,,,,,,,,1.199,0.698,0.974*23
$GPGSV,7,1,23,2,30,308,36,3,24,92,28,4,5,,,6,68,270,36*4C
$GPGSV,7,2,23,7,22,155,34,9,79,192,30,17,13,214,30,19,24,229,31*77
$GPGSV,7,3,23,22,6,97,19,23,55,61,22*4A
$GLGSV,7,4,23,69,8,71,25,70,59,39,27,71,52,286,40,72,7,262,18*61
$GLGSV,7,5,23,73,6,139,20,79,21,32,19,80,27,97,19,85,28,201,38*5D
$GLGSV,7,6,23,86,53,271,38,87,18,334,35*66
$BDGSV,7,7,23,205,7,111,,207,15,39,,210,22,64,*52
$GPRMC,072342.00,A,4825.1597,N,00428.3103,W,2.456,284.433,270217,,E,A*09
$GPGGA,072343.00,4825.1601,N,00428.3109,W,1,15,0.698,151.705,M,,M,0,*5D
$GNGSA,A,3,2,3,6,7,9,17,19,22,23,69,71,72,79,80,85,,,,,,1.199,0.698,0.974*10
$GPGSA,A,3,2,3,6,7,9,17,19,22,23,,,,,,,,,,,,1.199,0.698,0.974*09
$GLGSA,A,3,69,71,72,79,80,85,,,,,,,,,,,,,,,1.199,0.698,0.974*24
$BDGSA,A,3,,,,,,,,,,,,,,,,,,,,,1.199,0.698,0.974*2E
$QZGSA,A,3,,,,,,,,,,,,,,,,,,,,,1.199,0.698,0.974*23
$GPGSV,7,1,23,2,30,308,34,3,24,92,24,4,5,,,6,68,270,36*42
$GPGSV,7,2,23,7,22,155,35,9,79,192,30,17,13,214,27,19,24,229,33*72
$GPGSV,7,3,23,22,6,97,19,23,55,61,20*48
$GLGSV,7,4,23,69,8,71,18,70,59,39,25,71,52,286,40,72,7,262,16*63
$GLGSV,7,5,23,73,6,139,21,79,21,32,19,80,27,97,18,85,28,201,38*5D
$GLGSV,7,6,23,86,53,271,39,87,18,334,32*60
$BDGSV,7,7,23,205,7,111,,207,15,39,,210,22,64,*52
$GPRMC,072343.00,A,4825.1601,N,00428.3109,W,2.836,288.313,270217,,E,A*0D
$GPGGA,072344.00,4825.1604,N,00428.3117,W,1,15,0.698,149.807,M,,M,0,*54
$GNGSA,A,3,2,3,6,7,9,17,19,22,23,69,71,72,79,80,85,,,,,,1.199,0.698,0.974*10
$GPGSA,A,3,2,3,6,7,9,17,19,22,23,,,,,,,,,,,,1.199,0.698,0.974*09
$GLGSA,A,3,69,71,72,79,80,85,,,,,,,,,,,,,,,1.199,0.698,0.974*24
$BDGSA,A,3,,,,,,,,,,,,,,,,,,,,,1.199,0.698,0.974*2E
$QZGSA,A,3,,,,,,,,,,,,,,,,,,,,,1.199,0.698,0.974*23
$GPGSV,7,1,23,2,30,308,33,3,24,92,24,4,5,,,6,68,270,36*45
$GPGSV,7,2,23,7,22,155,34,9,79,192,29,17,13,214,27,19,24,229,33*7B
$GPGSV,7,3,23,22,6,97,21,23,55,61,23*40
$GLGSV,7,4,23,69,8,71,18,70,59,39,26,71,52,286,39,72,7,262,14*6C
$GLGSV,7,5,23,73,6,139,23,79,21,32,21,80,27,97,18,85,28,201,39*55
$GLGSV,7,6,23,86,53,271,38,87,18,334,33*60
$BDGSV,7,7,23,205,7,111,,207,15,39,,210,22,64,*52
$GPRMC,072344.00,A,4825.1604,N,00428.3117,W,2.799,286.111,270217,,E,A*04
$GPGGA,072345.00,4825.1607,N,00428.3121,W,1,15,0.698,147.875,M,,M,0,*58
$GNGSA,A,3,2,3,6,7,9,17,19,22,23,69,71,72,79,80,85,,,,,,1.199,0.698,0.974*10
$GPGSA,A,3,2,3,6,7,9,17,19,22,23,,,,,,,,,,,,1.199,0.698,0.974*09
$GLGSA,A,3,69,71,72,79,80,85,,,,,,,,,,,,,,,1.199,0.698,0.974*24
$BDGSA,A,3,,,,,,,,,,,,,,,,,,,,,1.199,0.698,0.974*2E
$QZGSA,A,3,,,,,,,,,,,,,,,,,,,,,1.199,0.698,0.974*23
$GPGSV,7,1,23,2,30,308,30,3,24,92,26,4,5,,,6,68,270,37*45
$GPGSV,7,2,23,7,22,155,33,9,79,192,28,17,13,214,20,19,24,229,32*7B
$GPGSV,7,3,23,22,6,97,20,23,55,61,26*44
$GLGSV,7,4,23,69,8,71,23,70,59,39,25,71,52,286,38,72,7,262,14*66
$GLGSV,7,5,23,73,6,139,22,79,21,32,24,80,27,97,22,85,28,201,34*55
$GLGSV,7,6,23,86,53,271,38,87,18,334,32*61
$BDGSV,7,7,23,205,7,111,,207,15,39,,210,22,64,*52
$GPRMC,072345.00,A,4825.1607,N,00428.3121,W,2.339,281.572,270217,,E,A*0B
$GPGGA,072346.00,4825.1606,N,00428.3122,W,1,15,0.698,146.238,M,,M,0,*5B
$GNGSA,A,3,2,3,6,7,9,17,19,22,23,69,71,72,79,80,85,,,,,,1.199,0.698,0.974*10
$GPGSA,A,3,2,3,6,7,9,17,19,22,23,,,,,,,,,,,,1.199,0.698,0.974*09
$GLGSA,A,3,69,71,72,79,80,85,,,,,,,,,,,,,,,1.199,0.698,0.974*24
$BDGSA,A,3,,,,,,,,,,,,,,,,,,,,,1.199,0.698,0.974*2E
$QZGSA,A,3,,,,,,,,,,,,,,,,,,,,,1.199,0.698,0.974*23
$GPGSV,8,1,25,2,30,308,28,3,24,92,27,4,5,,,6,68,270,37*44
$GPGSV,8,2,25,7,22,155,33,9,79,192,34,17,13,214,22,19,24,229,29*77
$GPGSV,8,3,25,22,6,97,20,23,55,61,27*4C
$GLGSV,8,4,25,69,8,71,21,70,59,39,25,71,52,286,37,72,7,262,15*63
$GLGSV,8,5,25,73,6,139,24,79,21,32,26,80,27,97,22,85,28,201,35*59
$GLGSV,8,6,25,86,52,271,37,87,18,334,27*62
$BDGSV,8,7,25,205,7,111,,207,15,39,,210,22,64,,211,5,,*5C
$BDGSV,8,8,25,213,30,309,*66
$GPRMC,072346.00,A,4825.1606,N,00428.3122,W,1.507,243.814,270217,,E,A*01
$GPGGA,072347.00,4825.1602,N,00428.3121,W,1,15,0.698,144.704,M,,M,0,*55
$GNGSA,A,3,2,3,6,7,9,17,19,22,23,69,71,72,79,80,85,,,,,,1.199,0.698,0.974*10
$GPGSA,A,3,2,3,6,7,9,17,19,22,23,,,,,,,,,,,,1.199,0.698,0.974*09
$GLGSA,A,3,69,71,72,79,80,85,,,,,,,,,,,,,,,1.199,0.698,0.974*24
$BDGSA,A,3,,,,,,,,,,,,,,,,,,,,,1.199,0.698,0.974*2E
$QZGSA,A,3,,,,,,,,,,,,,,,,,,,,,1.199,0.698,0.974*23
$GPGSV,8,1,25,2,30,308,24,3,24,92,25,4,5,,,6,68,270,34*49
$GPGSV,8,2,25,7,22,155,36,9,79,192,33,17,13,214,20,19,24,229,26*78
$GPGSV,8,3,25,22,6,97,23,23,55,61,28*40
$GLGSV,8,4,25,69,8,71,23,70,59,39,24,71,52,286,33,72,7,262,14*65
$GLGSV,8,5,25,73,6,139,26,79,21,32,24,80,27,97,22,85,28,201,35*59
$GLGSV,8,6,25,86,52,271,35,87,18,334,24*63
$BDGSV,8,7,25,205,7,111,,207,15,39,,210,22,64,,211,5,,*5C
$BDGSV,8,8,25,213,30,309,*66
$GPRMC,072347.00,A,4825.1602,N,00428.3121,W,1.641,219.019,270217,,E,A*0C
$GPGGA,072348.00,4825.1599,N,00428.3117,W,1,15,0.698,143.222,M,,M,0,*58
$GNGSA,A,3,2,3,6,7,9,17,19,22,23,69,71,72,79,80,85,,,,,,1.199,0.698,0.974*10
$GPGSA,A,3,2,3,6,7,9,17,19,22,23,,,,,,,,,,,,1.199,0.698,0.974*09
$GLGSA,A,3,69,71,72,79,80,85,,,,,,,,,,,,,,,1.199,0.698,0.974*24
$BDGSA,A,3,,,,,,,,,,,,,,,,,,,,,1.199,0.698,0.974*2E
$QZGSA,A,3,,,,,,,,,,,,,,,,,,,,,1.199,0.698,0.974*23
$GPGSV,8,1,25,2,30,308,24,3,24,92,30,4,5,,,6,68,270,33*4A
$GPGSV,8,2,25,7,22,155,37,9,79,192,34,17,13,214,21,19,24,229,25*7C
$GPGSV,8,3,25,22,6,97,21,23,55,61,32*49
$GLGSV,8,4,25,69,8,71,20,70,59,39,25,71,52,286,31,72,7,262,14*65
$GLGSV,8,5,25,73,6,139,25,79,21,32,23,80,27,97,27,85,28,201,38*55
$GLGSV,8,6,25,86,52,271,32,87,18,334,25*65
$BDGSV,8,7,25,205,7,111,,207,15,39,,210,22,64,,211,5,,*5C
$BDGSV,8,8,25,213,30,309,*66
$GPRMC,072348.00,A,4825.1599,N,00428.3117,W,2.053,202.761,270217,,E,A*03
$GPGGA,072349.00,4825.1595,N,00428.3111,W,1,15,0.698,141.965,M,,M,0,*59
$GNGSA,A,3,2,3,6,7,9,17,19,22,23,69,71,72,79,80,85,,,,,,1.199,0.698,0.974*10
$GPGSA,A,3,2,3,6,7,9,17,19,22,23,,,,,,,,,,,,1.199,0.698,0.974*09
$GLGSA,A,3,69,71,72,79,80,85,,,,,,,,,,,,,,,1.199,0.698,0.974*24
$BDGSA,A,3,,,,,,,,,,,,,,,,,,,,,1.199,0.698,0.974*2E
$QZGSA,A,3,,,,,,,,,,,,,,,,,,,,,1.199,0.698,0.974*23
$GPGSV,8,1,25,2,30,308,22,3,24,92,34,4,5,,,6,68,270,31*4A
$GPGSV,8,2,25,7,22,155,35,9,79,192,35,17,13,214,20,19,24,229,25*7E
$GPGSV,8,3,25,22,6,97,23,23,55,61,32*4B
$GLGSV,8,4,25,69,8,71,22,70,59,39,27,71,52,286,28,72,7,262,14*6D
$GLGSV,8,5,25,73,6,139,23,79,21,32,23,80,27,97,31,85,28,201,38*54
$GLGSV,8,6,25,86,52,271,30,87,18,334,24*66
$BDGSV,8,7,25,205,7,111,,207,15,39,,210,22,64,,211,5,,*5C
$BDGSV,8,8,25,213,30,309,*66
$GPRMC,072349.00,A,4825.1595,N,00428.3111,W,2.147,205.857,270217,,E,A*01
$GPGGA,072350.00,4825.1591,N,00428.3109,W,1,15,0.698,140.560,M,,M,0,*54
$GNGSA,A,3,2,3,6,7,9,17,19,22,23,69,71,72,79,80,85,,,,,,1.199,0.698,0.974*10
$GPGSA,A,3,2,3,6,7,9,17,19,22,23,,,,,,,,,,,,1.199,0.698,0.974*09
$GLGSA,A,3,69,71,72,79,80,85,,,,,,,,,,,,,,,1.199,0.698,0.974*24
$BDGSA,A,3,,,,,,,,,,,,,,,,,,,,,1.199,0.698,0.974*2E
$QZGSA,A,3,,,,,,,,,,,,,,,,,,,,,1.199,0.698,0.974*23
$GPGSV,8,1,25,2,30,308,19,3,24,92,37,4,5,,,6,68,270,32*42
$GPGSV,8,2,25,7,22,155,35,9,79,192,34,17,13,214,25,19,24,229,24*7B
$GPGSV,8,3,25,22,6,97,21,23,55,61,32*49
$GLGSV,8,4,25,69,8,71,22,70,59,39,28,71,52,286,28,72,7,262,14*62
$GLGSV,8,5,25,73,6,139,22,79,21,32,25,80,27,97,33,85,28,201,36*5F
$GLGSV,8,6,25,86,52,271,31,87,18,334,27*64
$BDGSV,8,7,25,205,7,111,,207,15,39,,210,22,64,,211,5,,*5C
$BDGSV,8,8,25,213,30,309,*66
$GPRMC,072350.00,A,4825.1591,N,00428.3109,W,2.105,209.951,270217,,E,A*09
$GPGGA,072351.00,4825.1585,N,00428.3106,W,1,15,0.698,139.692,M,,M,0,*5F
$GNGSA,A,3,2,3,6,7,9,17,19,22,23,69,71,72,79,80,85,,,,,,1.199,0.698,0.974*10
$GPGSA,A,3,2,3,6,7,9,17,19,22,23,,,,,,,,,,,,1.199,0.698,0.974*09
$GLGSA,A,3,69,71,72,79,80,85,,,,,,,,,,,,,,,1.199,0.698,0.974*24
$BDGSA,A,3,,,,,,,,,,,,,,,,,,,,,1.199,0.698,0.974*2E
$QZGSA,A,3,,,,,,,,,,,,,,,,,,,,,1.199,0.698,0.974*23
$GPGSV,8,1,25,2,30,308,19,3,24,92,38,4,5,,,6,68,270,31*4E
$GPGSV,8,2,25,7,22,155,35,9,79,192,34,17,13,214,26,19,24,229,23*7F
$GPGSV,8,3,25,22,6,97,22,23,55,61,34*4C
$GLGSV,8,4,25,69,8,71,21,70,59,39,27,71,52,286,28,72,7,262,13*69
$GLGSV,8,5,25,73,6,139,21,79,21,32,25,80,27,97,32,85,28,201,36*5D
$GLGSV,8,6,25,86,52,271,30,87,18,334,27*65
$BDGSV,8,7,25,205,7,111,,207,15,39,,210,22,64,,211,5,,*5C
$BDGSV,8,8,25,213,30,309,*66
$GPRMC,072351.00,A,4825.1585,N,00428.3106,W,2.336,207.394,270217,,E,A*0D
$GPGGA,072352.00,4825.1577,N,00428.3103,W,1,15,0.698,138.998,M,,M,0,*50
$GNGSA,A,3,2,3,6,7,9,17,19,22,23,69,71,72,79,80,85,,,,,,1.198,0.698,0.974*11
$GPGSA,A,3,2,3,6,7,9,17,19,22,23,,,,,,,,,,,,1.198,0.698,0.974*08
$GLGSA,A,3,69,71,72,79,80,85,,,,,,,,,,,,,,,1.198,0.698,0.974*25
$BDGSA,A,3,,,,,,,,,,,,,,,,,,,,,1.198,0.698,0.974*2F
$QZGSA,A,3,,,,,,,,,,,,,,,,,,,,,1.198,0.698,0.974*22
$GPGSV,8,1,25,2,30,308,21,3,24,92,36,4,5,,,6,68,270,31*4B
$GPGSV,8,2,25,7,22,155,35,9,79,192,34,17,13,214,21,19,24,229,22*79
$GPGSV,8,3,25,22,6,97,24,23,55,61,32*4C
$GLGSV,8,4,25,69,8,71,21,70,59,39,29,71,52,286,28,72,7,262,11*65
$GLGSV,8,5,25,73,6,139,21,79,21,32,22,80,27,97,33,85,28,201,36*5B
$GLGSV,8,6,25,86,52,271,29,87,18,334,24*6E
$BDGSV,8,7,25,205,7,111,,207,15,39,,210,22,64,,211,5,,*5C
$BDGSV,8,8,25,213,30,309,*66
$GPRMC,072352.00,A,4825.1577,N,00428.3103,W,2.251,199.610,270217,,E,A*0B
$GPGGA,072353.00,4825.1569,N,00428.3100,W,1,15,0.698,138.312,M,,M,0,*55
$GNGSA,A,3,2,3,6,7,9,17,19,22,23,69,71,72,79,80,85,,,,,,1.198,0.698,0.974*11
$GPGSA,A,3,2,3,6,7,9,17,19,22,23,,,,,,,,,,,,1.198,0.698,0.974*08
$GLGSA,A,3,69,71,72,79,80,85,,,,,,,,,,,,,,,1.198,0.698,0.974*25
$BDGSA,A,3,,,,,,,,,,,,,,,,,,,,,1.198,0.698,0.974*2F
$QZGSA,A,3,,,,,,,,,,,,,,,,,,,,,1.198,0.698,0.974*22
$GPGSV,8,1,25,2,30,308,20,3,24,92,35,4,5,,,6,68,270,29*40
$GPGSV,8,2,25,7,22,155,34,9,79,192,34,17,13,214,23,19,24,229,20*78
$GPGSV,8,3,25,22,6,97,22,23,55,61,33*4B
$GLGSV,8,4,25,69,8,71,21,70,59,39,27,71,52,286,27,72,7,262,11*64
$GLGSV,8,5,25,73,6,139,25,79,21,32,23,80,27,97,31,85,28,201,35*5F
$GLGSV,8,6,25,86,52,271,28,87,18,334,24*6F
$BDGSV,8,7,25,205,7,111,,207,15,39,,210,22,64,,211,5,,*5C
$BDGSV,8,8,25,213,30,309,*66
$GPRMC,072353.00,A,4825.1569,N,00428.3100,W,2.049,195.319,270217,,E,A*0D
$GPGGA,072354.00,4825.1559,N,00428.3094,W,1,15,0.698,138.584,M,,M,0,*54
$GNGSA,A,3,2,3,6,7,9,17,19,22,23,69,71,72,79,80,85,,,,,,1.198,0.698,0.974*11
$GPGSA,A,3,2,3,6,7,9,17,19,22,23,,,,,,,,,,,,1.198,0.698,0.974*08
$GLGSA,A,3,69,71,72,79,80,85,,,,,,,,,,,,,,,1.198,0.698,0.974*25
$BDGSA,A,3,,,,,,,,,,,,,,,,,,,,,1.198,0.698,0.974*2F
$QZGSA,A,3,,,,,,,,,,,,,,,,,,,,,1.198,0.698,0.974*22
$GPGSV,8,1,25,2,30,308,18,3,24,92,37,4,5,,,6,68,270,28*48
$GPGSV,8,2,25,7,22,155,35,9,79,192,35,17,13,214,29,19,24,229,21*73
$GPGSV,8,3,25,22,6,97,19,23,55,61,33*43
$GLGSV,8,4,25,69,8,71,23,70,59,39,27,71,52,286,27,72,7,262,12*65
$GLGSV,8,5,25,73,6,139,22,79,21,32,23,80,27,97,33,85,28,201,32*5D
$GLGSV,8,6,25,86,52,271,26,87,18,334,24*61
$BDGSV,8,7,25,205,7,111,,207,15,39,,210,22,64,,211,5,,*5C
$BDGSV,8,8,25,213,30,309,*66
$GPRMC,072354.00,A,4825.1559,N,00428.3094,W,2.052,193.100,270217,,E,A*03
$GPGGA,072355.00,4825.1551,N,00428.3090,W,1,15,0.698,138.744,M,,M,0,*57
$GNGSA,A,3,2,3,6,7,9,17,19,22,23,69,71,72,79,80,85,,,,,,1.198,0.698,0.974*11
$GPGSA,A,3,2,3,6,7,9,17,19,22,23,,,,,,,,,,,,1.198,0.698,0.974*08
$GLGSA,A,3,69,71,72,79,80,85,,,,,,,,,,,,,,,1.198,0.698,0.974*25
$BDGSA,A,3,,,,,,,,,,,,,,,,,,,,,1.198,0.698,0.974*2F
$QZGSA,A,3,,,,,,,,,,,,,,,,,,,,,1.198,0.698,0.974*22
$GPGSV,8,1,25,2,30,308,19,3,24,92,37,4,5,,,6,68,270,27*46
$GPGSV,8,2,25,7,22,155,32,9,79,192,34,17,13,214,29,19,24,229,20*74
$GPGSV,8,3,25,22,6,97,19,23,55,61,33*43
$GLGSV,8,4,25,69,8,71,22,70,59,39,27,71,52,286,26,72,7,262,11*66
$GLGSV,8,5,25,73,6,139,20,79,21,32,22,80,27,97,32,85,28,201,31*5C
$GLGSV,8,6,25,86,52,271,27,87,18,334,21*65
$BDGSV,8,7,25,205,7,111,,207,15,39,,210,22,64,,211,5,,*5C
$BDGSV,8,8,25,213,30,309,*66
$GPRMC,072355.00,A,4825.1551,N,00428.3090,W,1.914,196.129,270217,,E,A*08
$GPGGA,072356.00,4825.1543,N,00428.3086,W,1,15,0.698,138.370,M,,M,0,*53
$GNGSA,A,3,2,3,6,7,9,17,19,22,23,69,71,72,79,80,85,,,,,,1.198,0.698,0.974*11
$GPGSA,A,3,2,3,6,7,9,17,19,22,23,,,,,,,,,,,,1.198,0.698,0.974*08
$GLGSA,A,3,69,71,72,79,80,85,,,,,,,,,,,,,,,1.198,0.698,0.974*25
$BDGSA,A,3,,,,,,,,,,,,,,,,,,,,,1.198,0.698,0.974*2F
$QZGSA,A,3,,,,,,,,,,,,,,,,,,,,,1.198,0.698,0.974*22
$GPGSV,8,1,25,2,30,308,19,3,24,92,38,4,5,,,6,68,270,27*49
$GPGSV,8,2,25,7,22,155,33,9,79,192,33,17,13,214,33,19,24,229,19*73
$GPGSV,8,3,25,22,6,97,26,23,55,61,33*4F
$GLGSV,8,4,25,69,8,71,22,70,59,39,27,71,52,286,26,72,7,262,11*66
$GLGSV,8,5,25,73,6,139,19,79,21,32,22,80,27,97,30,85,28,201,34*51
$GLGSV,8,6,25,86,52,271,27,87,18,334,22*66
$BDGSV,8,7,25,205,7,111,,207,15,39,,210,22,64,,211,5,,*5C
$BDGSV,8,8,25,213,30,309,*66
$GPRMC,072356.00,A,4825.1543,N,00428.3086,W,2.167,195.334,270217,,E,A*0D
$GPGGA,072357.00,4825.1529,N,00428.3077,W,1,15,0.698,139.349,M,,M,0,*5B
$GNGSA,A,3,2,3,6,7,9,17,19,22,23,69,71,72,79,80,85,,,,,,1.198,0.698,0.974*11
$GPGSA,A,3,2,3,6,7,9,17,19,22,23,,,,,,,,,,,,1.198,0.698,0.974*08
$GLGSA,A,3,69,71,72,79,80,85,,,,,,,,,,,,,,,1.198,0.698,0.974*25
$BDGSA,A,3,,,,,,,,,,,,,,,,,,,,,1.198,0.698,0.974*2F
$QZGSA,A,3,,,,,,,,,,,,,,,,,,,,,1.198,0.698,0.974*22
$GPGSV,8,1,25,2,30,308,21,3,24,92,35,4,5,,,6,68,270,29*41
$GPGSV,8,2,25,7,22,155,36,9,79,192,34,17,13,214,34,19,24,229,22*7E
$GPGSV,8,3,25,22,6,97,27,23,55,61,33*4E
$GLGSV,8,4,25,69,8,71,23,70,59,39,26,71,52,286,27,72,7,262,11*67
$GLGSV,8,5,25,73,6,139,18,79,21,32,21,80,27,97,31,85,28,201,33*55
$GLGSV,8,6,25,86,52,271,30,87,18,334,22*60
$BDGSV,8,7,25,205,7,111,,207,15,39,,210,22,64,,211,5,,*5C
$BDGSV,8,8,25,213,30,309,*66
$GPRMC,072357.00,A,4825.1529,N,00428.3077,W,2.565,188.152,270217,,E,A*06
$GPGGA,072358.00,4825.1517,N,00428.3068,W,1,15,0.698,139.822,M,,M,0,*51
$GNGSA,A,3,2,3,6,7,9,17,19,22,23,69,71,72,79,80,85,,,,,,1.198,0.698,0.974*11
$GPGSA,A,3,2,3,6,7,9,17,19,22,23,,,,,,,,,,,,1.198,0.698,0.974*08
$GLGSA,A,3,69,71,72,79,80,85,,,,,,,,,,,,,,,1.198,0.698,0.974*25
$BDGSA,A,3,,,,,,,,,,,,,,,,,,,,,1.198,0.698,0.974*2F
$QZGSA,A,3,,,,,,,,,,,,,,,,,,,,,1.198,0.698,0.974*22
$GPGSV,8,1,25,2,30,308,19,3,24,92,37,4,5,,,6,68,270,29*48
$GPGSV,8,2,25,7,22,155,34,9,79,192,33,17,13,214,35,19,24,229,29*71
$GPGSV,8,3,25,22,6,97,27,23,55,61,33*4E
$GLGSV,8,4,25,69,8,71,24,70,59,39,28,71,52,287,27,72,7,262,10*6E
$GLGSV,8,5,25,73,6,139,19,79,21,32,24,80,27,97,32,85,28,201,36*57
$GLGSV,8,6,25,86,52,271,30,87,18,334,22*60
$BDGSV,8,7,25,205,7,111,,207,15,39,,210,22,64,,211,5,,*5C
$BDGSV,8,8,25,213,30,309,*66
$GPRMC,072358.00,A,4825.1517,N,00428.3068,W,2.538,183.747,270217,,E,A*0B
$GPGGA,072359.00,4825.1508,N,00428.3065,W,1,15,0.698,139.594,M,,M,0,*53
$GNGSA,A,3,2,3,6,7,9,17,19,22,23,69,71,72,79,80,85,,,,,,1.198,0.698,0.974*11
$GPGSA,A,3,2,3,6,7,9,17,19,22,23,,,,,,,,,,,,1.198,0.698,0.974*08
$GLGSA,A,3,69,71,72,79,80,85,,,,,,,,,,,,,,,1.198,0.698,0.974*25
$BDGSA,A,3,,,,,,,,,,,,,,,,,,,,,1.198,0.698,0.974*2F
$QZGSA,A,3,,,,,,,,,,,,,,,,,,,,,1.198,0.698,0.974*22
$GPGSV,8,1,25,2,30,308,19,3,24,92,34,4,5,,,6,68,270,29*4B
$GPGSV,8,2,25,7,22,155,28,9,79,192,32,17,13,214,32,19,24,229,32*70
$GPGSV,8,3,25,22,6,97,25,23,55,61,32*4D
$GLGSV,8,4,25,69,8,71,25,70,59,39,25,71,52,287,27,72,7,262,8*5B
$GLGSV,8,5,25,73,6,139,19,79,21,32,24,80,27,97,31,85,28,201,33*51
$GLGSV,8,6,25,86,52,271,28,87,18,334,22*69
$BDGSV,8,7,25,205,7,111,,207,15,39,,210,22,64,,211,5,,*5C
$BDGSV,8,8,25,213,30,309,*66
$GPRMC,072359.00,A,4825.1508,N,00428.3065,W,2.450,185.780,270217,,E,A*0B
$GPGGA,072400.00,4825.1499,N,00428.3065,W,1,15,0.698,139.307,M,,M,0,*5D
$GNGSA,A,3,2,3,6,7,9,17,19,22,23,69,71,72,79,80,85,,,,,,1.198,0.698,0.974*11
$GPGSA,A,3,2,3,6,7,9,17,19,22,23,,,,,,,,,,,,1.198,0.698,0.974*08
$GLGSA,A,3,69,71,72,79,80,85,,,,,,,,,,,,,,,1.198,0.698,0.974*25
$BDGSA,A,3,,,,,,,,,,,,,,,,,,,,,1.198,0.698,0.974*2F
$QZGSA,A,3,,,,,,,,,,,,,,,,,,,,,1.198,0.698,0.974*22
$GPGSV,8,1,25,2,30,308,18,3,24,92,37,4,5,,,6,68,270,29*49
$GPGSV,8,2,25,7,22,155,23,9,79,192,34,17,13,214,34,19,24,229,31*78
$GPGSV,8,3,25,22,6,97,18,23,55,61,33*42
$GLGSV,8,4,25,69,8,71,21,70,59,39,27,71,53,287,26,72,7,262,8*5D
$GLGSV,8,5,25,73,6,139,19,79,21,32,24,80,27,97,31,85,27,201,33*5E
$GLGSV,8,6,25,86,52,271,27,87,18,334,24*60
$BDGSV,8,7,25,205,7,111,,207,15,39,,210,22,64,,211,5,,*5C
$BDGSV,8,8,25,213,30,309,*66
$GPRMC,072400.00,A,4825.1499,N,00428.3065,W,2.257,192.807,270217,,E,A*0E
$GPGGA,072401.00,4825.1492,N,00428.3068,W,1,15,0.698,138.810,M,,M,0,*56
$GNGSA,A,3,2,3,6,7,9,17,19,22,23,69,71,72,79,80,85,,,,,,1.198,0.698,0.973*16
$GPGSA,A,3,2,3,6,7,9,17,19,22,23,,,,,,,,,,,,1.198,0.698,0.973*0F
$GLGSA,A,3,69,71,72,79,80,85,,,,,,,,,,,,,,,1.198,0.698,0.973*22
$BDGSA,A,3,,,,,,,,,,,,,,,,,,,,,1.198,0.698,0.973*28
$QZGSA,A,3,,,,,,,,,,,,,,,,,,,,,1.198,0.698,0.973*25
$GPGSV,7,1,23,2,30,308,18,3,24,92,37,4,5,,,6,68,270,29*40
$GPGSV,7,2,23,7,22,155,25,9,79,192,32,17,13,214,34,19,24,229,29*78
$GPGSV,7,3,23,22,6,97,19,23,55,61,32*4B
$GLGSV,7,4,23,69,8,71,21,70,59,39,26,71,53,287,25,72,7,262,8*56
$GLGSV,7,5,23,73,6,139,18,79,21,32,23,80,27,97,32,85,27,201,33*52
$GLGSV,7,6,23,86,52,271,27,87,18,334,22*6F
$BDGSV,7,7,23,205,7,111,,207,15,39,,210,22,64,*52
$GPRMC,072401.00,A,4825.1492,N,00428.3068,W,1.748,194.280,270217,,E,A*02
$GPGGA,072402.00,4825.1486,N,00428.3067,W,1,15,0.698,138.697,M,,M,0,*5E
$GNGSA,A,3,2,3,6,7,9,17,19,22,23,69,71,72,79,80,85,,,,,,1.198,0.698,0.973*16
$GPGSA,A,3,2,3,6,7,9,17,19,22,23,,,,,,,,,,,,1.198,0.698,0.973*0F
$GLGSA,A,3,69,71,72,79,80,85,,,,,,,,,,,,,,,1.198,0.698,0.973*22
$BDGSA,A,3,,,,,,,,,,,,,,,,,,,,,1.198,0.698,0.973*28
$QZGSA,A,3,,,,,,,,,,,,,,,,,,,,,1.198,0.698,0.973*25
$GPGSV,7,1,23,2,30,308,17,3,24,92,37,4,5,,,6,68,270,29*4F
$GPGSV,7,2,23,7,22,155,21,9,79,192,33,17,13,214,30,19,24,229,30*71
$GPGSV,7,3,23,22,6,97,20,23,55,61,32*41
$GLGSV,7,4,23,69,8,71,19,70,59,39,25,71,53,287,24,72,7,262,8*5F
$GLGSV,7,5,23,73,6,139,18,79,21,32,23,80,27,96,31,85,27,201,33*50
$GLGSV,7,6,23,86,52,271,28,87,18,334,20*62
$BDGSV,7,7,23,205,7,111,,207,15,39,,210,22,64,*52
$GPRMC,072402.00,A,4825.1486,N,00428.3067,W,1.596,197.943,270217,,E,A*0D
$GPGGA,072403.00,4825.1478,N,00428.3068,W,1,15,0.698,138.573,M,,M,0,*58
$GNGSA,A,3,2,3,6,7,9,17,19,22,23,69,71,72,79,80,85,,,,,,1.198,0.698,0.973*16
$GPGSA,A,3,2,3,6,7,9,17,19,22,23,,,,,,,,,,,,1.198,0.698,0.973*0F
$GLGSA,A,3,69,71,72,79,80,85,,,,,,,,,,,,,,,1.198,0.698,0.973*22
$BDGSA,A,3,,,,,,,,,,,,,,,,,,,,,1.198,0.698,0.973*28
$QZGSA,A,3,,,,,,,,,,,,,,,,,,,,,1.198,0.698,0.973*25
$GPGSV,7,1,23,2,30,308,16,3,24,92,36,4,5,,,6,68,270,28*4E
$GPGSV,7,2,23,7,22,155,23,9,79,192,33,17,13,214,31,19,24,229,31*73
$GPGSV,7,3,23,22,6,97,21,23,55,61,32*40
$GLGSV,7,4,23,69,8,71,18,70,59,39,25,71,53,287,25,72,7,262,8*5F
$GLGSV,7,5,23,73,6,139,17,79,21,32,25,80,27,96,30,85,27,201,32*59
$GLGSV,7,6,23,86,52,271,28,87,18,334,20*62
$BDGSV,7,7,23,205,7,111,,207,15,39,,210,22,64,*52
$GPRMC,072403.00,A,4825.1478,N,00428.3068,W,1.667,206.021,270217,,E,A*09
$GPGGA,072404.00,4825.1468,N,00428.3067,W,1,15,0.698,138.607,M,,M,0,*51
$GNGSA,A,3,2,3,6,7,9,17,19,22,23,69,71,72,79,80,85,,,,,,1.198,0.698,0.973*16
$GPGSA,A,3,2,3,6,7,9,17,19,22,23,,,,,,,,,,,,1.198,0.698,0.973*0F
$GLGSA,A,3,69,71,72,79,80,85,,,,,,,,,,,,,,,1.198,0.698,0.973*22
$BDGSA,A,3,,,,,,,,,,,,,,,,,,,,,1.198,0.698,0.973*28
$QZGSA,A,3,,,,,,,,,,,,,,,,,,,,,1.198,0.698,0.973*25
$GPGSV,7,1,23,2,30,308,16,3,24,92,35,4,5,,,6,68,270,28*4D
$GPGSV,7,2,23,7,22,155,26,9,79,192,33,17,13,214,29,19,24,229,31*7F
$GPGSV,7,3,23,22,6,97,20,23,55,61,31*42
$GLGSV,7,4,23,69,8,71,19,70,59,39,27,71,53,287,26,72,7,262,10*66
$GLGSV,7,5,23,73,6,139,15,79,21,32,27,80,27,96,31,85,27,201,33*59
$GLGSV,7,6,23,86,52,271,29,87,18,334,20*63
$BDGSV,7,7,23,205,7,111,,207,15,39,,210,22,64,*52
$GPRMC,072404.00,A,4825.1468,N,00428.3067,W,2.047,197.371,270217,,E,A*0A
$GPGGA,072405.00,4825.1457,N,00428.3067,W,1,15,0.698,138.589,M,,M,0,*59
$GNGSA,A,3,2,3,6,7,9,17,19,22,23,69,71,72,79,80,85,,,,,,1.198,0.698,0.973*16
$GPGSA,A,3,2,3,6,7,9,17,19,22,23,,,,,,,,,,,,1.198,0.698,0.973*0F
$GLGSA,A,3,69,71,72,79,80,85,,,,,,,,,,,,,,,1.198,0.698,0.973*22
$BDGSA,A,3,,,,,,,,,,,,,,,,,,,,,1.198,0.698,0.973*28
$QZGSA,A,3,,,,,,,,,,,,,,,,,,,,,1.198,0.698,0.973*25
$GPGSV,7,1,23,2,30,308,16,3,24,92,37,4,5,,,6,68,270,29*4E
$GPGSV,7,2,23,7,22,155,26,9,79,192,33,17,13,214,32,19,24,229,33*77
$GPGSV,7,3,23,22,6,97,19,23,55,61,32*4B
$GLGSV,7,4,23,69,8,71,18,70,59,39,28,71,53,287,26,72,7,262,24*6F
$GLGSV,7,5,23,73,6,139,13,79,21,32,26,80,27,96,32,85,27,201,35*5B
$GLGSV,7,6,23,86,52,271,30,87,18,334,21*6A
$BDGSV,7,7,23,205,7,111,,207,15,39,,210,22,64,*52
$GPRMC,072405.00,A,4825.1457,N,00428.3067,W,2.465,192.003,270217,,E,A*00
$GPGGA,072406.00,4825.1446,N,00428.3067,W,1,15,0.698,138.747,M,,M,0,*5A
$GNGSA,A,3,2,3,6,7,9,17,19,22,23,69,71,72,79,80,85,,,,,,1.198,0.698,0.973*16
$GPGSA,A,3,2,3,6,7,9,17,19,22,23,,,,,,,,,,,,1.198,0.698,0.973*0F
$GLGSA,A,3,69,71,72,79,80,85,,,,,,,,,,,,,,,1.198,0.698,0.973*22
$BDGSA,A,3,,,,,,,,,,,,,,,,,,,,,1.198,0.698,0.973*28
$QZGSA,A,3,,,,,,,,,,,,,,,,,,,,,1.198,0.698,0.973*25
$GPGSV,8,1,25,2,30,308,22,3,24,92,35,4,5,,,6,68,270,30*4A
$GPGSV,8,2,25,7,22,155,29,9,79,192,35,17,13,214,30,19,24,229,32*74
$GPGSV,8,3,25,22,6,97,19,23,55,61,32*42
$GLGSV,8,4,25,69,8,71,18,70,59,39,27,71,53,287,28,72,7,262,30*62
$GLGSV,8,5,25,73,6,139,12,79,21,32,24,80,27,96,27,85,27,201,35*55
$GLGSV,8,6,25,86,52,271,29,87,18,334,19*60
$BDGSV,8,7,25,205,7,111,,207,15,39,,210,22,64,,211,5,,*5C
$BDGSV,8,8,25,213,30,309,*66
$GPRMC,072406.00,A,4825.1446,N,00428.3067,W,2.434,181.721,270217,,E,A*02
$GPGGA,072407.00,4825.1435,N,00428.3064,W,1,14,0.716,138.340,M,,M,0,*59
$GNGSA,A,3,2,3,6,7,9,17,19,22,23,69,71,72,79,85,,,,,,,1.210,0.716,0.976*1F
$GPGSA,A,3,2,3,6,7,9,17,19,22,23,,,,,,,,,,,,1.210,0.716,0.976*0E
$GLGSA,A,3,69,71,72,79,85,,,,,,,,,,,,,,,,1.210,0.716,0.976*2B
$BDGSA,A,3,,,,,,,,,,,,,,,,,,,,,1.210,0.716,0.976*29
$QZGSA,A,3,,,,,,,,,,,,,,,,,,,,,1.210,0.716,0.976*24
$GPGSV,8,1,25,2,30,308,20,3,24,92,24,4,5,,,6,68,270,30*48
$GPGSV,8,2,25,7,22,155,32,9,79,192,34,17,13,214,28,19,24,229,30*74
$GPGSV,8,3,25,22,6,97,19,23,55,61,33*43
$GLGSV,8,4,25,69,8,71,23,70,59,39,28,71,53,287,27,72,7,263,31*6A
$GLGSV,8,5,25,73,6,139,13,79,21,32,23,80,27,96,22,85,27,201,37*54
$GLGSV,8,6,25,86,52,271,29,87,18,334,18*61
$BDGSV,8,7,25,205,7,111,,207,15,39,,210,22,64,,211,5,,*5C
$BDGSV,8,8,25,213,30,309,*66
$GPRMC,072407.00,A,4825.1435,N,00428.3064,W,2.754,173.172,270217,,E,A*0C
$GPGGA,072408.00,4825.1424,N,00428.3062,W,1,14,0.720,137.908,M,,M,0,*5C
$GNGSA,A,3,2,3,6,7,9,17,19,22,23,71,72,79,80,85,,,,,,,1.257,0.720,1.031*15
$GPGSA,A,3,2,3,6,7,9,17,19,22,23,,,,,,,,,,,,1.257,0.720,1.031*03
$GLGSA,A,3,71,72,79,80,85,,,,,,,,,,,,,,,,1.257,0.720,1.031*21
$BDGSA,A,3,,,,,,,,,,,,,,,,,,,,,1.257,0.720,1.031*24
$QZGSA,A,3,,,,,,,,,,,,,,,,,,,,,1.257,0.720,1.031*29
$GPGSV,8,1,25,2,30,308,19,3,24,92,24,4,5,,,6,68,270,30*42
$GPGSV,8,2,25,7,22,155,32,9,79,192,33,17,13,214,30,19,24,229,34*7E
$GPGSV,8,3,25,22,6,97,18,23,55,61,33*42
$GLGSV,8,4,25,69,8,71,21,70,59,39,27,71,53,287,27,72,7,263,31*67
$GLGSV,8,5,25,73,6,139,16,79,21,32,22,80,27,96,21,85,27,201,36*52
$GLGSV,8,6,25,86,52,271,29,87,18,334,19*60
$BDGSV,8,7,25,205,7,111,,207,15,39,,210,22,64,,211,5,,*5C
$BDGSV,8,8,25,213,30,309,*66
$GPRMC,072408.00,A,4825.1424,N,00428.3062,W,2.674,172.867,270217,,E,A*0A
$GPGGA,072409.00,4825.1413,N,00428.3058,W,1,15,0.698,137.620,M,,M,0,*56
$GNGSA,A,3,2,3,6,7,9,17,19,22,23,69,71,72,79,80,85,,,,,,1.198,0.698,0.973*16
$GPGSA,A,3,2,3,6,7,9,17,19,22,23,,,,,,,,,,,,1.198,0.698,0.973*0F
$GLGSA,A,3,69,71,72,79,80,85,,,,,,,,,,,,,,,1.198,0.698,0.973*22
$BDGSA,A,3,,,,,,,,,,,,,,,,,,,,,1.198,0.698,0.973*28
$QZGSA,A,3,,,,,,,,,,,,,,,,,,,,,1.198,0.698,0.973*25
$GPGSV,8,1,25,2,30,308,23,3,24,92,20,4,5,,,6,68,270,29*47
$GPGSV,8,2,25,7,22,155,33,9,79,192,33,17,13,214,22,19,24,229,32*7A
$GPGSV,8,3,25,22,6,97,18,23,54,61,28*49
$GLGSV,8,4,25,69,8,71,15,70,59,39,27,71,53,287,28,72,7,263,32*6C
$GLGSV,8,5,25,73,6,139,28,79,21,32,24,80,27,96,17,85,27,201,35*5F
$GLGSV,8,6,25,86,52,271,28,87,18,334,19*61
$BDGSV,8,7,25,205,7,111,,207,15,39,,210,22,64,,211,5,,*5C
$BDGSV,8,8,25,213,30,309,*66
$GPRMC,072409.00,A,4825.1413,N,00428.3058,W,2.802,170.107,270217,,E,A*04
$GPGGA,072410.00,4825.1405,N,00428.3055,W,1,15,0.698,137.018,M,,M,0,*59
$GNGSA,A,3,2,3,6,7,9,17,19,22,23,69,71,72,79,80,85,,,,,,1.198,0.698,0.973*16
$GPGSA,A,3,2,3,6,7,9,17,19,22,23,,,,,,,,,,,,1.198,0.698,0.973*0F
$GLGSA,A,3,69,71,72,79,80,85,,,,,,,,,,,,,,,1.198,0.698,0.973*22
$BDGSA,A,3,,,,,,,,,,,,,,,,,,,,,1.198,0.698,0.973*28
$QZGSA,A,3,,,,,,,,,,,,,,,,,,,,,1.198,0.698,0.973*25
$GPGSV,8,1,25,2,30,308,22,3,24,92,19,4,5,,,6,68,270,28*4D
$GPGSV,8,2,25,7,22,155,33,9,79,192,34,17,13,214,20,19,24,229,30*7D
$GPGSV,8,3,25,22,6,97,18,23,54,61,30*40
$GLGSV,8,4,25,69,8,71,19,70,59,39,26,71,53,287,27,72,7,263,28*65
$GLGSV,8,5,25,73,6,139,26,79,21,32,21,80,27,96,19,85,27,201,32*5D
$GLGSV,8,6,25,86,52,271,27,87,18,334,18*6F
$BDGSV,8,7,25,205,7,111,,207,15,39,,210,22,64,,211,5,,*5C
$BDGSV,8,8,25,213,30,309,*66
$GPRMC,072410.00,A,4825.1405,N,00428.3055,W,2.501,164.622,270217,,E,A*0D
$GPGGA,072411.00,4825.1399,N,00428.3052,W,1,15,0.698,136.452,M,,M,0,*56
$GNGSA,A,3,2,3,6,7,9,17,19,22,23,69,71,72,79,80,85,,,,,,1.198,0.698,0.973*16
$GPGSA,A,3,2,3,6,7,9,17,19,22,23,,,,,,,,,,,,1.198,0.698,0.973*0F
$GLGSA,A,3,69,71,72,79,80,85,,,,,,,,,,,,,,,1.198,0.698,0.973*22
$BDGSA,A,3,,,,,,,,,,,,,,,,,,,,,1.198,0.698,0.973*28
$QZGSA,A,3,,,,,,,,,,,,,,,,,,,,,1.198,0.698,0.973*25
$GPGSV,8,1,25,2,30,308,24,3,24,92,18,4,5,,,6,68,270,30*43
$GPGSV,8,2,25,7,22,155,32,9,79,192,33,17,13,214,25,19,24,229,25*7A
$GPGSV,8,3,25,22,6,97,17,23,54,61,31*4E
$GLGSV,8,4,25,69,7,71,18,70,59,39,27,71,53,287,26,72,7,263,27*64
$GLGSV,8,5,25,73,6,139,20,79,21,32,19,80,27,96,14,85,27,201,32*5D
$GLGSV,8,6,25,86,52,271,27,87,18,334,18*6F
$BDGSV,8,7,25,205,7,111,,207,15,39,,210,22,64,,211,5,,*5C
$BDGSV,8,8,25,213,30,309,*66
$GPRMC,072411.00,A,4825.1399,N,00428.3052,W,1.982,166.211,270217,,E,A*0B
$GPGGA,072412.00,4825.1391,N,00428.3052,W,1,15,0.698,136.028,M,,M,0,*54
$GNGSA,A,3,2,3,6,7,9,17,19,22,23,69,71,72,79,80,85,,,,,,1.198,0.698,0.973*16
$GPGSA,A,3,2,3,6,7,9,17,19,22,23,,,,,,,,,,,,1.198,0.698,0.973*0F
$GLGSA,A,3,69,71,72,79,80,85,,,,,,,,,,,,,,,1.198,0.698,0.973*22
$BDGSA,A,3,,,,,,,,,,,,,,,,,,,,,1.198,0.698,0.973*28
$QZGSA,A,3,,,,,,,,,,,,,,,,,,,,,1.198,0.698,0.973*25
$GPGSV,8,1,25,2,30,308,20,3,24,92,16,4,5,,,6,68,270,33*4A
$GPGSV,8,2,25,7,22,155,34,9,79,192,37,17,13,214,27,19,24,229,23*7C
$GPGSV,8,3,25,22,6,97,18,23,54,61,34*44
$GLGSV,8,4,25,69,7,71,14,70,59,39,27,71,53,287,27,72,7,263,29*67
$GLGSV,8,5,25,73,6,139,24,79,21,32,18,80,27,96,14,85,27,201,32*58
$GLGSV,8,6,25,86,52,271,32,87,18,333,22*65
$BDGSV,8,7,25,205,7,111,,207,15,39,,210,22,64,,211,5,,*5C
$BDGSV,8,8,25,213,30,309,*66
$GPRMC,072412.00,A,4825.1391,N,00428.3052,W,1.677,175.979,270217,,E,A*02
$GPGGA,072413.00,4825.1384,N,00428.3054,W,1,15,0.698,135.809,M,,M,0,*5F
$GNGSA,A,3,2,3,6,7,9,17,19,22,23,69,71,72,79,80,85,,,,,,1.198,0.698,0.973*16
$GPGSA,A,3,2,3,6,7,9,17,19,22,23,,,,,,,,,,,,1.198,0.698,0.973*0F
$GLGSA,A,3,69,71,72,79,80,85,,,,,,,,,,,,,,,1.198,0.698,0.973*22
$BDGSA,A,3,,,,,,,,,,,,,,,,,,,,,1.198,0.698,0.973*28
$QZGSA,A,3,,,,,,,,,,,,,,,,,,,,,1.198,0.698,0.973*25
$GPGSV,8,1,25,2,30,308,19,3,24,92,26,4,5,,,6,68,270,33*43
$GPGSV,8,2,25,7,22,155,33,9,79,192,35,17,13,214,28,19,24,229,21*74
$GPGSV,8,3,25,22,6,97,19,23,54,61,35*44
$GLGSV,8,4,25,69,7,71,8,70,59,39,26,71,53,287,29,72,7,263,30*5D
$GLGSV,8,5,25,73,6,139,24,79,21,32,18,80,27,96,24,85,27,201,34*5D
$GLGSV,8,6,25,86,52,271,29,87,18,333,22*6F
$BDGSV,8,7,25,205,7,111,,207,15,39,,210,22,64,,211,5,,*5C
$BDGSV,8,8,25,213,30,309,*66
$GPRMC,072413.00,A,4825.1384,N,00428.3054,W,1.997,179.799,270217,,E,A*0C
$GPGGA,072414.00,4825.1375,N,00428.3057,W,1,15,0.698,136.152,M,,M,0,*51
$GNGSA,A,3,2,3,6,7,9,17,19,22,23,69,71,72,79,80,85,,,,,,1.198,0.698,0.973*16
$GPGSA,A,3,2,3,6,7,9,17,19,22,23,,,,,,,,,,,,1.198,0.698,0.973*0F
$GLGSA,A,3,69,71,72,79,80,85,,,,,,,,,,,,,,,1.198,0.698,0.973*22
$BDGSA,A,3,,,,,,,,,,,,,,,,,,,,,1.198,0.698,0.973*28
$QZGSA,A,3,,,,,,,,,,,,,,,,,,,,,1.198,0.698,0.973*25
$GPGSV,8,1,25,2,30,308,22,3,24,92,34,4,5,,,6,68,270,29*43
$GPGSV,8,2,25,7,22,155,34,9,79,192,34,17,13,214,26,19,24,229,24*79
$GPGSV,8,3,25,22,6,97,25,23,54,61,35*4B
$GLGSV,8,4,25,69,7,71,10,70,59,39,26,71,53,287,27,72,7,263,27*6C
$GLGSV,8,5,25,73,6,139,23,79,21,32,18,80,27,96,27,85,27,201,33*5E
$GLGSV,8,6,25,86,52,271,27,87,18,333,24*67
$BDGSV,8,7,25,205,7,111,,207,15,39,,210,22,64,,211,5,,*5C
$BDGSV,8,8,25,213,30,309,*66
$GPRMC,072414.00,A,4825.1375,N,00428.3057,W,2.491,189.653,270217,,E,A*06
$GPGGA,072415.00,4825.1367,N,00428.3061,W,1,15,0.698,136.115,M,,M,0,*55
$GNGSA,A,3,2,3,6,7,9,17,19,22,23,69,71,72,79,80,85,,,,,,1.198,0.698,0.973*16
$GPGSA,A,3,2,3,6,7,9,17,19,22,23,,,,,,,,,,,,1.198,0.698,0.973*0F
$GLGSA,A,3,69,71,72,79,80,85,,,,,,,,,,,,,,,1.198,0.698,0.973*22
$BDGSA,A,3,,,,,,,,,,,,,,,,,,,,,1.198,0.698,0.973*28
$QZGSA,A,3,,,,,,,,,,,,,,,,,,,,,1.198,0.698,0.973*25
$GPGSV,8,1,25,2,30,308,20,3,24,92,30,4,5,,,6,68,270,29*45
$GPGSV,8,2,25,7,22,155,32,9,79,192,34,17,13,214,26,19,24,229,28*73
$GPGSV,8,3,25,22,6,97,25,23,54,61,33*4D
$GLGSV,8,4,25,69,7,71,11,70,59,39,25,71,53,287,26,72,7,263,25*6D
$GLGSV,8,5,25,73,6,139,24,79,21,32,16,80,27,96,24,85,27,201,31*56
$GLGSV,8,6,25,86,52,271,27,87,18,333,25*66
$BDGSV,8,7,25,205,7,111,,207,15,39,,210,22,64,,211,5,,*5C
$BDGSV,8,8,25,213,30,309,*66
$GPRMC,072415.00,A,4825.1367,N,00428.3061,W,2.453,184.985,270217,,E,A*06
$GPGGA,072416.00,4825.1359,N,00428.3065,W,1,15,0.698,135.972,M,,M,0,*55
$GNGSA,A,3,2,3,6,7,9,17,19,22,23,69,71,72,79,80,85,,,,,,1.197,0.698,0.973*19
$GPGSA,A,3,2,3,6,7,9,17,19,22,23,,,,,,,,,,,,1.197,0.698,0.973*00
$GLGSA,A,3,69,71,72,79,80,85,,,,,,,,,,,,,,,1.197,0.698,0.973*2D
$BDGSA,A,3,,,,,,,,,,,,,,,,,,,,,1.197,0.698,0.973*27
$QZGSA,A,3,,,,,,,,,,,,,,,,,,,,,1.197,0.698,0.973*2A
$GPGSV,8,1,25,2,30,308,22,3,24,92,30,4,5,,,6,68,269,26*40
$GPGSV,8,2,25,7,22,155,33,9,79,192,33,17,13,214,23,19,24,229,27*7F
$GPGSV,8,3,25,22,6,97,30,23,54,61,31*4B
$GLGSV,8,4,25,69,7,71,12,70,59,39,26,71,53,287,27,72,7,263,19*63
$GLGSV,8,5,25,73,6,139,24,79,21,32,15,80,27,96,27,85,27,201,30*57
$GLGSV,8,6,25,86,52,271,26,87,18,333,24*66
$BDGSV,8,7,25,205,7,111,,207,15,39,,210,22,64,,211,5,,*5C
$BDGSV,8,8,25,213,30,309,*66
$GPRMC,072416.00,A,4825.1359,N,00428.3065,W,2.695,188.767,270217,,E,A*0A
$GPGGA,072417.00,4825.1351,N,00428.3069,W,1,15,0.698,135.778,M,,M,0,*54
$GNGSA,A,3,2,3,6,7,9,17,19,22,23,69,71,72,79,80,85,,,,,,1.197,0.698,0.973*19
$GPGSA,A,3,2,3,6,7,9,17,19,22,23,,,,,,,,,,,,1.197,0.698,0.973*00
$GLGSA,A,3,69,71,72,79,80,85,,,,,,,,,,,,,,,1.197,0.698,0.973*2D
$BDGSA,A,3,,,,,,,,,,,,,,,,,,,,,1.197,0.698,0.973*27
$QZGSA,A,3,,,,,,,,,,,,,,,,,,,,,1.197,0.698,0.973*2A
$GPGSV,8,1,25,2,30,308,20,3,24,92,31,4,5,,,6,68,269,28*4D
$GPGSV,8,2,25,7,22,155,33,9,79,192,32,17,13,214,25,19,24,229,26*79
$GPGSV,8,3,25,22,6,97,28,23,54,61,30*43
$GLGSV,8,4,25,69,7,71,12,70,59,39,24,71,53,287,25,72,7,263,19*63
$GLGSV,8,5,25,73,6,139,22,79,21,32,15,80,27,96,26,85,27,201,26*57
$GLGSV,8,6,25,86,52,271,26,87,18,333,23*61
$BDGSV,8,7,25,205,7,111,,207,15,39,,210,22,64,,211,5,,*5C
$BDGSV,8,8,25,213,30,309,*66
$GPRMC,072417.00,A,4825.1351,N,00428.3069,W,2.822,189.534,270217,,E,A*08
$GPGGA,072418.00,4825.1340,N,00428.3072,W,1,15,0.698,136.011,M,,M,0,*5A
$GNGSA,A,3,2,3,6,7,9,17,19,22,23,69,71,72,79,80,85,,,,,,1.197,0.698,0.973*19
$GPGSA,A,3,2,3,6,7,9,17,19,22,23,,,,,,,,,,,,1.197,0.698,0.973*00
$GLGSA,A,3,69,71,72,79,80,85,,,,,,,,,,,,,,,1.197,0.698,0.973*2D
$BDGSA,A,3,,,,,,,,,,,,,,,,,,,,,1.197,0.698,0.973*27
$QZGSA,A,3,,,,,,,,,,,,,,,,,,,,,1.197,0.698,0.973*2A
$GPGSV,8,1,25,2,30,308,21,3,24,92,32,4,5,,,6,68,269,29*4E
$GPGSV,8,2,25,7,22,155,33,9,79,192,33,17,13,214,26,19,24,229,23*7E
$GPGSV,8,3,25,22,6,97,25,23,54,61,31*4F
$GLGSV,8,4,25,69,7,71,11,70,59,39,25,71,53,287,25,72,7,263,22*69
$GLGSV,8,5,25,73,6,139,21,79,21,32,14,80,27,96,27,85,27,201,22*50
$GLGSV,8,6,25,86,52,271,26,87,18,333,25*67
$BDGSV,8,7,25,205,7,111,,207,15,39,,210,22,64,,211,5,,*5C
$BDGSV,8,8,25,213,30,309,*66
$GPRMC,072418.00,A,4825.1340,N,00428.3072,W,2.818,188.761,270217,,E,A*07
$GPGGA,072419.00,4825.1330,N,00428.3072,W,1,15,0.698,136.072,M,,M,0,*59
$GNGSA,A,3,2,3,6,7,9,17,19,22,23,69,71,72,79,80,85,,,,,,1.197,0.698,0.973*19
$GPGSA,A,3,2,3,6,7,9,17,19,22,23,,,,,,,,,,,,1.197,0.698,0.973*00
$GLGSA,A,3,69,71,72,79,80,85,,,,,,,,,,,,,,,1.197,0.698,0.973*2D
$BDGSA,A,3,,,,,,,,,,,,,,,,,,,,,1.197,0.698,0.973*27
$QZGSA,A,3,,,,,,,,,,,,,,,,,,,,,1.197,0.698,0.973*2A
$GPGSV,8,1,25,2,30,308,21,3,24,92,32,4,5,,,6,68,269,28*4F
$GPGSV,8,2,25,7,22,155,33,9,79,192,33,17,13,214,23,19,24,229,19*72
$GPGSV,8,3,25,22,6,97,27,23,54,61,33*4F
$GLGSV,8,4,25,69,7,71,11,70,59,39,27,71,53,287,26,72,7,263,21*6B
$GLGSV,8,5,25,73,6,139,25,79,21,32,15,80,27,96,28,85,27,201,23*5B
$GLGSV,8,6,25,86,52,271,27,87,18,333,25*66
$BDGSV,8,7,25,205,7,111,,207,15,39,,210,22,64,,211,5,,*5C
$BDGSV,8,8,25,213,30,309,*66
$GPRMC,072419.00,A,4825.1330,N,00428.3072,W,2.546,188.141,270217,,E,A*03
$GPGGA,072420.00,4825.1319,N,00428.3067,W,1,15,0.698,136.370,M,,M,0,*5D
$GNGSA,A,3,2,3,6,7,9,17,19,22,23,69,71,72,79,80,85,,,,,,1.197,0.698,0.973*19
$GPGSA,A,3,2,3,6,7,9,17,19,22,23,,,,,,,,,,,,1.197,0.698,0.973*00
$GLGSA,A,3,69,71,72,79,80,85,,,,,,,,,,,,,,,1.197,0.698,0.973*2D
$BDGSA,A,3,,,,,,,,,,,,,,,,,,,,,1.197,0.698,0.973*27
$QZGSA,A,3,,,,,,,,,,,,,,,,,,,,,1.197,0.698,0.973*2A
$GPGSV,8,1,25,2,30,308,22,3,24,92,34,4,5,,,6,68,269,29*4B
$GPGSV,8,2,25,7,22,155,34,9,79,192,34,17,13,214,31,19,24,229,21*7A
$GPGSV,8,3,25,22,6,97,24,23,54,61,34*4B
$GLGSV,8,4,25,69,7,71,14,70,59,39,27,71,53,287,27,72,7,263,20*6E
$GLGSV,8,5,25,73,6,139,27,79,21,32,16,80,27,96,32,85,27,201,25*57
$GLGSV,8,6,25,86,52,271,28,87,18,333,26*6A
$BDGSV,8,7,25,205,7,111,,207,15,39,,210,22,64,20,211,5,,*5E
$BDGSV,8,8,25,213,30,309,*66
$GPRMC,072420.00,A,4825.1319,N,00428.3067,W,2.564,179.626,270217,,E,A*0E
$GPGGA,072421.00,4825.1308,N,00428.3065,W,1,16,0.684,136.885,M,,M,0,*51
$GNGSA,A,3,2,3,6,7,9,17,19,22,23,210,69,71,72,79,80,85,,,,,1.188,0.684,0.970*2A
$GPGSA,A,3,2,3,6,7,9,17,19,22,23,,,,,,,,,,,,1.188,0.684,0.970*00
$GLGSA,A,3,69,71,72,79,80,85,,,,,,,,,,,,,,,1.188,0.684,0.970*2D
$BDGSA,A,3,210,,,,,,,,,,,,,,,,,,,,1.188,0.684,0.970*14
$QZGSA,A,3,,,,,,,,,,,,,,,,,,,,,1.188,0.684,0.970*2A
$GPGSV,8,1,25,2,30,308,23,3,24,92,36,4,5,,,6,68,269,27*46
$GPGSV,8,2,25,7,22,155,35,9,79,192,34,17,13,214,34,19,24,229,20*7F
$GPGSV,8,3,25,22,6,97,20,23,54,61,32*49
$GLGSV,8,4,25,69,7,71,15,70,59,39,27,71,53,287,27,72,7,263,22*6D
$GLGSV,8,5,25,73,6,139,26,79,21,32,16,80,27,96,32,85,27,201,32*50
$GLGSV,8,6,25,86,52,271,22,87,18,333,24*62
$BDGSV,8,7,25,205,7,111,,207,15,39,,210,22,64,23,211,5,,*5D
$BDGSV,8,8,25,213,30,309,*66
$GPRMC,072421.00,A,4825.1308,N,00428.3065,W,2.452,175.346,270217,,E,A*06
$GPGGA,072422.00,4825.1294,N,00428.3063,W,1,16,0.684,137.357,M,,M,0,*55
$GNGSA,A,3,2,3,6,7,9,17,19,22,23,210,69,71,72,79,80,85,,,,,1.188,0.684,0.970*2A
$GPGSA,A,3,2,3,6,7,9,17,19,22,23,,,,,,,,,,,,1.188,0.684,0.970*00
$GLGSA,A,3,69,71,72,79,80,85,,,,,,,,,,,,,,,1.188,0.684,0.970*2D
$BDGSA,A,3,210,,,,,,,,,,,,,,,,,,,,1.188,0.684,0.970*14
$QZGSA,A,3,,,,,,,,,,,,,,,,,,,,,1.188,0.684,0.970*2A
$GPGSV,8,1,25,2,30,308,24,3,24,92,37,4,5,,,6,68,269,27*40
$GPGSV,8,2,25,7,22,155,34,9,79,192,34,17,13,214,35,19,24,229,26*79
$GPGSV,8,3,25,22,6,97,22,23,54,61,33*4A
$GLGSV,8,4,25,69,7,71,16,70,59,39,27,71,53,287,23,72,7,263,18*63
$GLGSV,8,5,25,73,6,139,24,79,21,32,26,80,27,96,31,85,27,201,32*52
$GLGSV,8,6,25,86,52,271,21,87,18,333,22*67
$BDGSV,8,7,25,205,7,111,,207,15,39,,210,22,64,22,211,5,,*5C
$BDGSV,8,8,25,213,30,309,*66
$GPRMC,072422.00,A,4825.1294,N,00428.3063,W,2.499,175.140,270217,,E,A*04
$GPGGA,072423.00,4825.1286,N,00428.3060,W,1,16,0.684,137.783,M,,M,0,*59
$GNGSA,A,3,2,3,6,7,9,17,19,22,23,210,69,71,72,79,80,85,,,,,1.187,0.684,0.970*25
$GPGSA,A,3,2,3,6,7,9,17,19,22,23,,,,,,,,,,,,1.187,0.684,0.970*0F
$GLGSA,A,3,69,71,72,79,80,85,,,,,,,,,,,,,,,1.187,0.684,0.970*22
$BDGSA,A,3,210,,,,,,,,,,,,,,,,,,,,1.187,0.684,0.970*1B
$QZGSA,A,3,,,,,,,,,,,,,,,,,,,,,1.187,0.684,0.970*25
$GPGSV,8,1,25,2,30,308,21,3,24,92,37,4,5,,,6,68,269,29*4B
$GPGSV,8,2,25,7,22,155,34,9,79,192,35,17,13,214,35,19,24,229,28*76
$GPGSV,8,3,25,22,6,97,20,23,54,61,33*48
$GLGSV,8,4,25,69,7,71,18,70,59,39,26,71,53,287,20,72,7,263,20*64
$GLGSV,8,5,25,73,6,139,25,79,21,32,23,80,27,96,32,85,27,201,33*54
$GLGSV,8,6,25,86,52,271,24,87,18,333,24*64
$BDGSV,8,7,25,205,7,111,,207,15,39,,210,22,64,20,211,5,,*5E
$BDGSV,8,8,25,213,30,309,*66
$GPRMC,072423.00,A,4825.1286,N,00428.3060,W,2.407,177.470,270217,,E,A*06
$GPGGA,072424.00,4825.1277,N,00428.3059,W,1,16,0.684,138.414,M,,M,0,*58
$GNGSA,A,3,2,3,6,7,9,17,19,22,23,210,69,71,72,79,80,85,,,,,1.187,0.684,0.970*25
$GPGSA,A,3,2,3,6,7,9,17,19,22,23,,,,,,,,,,,,1.187,0.684,0.970*0F
