$GPGGA,162010.77,4825.1039,N,00428.4709,W,0,,100.000,137.861,M,,M,0,*5A
$GNGSA,A,1,,,,,,,,,,,,,,,,,,,,,100.000,100.000,100.000*2F
$GPGSA,A,1,,,,,,,,,,,,,,,,,,,,,100.000,100.000,100.000*31
$GLGSA,A,1,,,,,,,,,,,,,,,,,,,,,100.000,100.000,100.000*2D
$BDGSA,A,1,,,,,,,,,,,,,,,,,,,,,100.000,100.000,100.000*20
$QZGSA,A,1,,,,,,,,,,,,,,,,,,,,,100.000,100.000,100.000*2D
$GPGSV,6,1,24,2,8,107,,6,11,70,,10,8,253,,12,79,41,*70
$GPGSV,6,2,24,14,25,313,,15,7,166,,17,5,31,,19,20,41,*74
$GPGSV,6,3,24,24,53,110,,25,52,249,,29,10,187,,32,45,293,*79
$GLGSV,6,4,24,65,35,285,,66,12,341,,72,23,229,,74,66,19,*58
$GLGSV,6,5,24,75,35,292,,83,34,45,,84,39,118,,85,8,162,*6E
$BDGSV,6,6,24,205,6,112,,208,16,28,,212,13,176,,214,15,237,*6C
$GPRMC,162010.77,V,4825.1039,N,00428.4709,W,0.000,0.000,040317,,E,N*10
$GPGGA,162010.97,4825.1039,N,00428.4709,W,0,,100.000,137.861,M,,M,0,*54
$GNGSA,A,1,,,,,,,,,,,,,,,,,,,,,100.000,100.000,100.000*2F
$GPGSA,A,1,,,,,,,,,,,,,,,,,,,,,100.000,100.000,100.000*31
$GLGSA,A,1,,,,,,,,,,,,,,,,,,,,,100.000,100.000,100.000*2D
$BDGSA,A,1,,,,,,,,,,,,,,,,,,,,,100.000,100.000,100.000*20
$QZGSA,A,1,,,,,,,,,,,,,,,,,,,,,100.000,100.000,100.000*2D
$GPGSV,6,1,24,2,8,107,,6,11,70,,10,8,253,,12,79,41,20*72
$GPGSV,6,2,24,14,25,313,20,15,7,166,20,17,5,31,,19,20,41,*74
$GPGSV,6,3,24,24,53,110,,25,52,249,,29,10,187,,32,45,293,*79
$GLGSV,6,4,24,65,35,285,,66,12,341,,72,23,229,,74,66,19,*58
$GLGSV,6,5,24,75,35,292,,83,34,45,,84,39,118,,85,8,162,*6E
$BDGSV,6,6,24,205,6,112,,208,16,28,,212,13,176,,214,15,237,*6C
$GPRMC,162010.97,V,4825.1039,N,00428.4709,W,0.000,0.000,040317,,E,N*1E
$GPGGA,162011.17,4825.1039,N,00428.4709,W,0,,100.000,137.861,M,,M,0,*5D
$GNGSA,A,1,,,,,,,,,,,,,,,,,,,,,100.000,100.000,100.000*2F
$GPGSA,A,1,,,,,,,,,,,,,,,,,,,,,100.000,100.000,100.000*31
$GLGSA,A,1,,,,,,,,,,,,,,,,,,,,,100.000,100.000,100.000*2D
$BDGSA,A,1,,,,,,,,,,,,,,,,,,,,,100.000,100.000,100.000*20
$QZGSA,A,1,,,,,,,,,,,,,,,,,,,,,100.000,100.000,100.000*2D
$GPGSV,6,1,24,2,8,107,,6,11,70,,10,8,253,,12,79,41,29*7B
$GPGSV,6,2,24,14,25,313,26,15,7,166,25,17,5,31,,19,20,41,*77
$GPGSV,6,3,24,24,53,110,,25,52,249,,29,10,187,,32,45,293,*79
$GLGSV,6,4,24,65,35,285,,66,12,341,,72,23,229,,74,66,19,*58
$GLGSV,6,5,24,75,35,292,,83,34,45,24,84,39,118,,85,8,162,24*6E
$BDGSV,6,6,24,205,6,112,,208,16,28,,212,13,176,,214,15,237,*6C
$GPRMC,162011.17,V,4825.1039,N,00428.4709,W,0.000,0.000,040317,,E,N*17
$GPGGA,162011.37,4825.1039,N,00428.4709,W,0,,100.000,137.861,M,,M,0,*5F
$GNGSA,A,1,,,,,,,,,,,,,,,,,,,,,100.000,100.000,100.000*2F
$GPGSA,A,1,,,,,,,,,,,,,,,,,,,,,100.000,100.000,100.000*31
$GLGSA,A,1,,,,,,,,,,,,,,,,,,,,,100.000,100.000,100.000*2D
$BDGSA,A,1,,,,,,,,,,,,,,,,,,,,,100.000,100.000,100.000*20
$QZGSA,A,1,,,,,,,,,,,,,,,,,,,,,100.000,100.000,100.000*2D
$GPGSV,6,1,24,2,8,107,,6,11,70,,10,8,253,,12,79,41,29*7B
$GPGSV,6,2,24,14,25,313,26,15,7,166,25,17,5,31,,19,20,41,*77
$GPGSV,6,3,24,24,53,110,,25,52,249,,29,10,187,,32,45,293,*79
$GLGSV,6,4,24,65,35,285,,66,12,341,,72,23,229,24,74,66,19,24*58
$GLGSV,6,5,24,75,35,292,,83,34,45,23,84,39,118,,85,8,162,29*64
$BDGSV,6,6,24,205,6,112,,208,16,28,,212,13,176,,214,15,237,*6C
$GPRMC,162011.37,V,4825.1039,N,00428.4709,W,0.000,0.000,040317,,E,N*15
$GPGGA,162011.57,4825.1039,N,00428.4709,W,0,,100.000,137.861,M,,M,0,*59
$GNGSA,A,1,,,,,,,,,,,,,,,,,,,,,100.000,100.000,100.000*2F
$GPGSA,A,1,,,,,,,,,,,,,,,,,,,,,100.000,100.000,100.000*31
$GLGSA,A,1,,,,,,,,,,,,,,,,,,,,,100.000,100.000,100.000*2D
$BDGSA,A,1,,,,,,,,,,,,,,,,,,,,,100.000,100.000,100.000*20
$QZGSA,A,1,,,,,,,,,,,,,,,,,,,,,100.000,100.000,100.000*2D
$GPGSV,6,1,24,2,8,107,,6,11,70,,10,8,253,,12,79,41,29*7B
$GPGSV,6,2,24,14,25,313,26,15,7,166,25,17,5,31,,19,20,41,*77
$GPGSV,6,3,24,24,53,110,,25,52,249,,29,10,187,,32,45,293,*79
$GLGSV,6,4,24,65,35,285,,66,12,341,,72,23,229,20,74,66,19,23*5B
$GLGSV,6,5,24,75,35,292,,83,34,45,23,84,39,118,,85,8,162,29*64
$BDGSV,6,6,24,205,6,112,,208,16,28,,212,13,176,28,214,15,237,*66
$GPRMC,162011.57,V,4825.1039,N,00428.4709,W,0.000,0.000,040317,,E,N*13
$GPGGA,162011.78,4825.1039,N,00428.4709,W,0,,100.000,137.861,M,,M,0,*54
$GNGSA,A,1,,,,,,,,,,,,,,,,,,,,,100.000,100.000,100.000*2F
$GPGSA,A,1,,,,,,,,,,,,,,,,,,,,,100.000,100.000,100.000*31
$GLGSA,A,1,,,,,,,,,,,,,,,,,,,,,100.000,100.000,100.000*2D
$BDGSA,A,1,,,,,,,,,,,,,,,,,,,,,100.000,100.000,100.000*20
$QZGSA,A,1,,,,,,,,,,,,,,,,,,,,,100.000,100.000,100.000*2D
$GPGSV,6,1,24,2,8,107,,6,11,70,,10,8,253,,12,79,41,29*7B
$GPGSV,6,2,24,14,25,313,26,15,7,166,25,17,5,31,,19,20,41,*77
$GPGSV,6,3,24,24,53,110,,25,52,249,,29,10,187,,32,45,293,*79
$GLGSV,6,4,24,65,35,285,,66,12,341,,72,23,229,20,74,66,19,23*5B
$GLGSV,6,5,24,75,35,292,,83,34,45,23,84,39,118,,85,8,162,29*64
$BDGSV,6,6,24,205,6,112,,208,16,28,,212,13,176,16,214,15,237,*6B
$GPRMC,162011.78,V,4825.1039,N,00428.4709,W,0.000,0.000,040317,,E,N*1E
$GPGGA,162011.97,4825.1039,N,00428.4709,W,0,2,100.000,137.861,M,,M,0,*67
$GNGSA,A,1,12,14,,,,,,,,,,,,,,,,,,,100.000,100.000,100.000*29
$GPGSA,A,1,12,14,,,,,,,,,,,,,,,,,,,100.000,100.000,100.000*37
$GLGSA,A,1,,,,,,,,,,,,,,,,,,,,,100.000,100.000,100.000*2D
$BDGSA,A,1,,,,,,,,,,,,,,,,,,,,,100.000,100.000,100.000*20
$QZGSA,A,1,,,,,,,,,,,,,,,,,,,,,100.000,100.000,100.000*2D
$GPGSV,6,1,24,2,8,107,,6,11,70,,10,8,253,,12,79,41,32*71
$GPGSV,6,2,24,14,25,313,29,15,7,166,27,17,5,31,,19,20,41,*7A
$GPGSV,6,3,24,24,53,110,,25,52,249,,29,10,187,,32,45,293,*79
$GLGSV,6,4,24,65,35,285,,66,12,341,,72,23,229,20,74,66,19,23*5B
$GLGSV,6,5,24,75,35,292,,83,34,45,23,84,39,118,,85,8,162,29*64
$BDGSV,6,6,24,205,6,112,,208,16,28,,212,13,176,16,214,15,237,*6B
$GPRMC,162011.97,V,4825.1039,N,00428.4709,W,0.000,0.000,040317,,E,N*1F
$GPGGA,162012.17,4825.1039,N,00428.4709,W,0,3,100.000,137.861,M,,M,0,*6D
$GNGSA,A,1,12,14,15,,,,,,,,,,,,,,,,,,100.000,100.000,100.000*2D
$GPGSA,A,1,12,14,15,,,,,,,,,,,,,,,,,,100.000,100.000,100.000*33
$GLGSA,A,1,,,,,,,,,,,,,,,,,,,,,100.000,100.000,100.000*2D
$BDGSA,A,1,,,,,,,,,,,,,,,,,,,,,100.000,100.000,100.000*20
$QZGSA,A,1,,,,,,,,,,,,,,,,,,,,,100.000,100.000,100.000*2D
$GPGSV,6,1,24,2,8,107,,6,11,70,,10,8,253,,12,79,41,32*71
$GPGSV,6,2,24,14,25,313,29,15,7,166,27,17,5,31,,19,20,41,*7A
$GPGSV,6,3,24,24,53,110,,25,52,249,,29,10,187,20,32,45,293,*7B
$GLGSV,6,4,24,65,35,285,,66,12,341,,72,23,229,20,74,66,19,23*5B
$GLGSV,6,5,24,75,35,292,,83,34,45,25,84,39,118,,85,8,162,29*62
$BDGSV,6,6,24,205,6,112,,208,16,28,,212,13,176,16,214,15,237,*6B
$GPRMC,162012.17,V,4825.1039,N,00428.4709,W,0.000,0.000,040317,,E,N*14
$GPGGA,162012.38,4825.1039,N,00428.4709,W,0,3,100.000,137.861,M,,M,0,*60
$GNGSA,A,1,12,14,15,,,,,,,,,,,,,,,,,,100.000,100.000,100.000*2D
$GPGSA,A,1,12,14,15,,,,,,,,,,,,,,,,,,100.000,100.000,100.000*33
$GLGSA,A,1,,,,,,,,,,,,,,,,,,,,,100.000,100.000,100.000*2D
$BDGSA,A,1,,,,,,,,,,,,,,,,,,,,,100.000,100.000,100.000*20
$QZGSA,A,1,,,,,,,,,,,,,,,,,,,,,100.000,100.000,100.000*2D
$GPGSV,6,1,24,2,8,107,,6,11,70,,10,8,253,,12,79,41,32*71
$GPGSV,6,2,24,14,25,313,29,15,7,166,27,17,5,31,,19,20,41,*7A
$GPGSV,6,3,24,24,53,110,,25,52,249,20,29,10,187,30,32,45,293,*78
$GLGSV,6,4,24,65,35,285,,66,12,341,,72,23,229,20,74,66,19,27*5F
$GLGSV,6,5,24,75,35,292,,83,34,45,25,84,39,118,,85,8,162,29*62
$BDGSV,6,6,24,205,6,112,,208,16,28,,212,13,176,16,214,15,237,*6B
$GPRMC,162012.38,V,4825.1039,N,00428.4709,W,0.000,0.000,040317,,E,N*19
$GPGGA,162012.59,4825.1573,N,00428.2578,W,0,6,1.490,154.250,M,,M,0,*6B
$GNGSA,A,1,12,14,15,212,83,85,,,,,,,,,,,,,,,2.451,1.490,1.947*1E
$GPGSA,A,1,12,14,15,,,,,,,,,,,,,,,,,,2.451,1.490,1.947*37
$GLGSA,A,1,83,85,,,,,,,,,,,,,,,,,,,2.451,1.490,1.947*2F
$BDGSA,A,1,212,,,,,,,,,,,,,,,,,,,,2.451,1.490,1.947*15
$QZGSA,A,1,,,,,,,,,,,,,,,,,,,,,2.451,1.490,1.947*29
$GPGSV,6,1,24,2,8,107,,6,11,70,,10,8,253,,12,79,41,32*71
$GPGSV,6,2,24,14,25,313,29,15,7,166,27,17,5,31,,19,20,41,*7A
$GPGSV,6,3,24,24,53,110,,25,52,249,9,29,10,187,30,32,45,293,*43
$GLGSV,6,4,24,65,35,285,,66,12,341,,72,23,229,20,74,66,19,27*5F
$GLGSV,6,5,24,75,35,292,,83,34,45,25,84,39,118,,85,8,162,29*62
$BDGSV,6,6,24,205,10,109,,208,16,28,,212,13,176,28,214,15,237,*5B
$GPRMC,162012.59,V,4825.1573,N,00428.2578,W,2.440,0.000,040317,,E,N*15
$GPGGA,162012.87,4825.1569,N,00428.2588,W,1,6,1.490,153.710,M,,M,0,*6B
$GNGSA,A,3,12,14,15,212,83,85,,,,,,,,,,,,,,,2.451,1.490,1.947*1C
$GPGSA,A,3,12,14,15,,,,,,,,,,,,,,,,,,2.451,1.490,1.947*35
$GLGSA,A,3,83,85,,,,,,,,,,,,,,,,,,,2.451,1.490,1.947*2D
$BDGSA,A,3,212,,,,,,,,,,,,,,,,,,,,2.451,1.490,1.947*17
$QZGSA,A,3,,,,,,,,,,,,,,,,,,,,,2.451,1.490,1.947*2B
$GPGSV,6,1,24,2,8,107,,6,11,70,,10,8,253,,12,79,41,32*71
$GPGSV,6,2,24,14,25,313,29,15,7,166,27,17,5,31,,19,20,41,*7A
$GPGSV,6,3,24,24,53,110,,25,52,249,9,29,10,187,30,32,45,293,*43
$GLGSV,6,4,24,65,35,285,,66,12,341,,72,23,229,20,74,66,19,27*5F
$GLGSV,6,5,24,75,35,292,,83,34,45,25,84,39,118,,85,8,162,29*62
$BDGSV,6,6,24,205,10,109,,208,16,28,,212,13,176,28,214,15,237,*5B
$GPRMC,162012.87,A,4825.1569,N,00428.2588,W,2.284,0.000,040317,,E,A*04
$GPGGA,162013.07,4825.1644,N,00428.2479,W,1,9,1.141,148.066,M,,M,0,*6B
$GNGSA,A,3,12,14,15,29,212,72,74,83,85,,,,,,,,,,,,2.024,1.141,1.672*17
$GPGSA,A,3,12,14,15,29,,,,,,,,,,,,,,,,,2.024,1.141,1.672*38
$GLGSA,A,3,72,74,83,85,,,,,,,,,,,,,,,,,2.024,1.141,1.672*2D
$BDGSA,A,3,212,,,,,,,,,,,,,,,,,,,,2.024,1.141,1.672*11
$QZGSA,A,3,,,,,,,,,,,,,,,,,,,,,2.024,1.141,1.672*2D
$GPGSV,6,1,24,2,8,107,,6,11,70,,10,8,253,,12,79,41,35*76
$GPGSV,6,2,24,14,25,313,31,15,7,166,27,17,5,31,,19,20,41,*73
$GPGSV,6,3,24,24,53,110,,25,52,249,9,29,10,187,30,32,45,293,*43
$GLGSV,6,4,24,65,35,285,24,66,12,341,,72,23,229,20,74,66,19,27*59
$GLGSV,6,5,24,75,35,292,24,83,34,45,25,84,39,118,,85,8,162,29*64
$BDGSV,6,6,24,205,10,109,,208,16,28,,212,13,176,28,214,15,237,*5B
$GPRMC,162013.07,A,4825.1644,N,00428.2479,W,0.992,0.000,040317,,E,A*00
$GPGGA,162014.07,4825.1711,N,00428.2429,W,1,10,1.056,132.398,M,,M,0,*58
$GNGSA,A,3,12,14,15,25,29,212,72,74,83,85,,,,,,,,,,,1.816,1.056,1.478*15
$GPGSA,A,3,12,14,15,25,29,,,,,,,,,,,,,,,,1.816,1.056,1.478*3A
$GLGSA,A,3,72,74,83,85,,,,,,,,,,,,,,,,,1.816,1.056,1.478*28
$BDGSA,A,3,212,,,,,,,,,,,,,,,,,,,,1.816,1.056,1.478*14
$QZGSA,A,3,,,,,,,,,,,,,,,,,,,,,1.816,1.056,1.478*28
$GPGSV,6,1,24,2,8,107,,6,11,70,,10,8,253,,12,79,41,38*7B
$GPGSV,6,2,24,14,25,313,29,15,7,166,24,17,5,31,,19,20,41,*79
$GPGSV,6,3,24,24,53,110,,25,52,249,25,29,10,187,31,32,45,293,*7C
$GLGSV,6,4,24,65,35,285,18,66,12,341,,72,23,229,20,74,66,20,32*58
$GLGSV,6,5,24,75,35,292,25,83,34,45,27,84,39,118,,85,8,162,33*6C
$BDGSV,6,6,24,205,10,109,,208,16,28,,212,13,176,29,214,15,237,*5A
$GPRMC,162014.07,A,4825.1711,N,00428.2429,W,0.883,0.000,040317,,E,A*02
$GPGGA,162015.07,4825.1576,N,00428.2682,W,1,12,0.946,147.880,M,,M,0,*52
$GNGSA,A,3,12,14,15,25,29,212,65,72,74,75,83,85,,,,,,,,,1.737,0.946,1.457*1C
$GPGSA,A,3,12,14,15,25,29,,,,,,,,,,,,,,,,1.737,0.946,1.457*32
$GLGSA,A,3,65,72,74,75,83,85,,,,,,,,,,,,,,,1.737,0.946,1.457*21
$BDGSA,A,3,212,,,,,,,,,,,,,,,,,,,,1.737,0.946,1.457*1C
$QZGSA,A,3,,,,,,,,,,,,,,,,,,,,,1.737,0.946,1.457*20
$GPGSV,6,1,24,2,8,107,,6,11,70,,10,8,253,,12,79,41,37*74
$GPGSV,6,2,24,14,25,313,25,15,7,166,18,17,5,31,,19,20,41,*7A
$GPGSV,6,3,24,24,53,110,,25,53,249,27,29,10,187,24,32,45,293,*7B
$GLGSV,6,4,24,65,35,285,20,66,12,341,24,72,23,229,19,74,66,20,29*55
$GLGSV,6,5,24,75,35,292,23,83,34,45,25,84,39,118,,85,8,162,32*69
$BDGSV,6,6,24,205,10,109,,208,16,28,,212,13,176,25,214,15,237,*56
$GPRMC,162015.07,A,4825.1576,N,00428.2682,W,0.543,0.000,040317,,E,A*02
$GPGGA,162016.00,4825.1593,N,00428.2622,W,1,13,0.816,144.961,M,,M,0,*5F
$GNGSA,A,3,12,14,15,25,29,212,65,66,72,74,75,83,85,,,,,,,,1.395,0.816,1.131*11
$GPGSA,A,3,12,14,15,25,29,,,,,,,,,,,,,,,,1.395,0.816,1.131*3F
$GLGSA,A,3,65,66,72,74,75,83,85,,,,,,,,,,,,,,1.395,0.816,1.131*2C
$BDGSA,A,3,212,,,,,,,,,,,,,,,,,,,,1.395,0.816,1.131*11
$QZGSA,A,3,,,,,,,,,,,,,,,,,,,,,1.395,0.816,1.131*2D
$GPGSV,6,1,24,2,8,107,,6,11,70,,10,8,253,,12,79,41,37*74
$GPGSV,6,2,24,14,25,313,23,15,7,166,22,17,5,31,,19,20,41,*75
$GPGSV,6,3,24,24,53,110,,25,53,249,26,29,10,187,23,32,45,293,*7D
$GLGSV,6,4,24,65,35,285,20,66,12,341,26,72,23,229,18,74,66,20,29*56
$GLGSV,6,5,24,75,35,292,25,83,34,45,24,84,39,118,,85,8,162,32*6E
$BDGSV,6,6,24,205,10,109,,208,16,28,,212,13,176,21,214,15,237,*52
$GPRMC,162016.00,A,4825.1593,N,00428.2622,W,0.146,0.000,040317,,E,A*06
$GPGGA,162017.00,4825.1634,N,00428.2468,W,1,11,0.984,150.176,M,,M,0,*5F
$GNGSA,A,3,12,14,15,25,29,212,65,74,75,83,85,,,,,,,,,,1.760,0.984,1.460*11
$GPGSA,A,3,12,14,15,25,29,,,,,,,,,,,,,,,,1.760,0.984,1.460*3A
$GLGSA,A,3,65,74,75,83,85,,,,,,,,,,,,,,,,1.760,0.984,1.460*2C
$BDGSA,A,3,212,,,,,,,,,,,,,,,,,,,,1.760,0.984,1.460*14
$QZGSA,A,3,,,,,,,,,,,,,,,,,,,,,1.760,0.984,1.460*28
$GPGSV,6,1,24,2,8,107,,6,11,70,,10,8,253,,12,79,41,36*75
$GPGSV,6,2,24,14,25,313,25,15,7,166,25,17,5,31,,19,20,41,*74
$GPGSV,6,3,24,24,53,110,23,25,53,249,28,29,10,187,33,32,45,293,14*76
$GLGSV,6,4,24,65,35,285,26,66,12,341,26,72,23,229,21,74,66,20,31*53
$GLGSV,6,5,24,75,35,292,26,83,34,45,23,84,39,118,,85,8,162,32*6A
$BDGSV,6,6,24,205,10,109,,208,16,28,,212,13,176,25,214,15,237,*56
$GPRMC,162017.00,A,4825.1634,N,00428.2468,W,0.000,0.000,040317,,E,A*06
$GPGGA,162018.00,4825.1634,N,00428.2468,W,1,16,0.698,150.176,M,,M,0,*55
$GNGSA,A,3,10,12,14,15,19,24,25,29,32,212,65,72,74,75,83,85,,,,,1.295,0.698,1.091*1D
$GPGSA,A,3,10,12,14,15,19,24,25,29,32,,,,,,,,,,,,1.295,0.698,1.091*33
$GLGSA,A,3,65,72,74,75,83,85,,,,,,,,,,,,,,,1.295,0.698,1.091*2E
$BDGSA,A,3,212,,,,,,,,,,,,,,,,,,,,1.295,0.698,1.091*13
$QZGSA,A,3,,,,,,,,,,,,,,,,,,,,,1.295,0.698,1.091*2F
$GPGSV,9,1,29,2,8,107,,4,5,,,6,11,70,14,10,8,253,28*74
$GPGSV,9,2,29,12,79,41,33,14,25,313,26,15,7,166,21,17,5,31,15*72
$GPGSV,9,3,29,19,20,41,22,24,53,110,26,25,53,249,25,29,10,187,33*4E
$GPGSV,9,4,29,32,45,293,25*40
$GLGSV,9,5,29,65,35,285,28,66,12,341,23,72,23,229,24,73,19,82,*5B
$GLGSV,9,6,29,74,66,20,30,75,35,292,28,83,34,45,29,84,39,118,*6C
$GLGSV,9,7,29,85,8,162,31*62
$BDGSV,9,8,29,205,10,109,,207,5,,,208,16,28,,211,5,,*5C
$BDGSV,9,9,29,212,13,176,23,213,5,,,214,15,237,*61
$GPRMC,162018.00,A,4825.1634,N,00428.2468,W,0.000,0.000,040317,,E,A*09
$GPGGA,162019.00,4825.1634,N,00428.2468,W,1,17,0.622,150.176,M,,M,0,*54
$GNGSA,A,3,10,12,14,15,17,19,24,25,29,32,212,65,72,74,75,83,85,,,,1.109,0.622,0.919*14
$GPGSA,A,3,10,12,14,15,17,19,24,25,29,32,,,,,,,,,,,1.109,0.622,0.919*3A
$GLGSA,A,3,65,72,74,75,83,85,,,,,,,,,,,,,,,1.109,0.622,0.919*21
$BDGSA,A,3,212,,,,,,,,,,,,,,,,,,,,1.109,0.622,0.919*1C
$QZGSA,A,3,,,,,,,,,,,,,,,,,,,,,1.109,0.622,0.919*20
$GPGSV,9,1,29,2,8,107,,4,5,,,6,11,70,8,10,8,253,25*44
$GPGSV,9,2,29,12,79,41,35,14,25,313,26,15,6,166,29,17,5,31,18*70
$GPGSV,9,3,29,19,20,41,21,24,53,110,26,25,53,249,27,29,10,187,35*49
$GPGSV,9,4,29,32,45,293,27*42
$GLGSV,9,5,29,65,35,285,28,66,12,341,24,72,23,229,24,73,19,82,*5C
$GLGSV,9,6,29,74,66,20,29,75,35,292,30,83,34,45,26,84,39,118,*62
$GLGSV,9,7,29,85,8,162,26*64
$BDGSV,9,8,29,205,10,109,,207,5,,,208,16,28,,211,5,,*5C
$BDGSV,9,9,29,212,13,176,24,213,5,,,214,15,237,*66
$GPRMC,162019.00,A,4825.1634,N,00428.2468,W,0.000,0.000,040317,,E,A*08
$GPGGA,162020.00,4825.1634,N,00428.2468,W,1,17,0.622,150.176,M,,M,0,*5E
$GNGSA,A,3,10,12,14,15,17,19,24,25,29,32,212,65,72,74,75,83,85,,,,1.109,0.622,0.919*14
$GPGSA,A,3,10,12,14,15,17,19,24,25,29,32,,,,,,,,,,,1.109,0.622,0.919*3A
$GLGSA,A,3,65,72,74,75,83,85,,,,,,,,,,,,,,,1.109,0.622,0.919*21
$BDGSA,A,3,212,,,,,,,,,,,,,,,,,,,,1.109,0.622,0.919*1C
$QZGSA,A,3,,,,,,,,,,,,,,,,,,,,,1.109,0.622,0.919*20
$GPGSV,9,1,29,2,8,107,,4,5,,,6,11,70,8,10,8,253,24*45
$GPGSV,9,2,29,12,79,41,33,14,25,313,20,15,6,166,29,17,5,31,17*7F
$GPGSV,9,3,29,19,20,41,19,24,53,110,30,25,53,249,27,29,10,187,32*42
$GPGSV,9,4,29,32,45,293,29*4C
$GLGSV,9,5,29,65,35,285,27,66,12,341,26,72,23,229,24,73,19,82,*51
$GLGSV,9,6,29,74,66,20,27,75,35,292,27,83,34,45,19,84,39,118,*66
$GLGSV,9,7,29,85,8,162,24*66
$BDGSV,9,8,29,205,10,109,,207,5,,,208,16,28,,211,5,,*5C
$BDGSV,9,9,29,212,13,176,24,213,5,,,214,15,237,*66
$GPRMC,162020.00,A,4825.1634,N,00428.2468,W,0.000,0.000,040317,,E,A*02
$GPGGA,162021.00,4825.1634,N,00428.2468,W,1,17,0.622,150.176,M,,M,0,*5F
$GNGSA,A,3,10,12,14,15,17,19,24,25,29,32,212,65,72,74,75,83,85,,,,1.109,0.622,0.919*14
$GPGSA,A,3,10,12,14,15,17,19,24,25,29,32,,,,,,,,,,,1.109,0.622,0.919*3A
$GLGSA,A,3,65,72,74,75,83,85,,,,,,,,,,,,,,,1.109,0.622,0.919*21
$BDGSA,A,3,212,,,,,,,,,,,,,,,,,,,,1.109,0.622,0.919*1C
$QZGSA,A,3,,,,,,,,,,,,,,,,,,,,,1.109,0.622,0.919*20
$GPGSV,9,1,29,2,8,107,,4,5,,,6,11,70,10,10,8,253,26*7E
$GPGSV,9,2,29,12,79,41,34,14,25,313,23,15,6,166,24,17,5,31,19*78
$GPGSV,9,3,29,19,20,41,20,24,53,110,28,25,53,249,30,29,10,187,36*43
$GPGSV,9,4,29,32,45,293,29*4C
$GLGSV,9,5,29,65,35,285,25,66,12,341,28,72,23,229,26,73,19,82,*5F
$GLGSV,9,6,29,74,66,20,28,75,35,292,27,83,34,45,20,84,39,118,*63
$GLGSV,9,7,29,85,8,162,22*60
$BDGSV,9,8,29,205,10,109,,207,5,,,208,16,28,,211,5,,*5C
$BDGSV,9,9,29,212,13,176,21,213,5,,,214,15,237,*63
$GPRMC,162021.00,A,4825.1634,N,00428.2468,W,0.000,0.000,040317,,E,A*03
$GPGGA,162022.00,4825.1634,N,00428.2468,W,1,17,0.622,150.176,M,,M,0,*5C
$GNGSA,A,3,10,12,14,15,17,19,24,25,29,32,212,65,72,74,75,83,85,,,,1.109,0.622,0.919*14
$GPGSA,A,3,10,12,14,15,17,19,24,25,29,32,,,,,,,,,,,1.109,0.622,0.919*3A
$GLGSA,A,3,65,72,74,75,83,85,,,,,,,,,,,,,,,1.109,0.622,0.919*21
$BDGSA,A,3,212,,,,,,,,,,,,,,,,,,,,1.109,0.622,0.919*1C
$QZGSA,A,3,,,,,,,,,,,,,,,,,,,,,1.109,0.622,0.919*20
$GPGSV,9,1,29,2,8,107,,4,5,,,6,11,70,10,10,8,253,28*70
$GPGSV,9,2,29,12,79,41,29,14,25,313,24,15,6,166,23,17,5,31,19*74
$GPGSV,9,3,29,19,20,41,20,24,53,110,28,25,53,249,30,29,10,187,34*41
$GPGSV,9,4,29,32,45,293,29*4C
$GLGSV,9,5,29,65,35,285,26,66,12,341,27,72,23,229,25,73,19,82,*50
$GLGSV,9,6,29,74,66,20,30,75,35,292,29,83,34,45,20,84,39,118,*64
$GLGSV,9,7,29,85,8,162,24*66
$BDGSV,9,8,29,205,10,109,,207,5,,,208,16,28,,211,5,,*5C
$BDGSV,9,9,29,212,13,176,19,213,5,,,214,15,237,*68
$GPRMC,162022.00,A,4825.1634,N,00428.2468,W,0.000,0.000,040317,,E,A*00
$GPGGA,162023.00,4825.1634,N,00428.2468,W,1,17,0.622,150.176,M,,M,0,*5D
$GNGSA,A,3,10,12,14,15,17,19,24,25,29,32,212,65,72,74,75,83,85,,,,1.109,0.622,0.919*14
$GPGSA,A,3,10,12,14,15,17,19,24,25,29,32,,,,,,,,,,,1.109,0.622,0.919*3A
$GLGSA,A,3,65,72,74,75,83,85,,,,,,,,,,,,,,,1.109,0.622,0.919*21
$BDGSA,A,3,212,,,,,,,,,,,,,,,,,,,,1.109,0.622,0.919*1C
$QZGSA,A,3,,,,,,,,,,,,,,,,,,,,,1.109,0.622,0.919*20
$GPGSV,9,1,29,2,8,107,,4,5,,,6,11,70,9,10,8,253,25*45
$GPGSV,9,2,29,12,79,41,34,14,25,313,22,15,6,166,22,17,5,31,19*7F
$GPGSV,9,3,29,19,20,41,20,24,53,110,24,25,53,249,29,29,10,187,33*42
$GPGSV,9,4,29,32,45,293,29*4C
$GLGSV,9,5,29,65,35,285,27,66,12,341,25,72,23,229,26,73,19,82,*50
$GLGSV,9,6,29,74,66,20,29,75,35,292,26,83,34,45,20,84,39,118,*63
$GLGSV,9,7,29,85,8,162,20*62
$BDGSV,9,8,29,205,10,109,,207,5,,,208,16,28,,211,5,,*5C
$BDGSV,9,9,29,212,13,176,19,213,5,,,214,15,237,*68
$GPRMC,162023.00,A,4825.1634,N,00428.2468,W,0.000,0.000,040317,,E,A*01
$GPGGA,162024.00,4825.1634,N,00428.2468,W,1,17,0.622,150.176,M,,M,0,*5A
$GNGSA,A,3,10,12,14,15,17,19,24,25,29,32,212,65,72,74,75,83,85,,,,1.109,0.622,0.919*14
$GPGSA,A,3,10,12,14,15,17,19,24,25,29,32,,,,,,,,,,,1.109,0.622,0.919*3A
$GLGSA,A,3,65,72,74,75,83,85,,,,,,,,,,,,,,,1.109,0.622,0.919*21
$BDGSA,A,3,212,,,,,,,,,,,,,,,,,,,,1.109,0.622,0.919*1C
$QZGSA,A,3,,,,,,,,,,,,,,,,,,,,,1.109,0.622,0.919*20
$GPGSV,9,1,29,2,8,107,,4,5,,,6,11,70,11,10,8,253,21*78
$GPGSV,9,2,29,12,79,41,33,14,25,313,24,15,6,166,21,17,5,31,19*7D
$GPGSV,9,3,29,19,20,41,19,24,53,110,20,25,53,249,29,29,10,187,32*4D
$GPGSV,9,4,29,32,45,293,28*4D
$GLGSV,9,5,29,65,35,285,26,66,12,341,28,72,23,229,24,73,19,82,*5E
$GLGSV,9,6,29,74,66,20,29,75,35,292,25,83,34,45,19,84,39,118,*6A
$GLGSV,9,7,29,85,8,162,18*69
$BDGSV,9,8,29,205,10,109,,207,5,,,208,16,28,,211,5,,*5C
$BDGSV,9,9,29,212,13,176,21,213,5,,,214,15,237,*63
$GPRMC,162024.00,A,4825.1634,N,00428.2468,W,0.000,0.000,040317,,E,A*06
$GPGGA,162025.00,4825.1634,N,00428.2468,W,1,17,0.622,150.176,M,,M,0,*5B
$GNGSA,A,3,10,12,14,15,17,19,24,25,29,32,212,65,72,74,75,83,85,,,,1.109,0.622,0.919*14
$GPGSA,A,3,10,12,14,15,17,19,24,25,29,32,,,,,,,,,,,1.109,0.622,0.919*3A
$GLGSA,A,3,65,72,74,75,83,85,,,,,,,,,,,,,,,1.109,0.622,0.919*21
$BDGSA,A,3,212,,,,,,,,,,,,,,,,,,,,1.109,0.622,0.919*1C
$QZGSA,A,3,,,,,,,,,,,,,,,,,,,,,1.109,0.622,0.919*20
$GPGSV,9,1,29,2,8,107,,4,5,,,6,11,70,10,10,8,253,23*7B
$GPGSV,9,2,29,12,79,41,32,14,25,313,23,15,6,166,22,17,5,31,18*79
$GPGSV,9,3,29,19,20,41,18,24,53,110,20,25,53,249,30,29,10,187,34*42
$GPGSV,9,4,29,32,45,293,28*4D
$GLGSV,9,5,29,65,35,285,25,66,12,341,27,72,23,229,21,73,19,82,*57
$GLGSV,9,6,29,74,66,20,29,75,35,292,27,83,34,45,19,84,39,118,*68
$GLGSV,9,7,29,85,8,162,20*62
$BDGSV,9,8,29,205,10,109,,207,5,,,208,16,28,,211,5,,*5C
$BDGSV,9,9,29,212,13,176,21,213,5,,,214,15,237,*63
$GPRMC,162025.00,A,4825.1634,N,00428.2468,W,0.000,0.000,040317,,E,A*07
$GPGGA,162026.00,4825.1634,N,00428.2468,W,1,17,0.622,150.176,M,,M,0,*58
$GNGSA,A,3,10,12,14,15,17,19,24,25,29,32,212,65,72,74,75,83,85,,,,1.109,0.622,0.919*14
$GPGSA,A,3,10,12,14,15,17,19,24,25,29,32,,,,,,,,,,,1.109,0.622,0.919*3A
$GLGSA,A,3,65,72,74,75,83,85,,,,,,,,,,,,,,,1.109,0.622,0.919*21
$BDGSA,A,3,212,,,,,,,,,,,,,,,,,,,,1.109,0.622,0.919*1C
$QZGSA,A,3,,,,,,,,,,,,,,,,,,,,,1.109,0.622,0.919*20
$GPGSV,9,1,29,2,8,107,,4,5,,,6,11,70,10,10,8,253,24*7C
$GPGSV,9,2,29,12,79,41,32,14,25,313,20,15,6,166,19,17,5,31,17*7D
$GPGSV,9,3,29,19,20,41,17,24,53,110,23,25,53,249,26,29,10,187,30*4D
$GPGSV,9,4,29,32,45,293,23*46
$GLGSV,9,5,29,65,35,285,20,66,12,341,28,72,23,229,27,73,19,82,*5B
$GLGSV,9,6,29,74,66,20,28,75,35,293,29,83,34,45,17,84,39,118,*68
$GLGSV,9,7,29,85,8,162,19*68
$BDGSV,9,8,29,205,10,109,22,207,5,,,208,16,28,,211,5,,*5C
$BDGSV,9,9,29,212,14,176,19,213,5,,,214,15,237,*6F
$GPRMC,162026.00,A,4825.1634,N,00428.2468,W,0.000,0.000,040317,,E,A*04
$GPGGA,162027.00,4825.1634,N,00428.2468,W,1,17,0.622,150.176,M,,M,0,*59
$GNGSA,A,3,10,12,14,15,17,19,24,25,29,32,212,65,72,74,75,83,85,,,,1.109,0.622,0.919*14
$GPGSA,A,3,10,12,14,15,17,19,24,25,29,32,,,,,,,,,,,1.109,0.622,0.919*3A
$GLGSA,A,3,65,72,74,75,83,85,,,,,,,,,,,,,,,1.109,0.622,0.919*21
$BDGSA,A,3,212,,,,,,,,,,,,,,,,,,,,1.109,0.622,0.919*1C
$QZGSA,A,3,,,,,,,,,,,,,,,,,,,,,1.109,0.622,0.919*20
$GPGSV,9,1,29,2,8,107,,4,5,,,6,11,70,8,10,8,253,20*41
$GPGSV,9,2,29,12,79,41,36,14,25,313,25,15,6,166,18,17,5,31,16*7C
$GPGSV,9,3,29,19,20,41,16,24,53,111,21,25,53,250,26,29,10,187,31*46
$GPGSV,9,4,29,32,45,293,29*4C
$GLGSV,9,5,29,65,35,285,25,66,12,341,29,72,23,229,23,73,19,82,*5B
$GLGSV,9,6,29,74,66,20,19,75,36,293,26,83,34,45,16,84,39,118,*67
$GLGSV,9,7,29,85,8,162,16*67
$BDGSV,9,8,29,205,10,109,23,207,5,,,208,16,28,,211,5,,*5D
$BDGSV,9,9,29,212,14,176,19,213,5,,,214,15,237,*6F
$GPRMC,162027.00,A,4825.1634,N,00428.2468,W,0.000,0.000,040317,,E,A*05
$GPGGA,162028.00,4825.1634,N,00428.2468,W,1,17,0.622,150.176,M,,M,0,*56
$GNGSA,A,3,10,12,14,15,17,19,24,25,29,32,212,65,72,74,75,83,85,,,,1.109,0.622,0.918*15
$GPGSA,A,3,10,12,14,15,17,19,24,25,29,32,,,,,,,,,,,1.109,0.622,0.918*3B
$GLGSA,A,3,65,72,74,75,83,85,,,,,,,,,,,,,,,1.109,0.622,0.918*20
$BDGSA,A,3,212,,,,,,,,,,,,,,,,,,,,1.109,0.622,0.918*1D
$QZGSA,A,3,,,,,,,,,,,,,,,,,,,,,1.109,0.622,0.918*21
$GPGSV,9,1,29,2,8,107,,4,5,,,6,11,70,9,10,8,253,25*45
$GPGSV,9,2,29,12,79,41,34,14,25,313,21,15,6,166,20,17,5,31,13*74
$GPGSV,9,3,29,19,20,41,16,24,53,111,19,25,53,250,28,29,10,187,29*4A
$GPGSV,9,4,29,32,45,293,27*42
$GLGSV,9,5,29,65,35,285,24,66,12,341,25,72,23,229,22,73,19,82,*57
$GLGSV,9,6,29,74,66,20,26,75,36,293,27,83,34,45,15,84,39,118,*69
$GLGSV,9,7,29,85,8,162,16*67
$BDGSV,9,8,29,205,10,109,23,207,5,,23,208,16,28,10,211,5,,*5D
$BDGSV,9,9,29,212,14,176,19,213,5,,13,214,15,237,14*68
$GPRMC,162028.00,A,4825.1634,N,00428.2468,W,0.000,0.000,040317,,E,A*0A
$GPGGA,162029.00,4825.1634,N,00428.2468,W,1,18,0.607,150.176,M,,M,0,*5F
$GNGSA,A,3,10,12,14,15,17,19,24,25,29,32,212,214,65,72,74,75,83,85,,,1.094,0.607,0.910*28
$GPGSA,A,3,10,12,14,15,17,19,24,25,29,32,,,,,,,,,,,1.094,0.607,0.910*31
$GLGSA,A,3,65,72,74,75,83,85,,,,,,,,,,,,,,,1.094,0.607,0.910*2A
$BDGSA,A,3,212,214,,,,,,,,,,,,,,,,,,,1.094,0.607,0.910*20
$QZGSA,A,3,,,,,,,,,,,,,,,,,,,,,1.094,0.607,0.910*2B
$GPGSV,9,1,29,2,8,107,,4,5,,,6,11,70,9,10,8,253,28*48
$GPGSV,9,2,29,12,79,41,31,14,25,313,19,15,6,166,18,17,5,31,15*77
$GPGSV,9,3,29,19,20,41,16,24,53,111,19,25,53,250,28,29,10,187,27*44
$GPGSV,9,4,29,32,45,293,29*4C
$GLGSV,9,5,29,65,35,285,26,66,12,341,27,72,23,229,23,73,19,82,*56
$GLGSV,9,6,29,74,66,20,22,75,36,293,25,83,34,45,14,84,39,118,*6E
$GLGSV,9,7,29,85,8,162,16*67
$BDGSV,9,8,29,205,10,109,23,207,5,,11,208,16,28,9,211,5,,*64
$BDGSV,9,9,29,212,14,176,18,213,5,,11,214,15,237,18*67
$GPRMC,162029.00,A,4825.1634,N,00428.2468,W,0.000,0.000,040317,,E,A*0B
$GPGGA,162030.00,4825.1634,N,00428.2468,W,1,18,0.607,150.176,M,,M,0,*57
$GNGSA,A,3,10,12,14,15,17,19,24,25,29,32,212,214,65,72,74,75,83,85,,,1.094,0.607,0.910*28
$GPGSA,A,3,10,12,14,15,17,19,24,25,29,32,,,,,,,,,,,1.094,0.607,0.910*31
$GLGSA,A,3,65,72,74,75,83,85,,,,,,,,,,,,,,,1.094,0.607,0.910*2A
$BDGSA,A,3,212,214,,,,,,,,,,,,,,,,,,,1.094,0.607,0.910*20
$QZGSA,A,3,,,,,,,,,,,,,,,,,,,,,1.094,0.607,0.910*2B
$GPGSV,9,1,29,2,8,107,,4,5,,,6,11,70,13,10,8,253,24*7F
$GPGSV,9,2,29,12,79,41,32,14,25,313,25,15,6,166,16,17,5,31,15*75
$GPGSV,9,3,29,19,20,41,16,24,53,111,23,25,53,250,35,29,10,187,27*41
$GPGSV,9,4,29,32,45,293,34*40
$GLGSV,9,5,29,65,35,285,22,66,12,341,23,72,23,229,23,73,19,83,*57
$GLGSV,9,6,29,74,66,20,20,75,36,293,31,83,34,45,14,84,39,118,*69
$GLGSV,9,7,29,85,8,162,15*64
$BDGSV,9,8,29,205,10,109,23,207,5,,8,208,16,28,8,211,5,,*5D
$BDGSV,9,9,29,212,14,176,15,213,5,,9,214,15,237,26*5E
$GPRMC,162030.00,A,4825.1634,N,00428.2468,W,0.000,0.000,040317,,E,A*03
$GPGGA,162031.00,4825.1634,N,00428.2468,W,1,18,0.607,150.176,M,,M,0,*56
$GNGSA,A,3,10,12,14,15,17,19,24,25,29,32,212,214,65,72,74,75,83,85,,,1.094,0.607,0.910*28
$GPGSA,A,3,10,12,14,15,17,19,24,25,29,32,,,,,,,,,,,1.094,0.607,0.910*31
$GLGSA,A,3,65,72,74,75,83,85,,,,,,,,,,,,,,,1.094,0.607,0.910*2A
$BDGSA,A,3,212,214,,,,,,,,,,,,,,,,,,,1.094,0.607,0.910*20
$QZGSA,A,3,,,,,,,,,,,,,,,,,,,,,1.094,0.607,0.910*2B
$GPGSV,9,1,29,2,8,107,,4,5,,,6,11,70,13,10,8,253,21*7A
$GPGSV,9,2,29,12,79,41,36,14,25,313,21,15,6,166,15,17,5,31,15*76
$GPGSV,9,3,29,19,20,41,17,24,53,111,23,25,53,250,37,29,10,187,30*44
$GPGSV,9,4,29,32,45,293,32*46
$GLGSV,9,5,29,65,35,285,21,66,12,341,31,72,23,229,25,73,19,83,*51
$GLGSV,9,6,29,74,66,20,22,75,36,293,30,83,34,45,16,84,39,118,*68
$GLGSV,9,7,29,85,8,162,15*64
$BDGSV,9,8,29,205,10,109,23,207,5,,8,208,16,28,8,211,5,,*5D
$BDGSV,9,9,29,212,14,176,14,213,5,,9,214,15,237,26*5F
$GPRMC,162031.00,A,4825.1634,N,00428.2468,W,0.000,0.000,040317,,E,A*02
$GPGGA,162032.00,4825.1634,N,00428.2468,W,1,18,0.607,150.176,M,,M,0,*55
$GNGSA,A,3,10,12,14,15,17,19,24,25,29,32,212,214,65,72,74,75,83,85,,,1.094,0.607,0.910*28
$GPGSA,A,3,10,12,14,15,17,19,24,25,29,32,,,,,,,,,,,1.094,0.607,0.910*31
$GLGSA,A,3,65,72,74,75,83,85,,,,,,,,,,,,,,,1.094,0.607,0.910*2A
$BDGSA,A,3,212,214,,,,,,,,,,,,,,,,,,,1.094,0.607,0.910*20
$QZGSA,A,3,,,,,,,,,,,,,,,,,,,,,1.094,0.607,0.910*2B
$GPGSV,9,1,29,2,8,107,,4,5,,,6,11,70,14,10,8,253,22*7E
$GPGSV,9,2,29,12,79,41,35,14,26,313,22,15,6,166,14,17,5,31,15*74
$GPGSV,9,3,29,19,20,41,17,24,53,111,26,25,53,250,36,29,10,187,33*43
$GPGSV,9,4,29,32,45,293,32*46
$GLGSV,9,5,29,65,35,285,26,66,12,341,31,72,23,229,21,73,19,83,*52
$GLGSV,9,6,29,74,66,20,16,75,36,293,31,83,34,45,16,84,39,118,*6E
$GLGSV,9,7,29,85,8,162,14*65
$BDGSV,9,8,29,205,10,109,14,207,5,,,208,16,28,,211,5,,*59
$BDGSV,9,9,29,212,14,176,13,213,5,,,214,15,237,20*67
$GPRMC,162032.00,A,4825.1634,N,00428.2468,W,0.000,0.000,040317,,E,A*01
$GPGGA,162033.00,4825.1634,N,00428.2468,W,1,18,0.607,150.176,M,,M,0,*54
$GNGSA,A,3,10,12,14,15,17,19,24,25,29,32,212,214,65,72,74,75,83,85,,,1.094,0.607,0.910*28
$GPGSA,A,3,10,12,14,15,17,19,24,25,29,32,,,,,,,,,,,1.094,0.607,0.910*31
$GLGSA,A,3,65,72,74,75,83,85,,,,,,,,,,,,,,,1.094,0.607,0.910*2A
$BDGSA,A,3,212,214,,,,,,,,,,,,,,,,,,,1.094,0.607,0.910*20
$QZGSA,A,3,,,,,,,,,,,,,,,,,,,,,1.094,0.607,0.910*2B
$GPGSV,9,1,29,2,8,107,,4,5,,,6,11,70,15,10,8,253,15*7B
$GPGSV,9,2,29,12,79,41,35,14,26,313,21,15,6,166,12,17,5,31,15*71
$GPGSV,9,3,29,19,20,41,15,24,53,111,27,25,53,250,35,29,10,187,34*44
$GPGSV,9,4,29,32,45,293,34*40
$GLGSV,9,5,29,65,35,285,29,66,12,341,29,72,23,229,23,73,19,83,*56
$GLGSV,9,6,29,74,66,20,19,75,36,293,30,83,34,45,16,84,39,118,*60
$GLGSV,9,7,29,85,8,162,14*65
$BDGSV,9,8,29,205,10,109,,207,5,,23,208,16,28,13,211,5,,11*5F
$BDGSV,9,9,29,212,14,176,10,213,5,,12,214,15,237,22*65
$GPRMC,162033.00,A,4825.1634,N,00428.2468,W,0.000,0.000,040317,,E,A*00
$GPGGA,162034.00,4825.1634,N,00428.2468,W,1,18,0.607,150.176,M,,M,0,*53
$GNGSA,A,3,10,12,14,15,17,19,24,25,29,32,212,214,65,72,74,75,83,85,,,1.094,0.607,0.910*28
$GPGSA,A,3,10,12,14,15,17,19,24,25,29,32,,,,,,,,,,,1.094,0.607,0.910*31
$GLGSA,A,3,65,72,74,75,83,85,,,,,,,,,,,,,,,1.094,0.607,0.910*2A
$BDGSA,A,3,212,214,,,,,,,,,,,,,,,,,,,1.094,0.607,0.910*20
$QZGSA,A,3,,,,,,,,,,,,,,,,,,,,,1.094,0.607,0.910*2B
$GPGSV,9,1,29,2,8,107,,4,5,,,6,11,70,16,10,8,253,21*7F
$GPGSV,9,2,29,12,79,41,32,14,26,313,24,15,6,166,12,17,5,31,13*75
$GPGSV,9,3,29,19,20,41,14,24,53,111,22,25,53,250,36,29,10,187,35*42
$GPGSV,9,4,29,32,45,293,33*47
$GLGSV,9,5,29,65,35,285,26,66,12,341,25,72,23,229,20,73,19,83,*56
$GLGSV,9,6,29,74,66,20,18,75,36,293,28,83,34,45,17,84,39,118,*69
$GLGSV,9,7,29,85,8,162,13*62
$BDGSV,9,8,29,205,10,109,21,207,5,,13,208,16,28,12,211,5,,9*67
$BDGSV,9,9,29,212,14,176,10,213,5,,12,214,15,237,20*67
$GPRMC,162034.00,A,4825.1634,N,00428.2468,W,0.000,0.000,040317,,E,A*07
$GPGGA,162035.00,4825.1634,N,00428.2468,W,1,18,0.607,150.176,M,,M,0,*52
$GNGSA,A,3,10,12,14,15,17,19,24,25,29,32,212,214,65,72,74,75,83,85,,,1.094,0.607,0.910*28
$GPGSA,A,3,10,12,14,15,17,19,24,25,29,32,,,,,,,,,,,1.094,0.607,0.910*31
$GLGSA,A,3,65,72,74,75,83,85,,,,,,,,,,,,,,,1.094,0.607,0.910*2A
$BDGSA,A,3,212,214,,,,,,,,,,,,,,,,,,,1.094,0.607,0.910*20
$QZGSA,A,3,,,,,,,,,,,,,,,,,,,,,1.094,0.607,0.910*2B
$GPGSV,9,1,29,2,8,107,,4,5,,,6,11,70,16,10,8,253,24*7A
$GPGSV,9,2,29,12,79,41,26,14,26,313,28,15,6,166,13,17,5,31,13*7D
$GPGSV,9,3,29,19,20,41,15,24,53,111,22,25,53,250,35,29,10,187,27*43
$GPGSV,9,4,29,32,45,293,31*45
$GLGSV,9,5,29,65,35,285,21,66,12,341,30,72,23,229,22,73,19,83,*57
$GLGSV,9,6,29,74,66,20,18,75,36,293,28,83,34,45,18,84,39,118,*66
$GLGSV,9,7,29,85,8,162,14*65
$BDGSV,9,8,29,205,10,109,25,207,5,,12,208,16,28,8,211,5,,8*58
$BDGSV,9,9,29,212,14,176,11,213,5,,8,214,15,237,25*58
$GPRMC,162035.00,A,4825.1634,N,00428.2468,W,0.000,0.000,040317,,E,A*06
$GPGGA,162036.00,4825.1634,N,00428.2468,W,1,18,0.607,150.176,M,,M,0,*51
$GNGSA,A,3,10,12,14,15,17,19,24,25,29,32,212,214,65,72,74,75,83,85,,,1.094,0.607,0.910*28
$GPGSA,A,3,10,12,14,15,17,19,24,25,29,32,,,,,,,,,,,1.094,0.607,0.910*31
$GLGSA,A,3,65,72,74,75,83,85,,,,,,,,,,,,,,,1.094,0.607,0.910*2A
$BDGSA,A,3,212,214,,,,,,,,,,,,,,,,,,,1.094,0.607,0.910*20
$QZGSA,A,3,,,,,,,,,,,,,,,,,,,,,1.094,0.607,0.910*2B
$GPGSV,9,1,29,2,8,107,,4,5,,,6,11,70,16,10,8,253,28*76
$GPGSV,9,2,29,12,79,41,31,14,26,313,25,15,6,166,12,17,5,31,13*77
$GPGSV,9,3,29,19,20,41,13,24,53,111,18,25,53,250,34,29,10,187,26*4C
$GPGSV,9,4,29,32,45,293,22*47
$GLGSV,9,5,29,65,35,285,23,66,12,341,35,72,23,229,25,73,19,83,*57
$GLGSV,9,6,29,74,66,20,16,75,36,293,20,83,34,45,17,84,39,118,*6F
$GLGSV,9,7,29,85,8,162,15*64
$BDGSV,9,8,29,205,10,109,25,207,5,,12,208,16,28,8,211,5,,8*58
$BDGSV,9,9,29,212,14,176,10,213,5,,8,214,15,237,23*5F
$GPRMC,162036.00,A,4825.1634,N,00428.2468,W,0.000,0.000,040317,,E,A*05
$GPGGA,162037.00,4825.1634,N,00428.2468,W,1,18,0.607,150.176,M,,M,0,*50
$GNGSA,A,3,10,12,14,15,17,19,24,25,29,32,212,214,65,72,74,75,83,85,,,1.094,0.607,0.910*28
$GPGSA,A,3,10,12,14,15,17,19,24,25,29,32,,,,,,,,,,,1.094,0.607,0.910*31
$GLGSA,A,3,65,72,74,75,83,85,,,,,,,,,,,,,,,1.094,0.607,0.910*2A
$BDGSA,A,3,212,214,,,,,,,,,,,,,,,,,,,1.094,0.607,0.910*20
$QZGSA,A,3,,,,,,,,,,,,,,,,,,,,,1.094,0.607,0.910*2B
$GPGSV,9,1,29,2,8,107,,4,5,,,6,11,70,15,10,8,253,23*7E
$GPGSV,9,2,29,12,79,41,37,14,26,313,23,15,6,166,12,17,5,31,12*76
$GPGSV,9,3,29,19,20,41,13,24,53,111,18,25,53,250,35,29,10,187,22*49
$GPGSV,9,4,29,32,45,293,23*46
$GLGSV,9,5,29,65,35,285,20,66,12,341,31,72,23,229,22,73,19,83,*57
$GLGSV,9,6,29,74,66,20,22,75,36,293,25,83,34,45,18,84,39,118,*62
$GLGSV,9,7,29,85,8,162,16*67
$BDGSV,9,8,29,205,10,109,25,207,5,,,208,16,28,,211,5,,*5B
$BDGSV,9,9,29,212,14,176,11,213,5,,,214,15,237,20*65
$GPRMC,162037.00,A,4825.1634,N,00428.2468,W,0.000,0.000,040317,,E,A*04
$GPGGA,162038.00,4825.1634,N,00428.2468,W,1,18,0.607,150.176,M,,M,0,*5F
$GNGSA,A,3,10,12,14,15,17,19,24,25,29,32,212,214,65,72,74,75,83,85,,,1.094,0.607,0.910*28
$GPGSA,A,3,10,12,14,15,17,19,24,25,29,32,,,,,,,,,,,1.094,0.607,0.910*31
$GLGSA,A,3,65,72,74,75,83,85,,,,,,,,,,,,,,,1.094,0.607,0.910*2A
$BDGSA,A,3,212,214,,,,,,,,,,,,,,,,,,,1.094,0.607,0.910*20
$QZGSA,A,3,,,,,,,,,,,,,,,,,,,,,1.094,0.607,0.910*2B
$GPGSV,9,1,29,2,8,107,,4,5,,,6,11,70,14,10,8,253,21*7D
$GPGSV,9,2,29,12,79,41,35,14,26,313,24,15,6,166,13,17,5,31,13*73
$GPGSV,9,3,29,19,20,41,13,24,53,111,16,25,53,250,31,29,10,187,21*40
$GPGSV,9,4,29,32,45,293,26*43
$GLGSV,9,5,29,65,35,285,25,66,12,341,22,72,23,229,23,73,19,83,*51
$GLGSV,9,6,29,74,66,20,20,75,36,293,28,83,34,45,17,84,39,118,*62
$GLGSV,9,7,29,85,8,162,14*65
$BDGSV,9,8,29,205,10,109,24,207,5,,11,208,16,28,10,211,5,,12*58
$BDGSV,9,9,29,212,14,176,11,213,5,,9,214,15,237,20*5C
$GPRMC,162038.00,A,4825.1634,N,00428.2468,W,0.000,0.000,040317,,E,A*0B
$GPGGA,162039.00,4825.1634,N,00428.2468,W,1,18,0.607,150.176,M,,M,0,*5E
$GNGSA,A,3,10,12,14,15,17,19,24,25,29,32,212,214,65,72,74,75,83,85,,,1.094,0.607,0.910*28
$GPGSA,A,3,10,12,14,15,17,19,24,25,29,32,,,,,,,,,,,1.094,0.607,0.910*31
$GLGSA,A,3,65,72,74,75,83,85,,,,,,,,,,,,,,,1.094,0.607,0.910*2A
$BDGSA,A,3,212,214,,,,,,,,,,,,,,,,,,,1.094,0.607,0.910*20
$QZGSA,A,3,,,,,,,,,,,,,,,,,,,,,1.094,0.607,0.910*2B
$GPGSV,9,1,29,2,8,107,,4,5,,,6,11,70,13,10,8,253,23*78
$GPGSV,9,2,29,12,79,41,29,14,26,313,21,15,6,166,12,17,5,31,11*78
$GPGSV,9,3,29,19,20,41,13,24,53,111,18,25,53,250,32,29,10,187,21*4D
$GPGSV,9,4,29,32,45,293,27*42
$GLGSV,9,5,29,65,35,285,24,66,12,341,21,72,23,229,19,73,19,83,*5A
$GLGSV,9,6,29,74,66,20,19,75,36,293,24,83,34,45,15,84,40,118,*68
$GLGSV,9,7,29,85,8,162,15*64
$BDGSV,9,8,29,205,10,109,24,207,5,,9,208,16,28,10,211,5,,11*62
$BDGSV,9,9,29,212,14,176,11,213,5,,9,214,15,237,19*56
$GPRMC,162039.00,A,4825.1634,N,00428.2468,W,0.000,0.000,040317,,E,A*0A
$GPGGA,162040.00,4825.1634,N,00428.2468,W,1,18,0.607,150.176,M,,M,0,*50
$GNGSA,A,3,10,12,14,15,17,19,24,25,29,32,212,214,65,72,74,75,83,85,,,1.094,0.607,0.910*28
$GPGSA,A,3,10,12,14,15,17,19,24,25,29,32,,,,,,,,,,,1.094,0.607,0.910*31
$GLGSA,A,3,65,72,74,75,83,85,,,,,,,,,,,,,,,1.094,0.607,0.910*2A
$BDGSA,A,3,212,214,,,,,,,,,,,,,,,,,,,1.094,0.607,0.910*20
$QZGSA,A,3,,,,,,,,,,,,,,,,,,,,,1.094,0.607,0.910*2B
$GPGSV,9,1,29,2,8,107,,4,5,,,6,11,70,11,10,8,253,19*73
$GPGSV,9,2,29,12,79,41,20,14,26,313,20,15,6,166,12,17,5,31,12*73
$GPGSV,9,3,29,19,20,41,10,24,53,111,16,25,53,250,27,29,10,187,18*4E
$GPGSV,9,4,29,32,45,293,25*40
$GLGSV,9,5,29,65,35,285,20,66,12,341,21,72,23,229,17,73,19,83,*50
$GLGSV,9,6,29,74,66,20,18,75,36,293,25,83,34,45,12,84,40,118,*6F
$GLGSV,9,7,29,85,8,162,13*62
$BDGSV,9,8,29,205,10,109,20,207,5,,8,208,16,28,10,211,5,,8*5F
$BDGSV,9,9,29,212,14,176,8,213,5,,8,214,15,237,17*61
$GPRMC,162040.00,A,4825.1634,N,00428.2468,W,0.000,0.000,040317,,E,A*04
$GPGGA,162041.00,4825.1634,N,00428.2468,W,1,18,0.607,150.176,M,,M,0,*51
$GNGSA,A,3,10,12,14,15,17,19,24,25,29,32,212,214,65,72,74,75,83,85,,,1.094,0.607,0.910*28
$GPGSA,A,3,10,12,14,15,17,19,24,25,29,32,,,,,,,,,,,1.094,0.607,0.910*31
$GLGSA,A,3,65,72,74,75,83,85,,,,,,,,,,,,,,,1.094,0.607,0.910*2A
$BDGSA,A,3,212,214,,,,,,,,,,,,,,,,,,,1.094,0.607,0.910*20
$QZGSA,A,3,,,,,,,,,,,,,,,,,,,,,1.094,0.607,0.910*2B
$GPGSV,9,1,29,2,8,107,,4,5,,,6,11,70,8,10,8,253,19*4B
$GPGSV,9,2,29,12,79,41,23,14,26,313,19,15,6,166,9,17,5,31,9*7A
$GPGSV,9,3,29,19,20,41,10,24,53,111,16,25,53,250,29,29,10,187,17*4F
$GPGSV,9,4,29,32,45,293,30*44
$GLGSV,9,5,29,65,35,285,22,66,12,341,18,72,23,229,19,73,19,83,*56
$GLGSV,9,6,29,74,66,20,18,75,36,293,23,83,34,45,12,84,40,118,*69
$GLGSV,9,7,29,85,8,162,12*63
$BDGSV,9,8,29,205,10,109,23,207,5,,8,208,16,28,10,211,5,,8*5C
$BDGSV,9,9,29,212,14,176,8,213,5,,8,214,15,237,18*6E
$GPRMC,162041.00,A,4825.1634,N,00428.2468,W,0.000,0.000,040317,,E,A*05
$GPGGA,162042.00,4825.1634,N,00428.2468,W,1,18,0.607,150.176,M,,M,0,*52
$GNGSA,A,3,10,12,14,15,17,19,24,25,29,32,212,214,65,72,74,75,83,85,,,1.094,0.607,0.910*28
$GPGSA,A,3,10,12,14,15,17,19,24,25,29,32,,,,,,,,,,,1.094,0.607,0.910*31
$GLGSA,A,3,65,72,74,75,83,85,,,,,,,,,,,,,,,1.094,0.607,0.910*2A
$BDGSA,A,3,212,214,,,,,,,,,,,,,,,,,,,1.094,0.607,0.910*20
$QZGSA,A,3,,,,,,,,,,,,,,,,,,,,,1.094,0.607,0.910*2B
$GPGSV,9,1,29,2,8,107,,4,5,,,6,11,70,8,10,8,253,21*40
$GPGSV,9,2,29,12,79,41,21,14,26,313,17,15,6,166,9,17,5,31,8*77
$GPGSV,9,3,29,19,20,41,8,24,53,111,17,25,53,250,29,29,10,187,19*79
$GPGSV,9,4,29,32,45,293,23*46
$GLGSV,9,5,29,65,35,285,20,66,12,341,20,72,23,229,18,73,19,83,*5E
$GLGSV,9,6,29,74,66,20,15,75,36,293,19,83,34,45,11,84,40,118,*6E
$GLGSV,9,7,29,85,8,162,11*60
$BDGSV,9,8,29,205,10,109,26,207,5,,,208,16,28,,211,5,,*58
$BDGSV,9,9,29,212,14,176,8,213,5,,,214,15,237,17*59
$GPRMC,162042.00,A,4825.1634,N,00428.2468,W,0.000,0.000,040317,,E,A*06
$GPGGA,162043.00,4825.1634,N,00428.2468,W,1,18,0.607,150.176,M,,M,0,*53
$GNGSA,A,3,10,12,14,15,17,19,24,25,29,32,212,214,65,72,74,75,83,85,,,1.094,0.607,0.909*20
$GPGSA,A,3,10,12,14,15,17,19,24,25,29,32,,,,,,,,,,,1.094,0.607,0.909*39
$GLGSA,A,3,65,72,74,75,83,85,,,,,,,,,,,,,,,1.094,0.607,0.909*22
$BDGSA,A,3,212,214,,,,,,,,,,,,,,,,,,,1.094,0.607,0.909*28
$QZGSA,A,3,,,,,,,,,,,,,,,,,,,,,1.094,0.607,0.909*23
$GPGSV,9,1,29,2,8,107,,4,5,,,6,11,70,10,10,8,253,20*78
$GPGSV,9,2,29,12,79,41,20,14,26,313,17,15,6,166,8,17,5,31,8*77
$GPGSV,9,3,29,19,20,41,8,24,53,111,23,25,53,250,25,29,10,187,17*7C
$GPGSV,9,4,29,32,45,293,20*45
$GLGSV,9,5,29,65,35,285,21,66,12,341,19,72,23,229,16,73,19,83,*5B
$GLGSV,9,6,29,74,66,20,11,75,36,293,17,83,34,45,12,84,40,118,*67
$GLGSV,9,7,29,85,8,162,13*62
$BDGSV,9,8,29,205,10,109,28,207,5,,,208,16,28,,211,5,,*56
$BDGSV,9,9,29,212,14,176,8,213,5,,,214,15,237,16*58
$GPRMC,162043.00,A,4825.1634,N,00428.2468,W,0.000,0.000,040317,,E,A*07
$GPGGA,162044.00,4825.1634,N,00428.2468,W,1,18,0.607,150.176,M,,M,0,*54
$GNGSA,A,3,10,12,14,15,17,19,24,25,29,32,212,214,65,72,74,75,83,85,,,1.093,0.607,0.909*27
$GPGSA,A,3,10,12,14,15,17,19,24,25,29,32,,,,,,,,,,,1.093,0.607,0.909*3E
$GLGSA,A,3,65,72,74,75,83,85,,,,,,,,,,,,,,,1.093,0.607,0.909*25
$BDGSA,A,3,212,214,,,,,,,,,,,,,,,,,,,1.093,0.607,0.909*2F
$QZGSA,A,3,,,,,,,,,,,,,,,,,,,,,1.093,0.607,0.909*24
$GPGSV,9,1,29,2,8,107,,4,5,,,6,11,70,10,10,8,253,18*73
$GPGSV,9,2,29,12,79,41,26,14,26,313,14,15,6,166,9,17,5,31,10*4A
$GPGSV,9,3,29,19,20,41,8,24,53,111,24,25,53,250,25,29,10,187,14*78
$GPGSV,9,4,29,32,45,293,18*4E
$GLGSV,9,5,29,65,35,285,20,66,12,341,18,72,23,229,15,73,19,83,*58
$GLGSV,9,6,29,74,66,20,11,75,36,293,16,83,34,45,14,84,40,118,24*66
$GLGSV,9,7,29,85,8,162,13*62
$BDGSV,9,8,29,205,10,109,28,207,5,,,208,16,28,,211,5,,*56
$BDGSV,9,9,29,212,14,176,8,213,5,,,214,15,237,15*5B
$GPRMC,162044.00,A,4825.1634,N,00428.2468,W,0.000,0.000,040317,,E,A*00
$GPGGA,162045.00,4825.1634,N,00428.2468,W,1,18,0.607,150.176,M,,M,0,*55
$GNGSA,A,3,10,12,14,15,17,19,24,25,29,32,212,214,65,72,74,75,83,85,,,1.093,0.607,0.909*27
$GPGSA,A,3,10,12,14,15,17,19,24,25,29,32,,,,,,,,,,,1.093,0.607,0.909*3E
$GLGSA,A,3,65,72,74,75,83,85,,,,,,,,,,,,,,,1.093,0.607,0.909*25
$BDGSA,A,3,212,214,,,,,,,,,,,,,,,,,,,1.093,0.607,0.909*2F
$QZGSA,A,3,,,,,,,,,,,,,,,,,,,,,1.093,0.607,0.909*24
$GPGSV,9,1,29,2,8,107,,4,5,,,6,11,70,10,10,8,252,18*72
$GPGSV,9,2,29,12,79,41,32,14,26,313,13,15,6,166,12,17,5,31,10*72
$GPGSV,9,3,29,19,20,41,8,24,53,111,31,25,53,250,22,29,10,187,12*7D
$GPGSV,9,4,29,32,45,293,19*4F
$GLGSV,9,5,29,65,35,285,19,66,12,341,17,72,23,229,14,73,19,83,*5C
$GLGSV,9,6,29,74,66,20,24,75,36,293,18,83,34,45,15,84,40,118,18*60
$GLGSV,9,7,29,85,8,162,15*64
$BDGSV,9,8,29,205,10,109,27,207,5,,12,208,16,28,15,211,5,,*5E
$BDGSV,9,9,29,212,14,176,8,213,5,,,214,15,237,15*5B
$GPRMC,162045.00,A,4825.1634,N,00428.2468,W,0.000,0.000,040317,,E,A*01
$GPGGA,162046.00,4825.1634,N,00428.2468,W,1,19,0.582,150.176,M,,M,0,*59
$GNGSA,A,3,10,12,14,15,17,19,24,25,29,32,212,214,65,72,74,75,83,84,85,,1.062,0.582,0.889*22
$GPGSA,A,3,10,12,14,15,17,19,24,25,29,32,,,,,,,,,,,1.062,0.582,0.889*37
$GLGSA,A,3,65,72,74,75,83,84,85,,,,,,,,,,,,,,1.062,0.582,0.889*20
$BDGSA,A,3,212,214,,,,,,,,,,,,,,,,,,,1.062,0.582,0.889*26
$QZGSA,A,3,,,,,,,,,,,,,,,,,,,,,1.062,0.582,0.889*2D
$GPGSV,9,1,29,2,8,107,,4,5,,,6,11,70,10,10,8,252,18*72
$GPGSV,9,2,29,12,79,41,31,14,26,313,12,15,6,166,13,17,5,31,10*71
$GPGSV,9,3,29,19,20,41,8,24,53,111,31,25,53,250,21,29,10,187,13*7F
$GPGSV,9,4,29,32,45,293,18*4E
$GLGSV,9,5,29,65,35,285,18,66,12,341,16,72,23,229,13,73,19,83,*5B
$GLGSV,9,6,29,74,66,20,21,75,36,293,15,83,34,45,15,84,40,118,18*68
$GLGSV,9,7,29,85,8,162,16*67
$BDGSV,9,8,29,205,10,109,27,207,5,,9,208,16,28,10,211,5,,*61
$BDGSV,9,9,29,212,14,176,8,213,5,,,214,15,237,14*5A
$GPRMC,162046.00,A,4825.1634,N,00428.2468,W,0.000,0.000,040317,,E,A*02
$GPGGA,162047.00,4825.1634,N,00428.2468,W,1,19,0.582,150.176,M,,M,0,*58
$GNGSA,A,3,10,12,14,15,17,19,24,25,29,32,212,214,65,72,74,75,83,84,85,,1.062,0.582,0.889*22
$GPGSA,A,3,10,12,14,15,17,19,24,25,29,32,,,,,,,,,,,1.062,0.582,0.889*37
$GLGSA,A,3,65,72,74,75,83,84,85,,,,,,,,,,,,,,1.062,0.582,0.889*20
$BDGSA,A,3,212,214,,,,,,,,,,,,,,,,,,,1.062,0.582,0.889*26
$QZGSA,A,3,,,,,,,,,,,,,,,,,,,,,1.062,0.582,0.889*2D
$GPGSV,9,1,29,2,8,107,,4,5,,,6,11,70,10,10,8,252,16*7C
$GPGSV,9,2,29,12,79,41,28,14,26,313,13,15,6,166,13,17,5,31,8*41
$GPGSV,9,3,29,19,20,41,8,24,53,111,29,25,53,250,22,29,10,187,12*74
$GPGSV,9,4,29,32,45,293,16*40
$GLGSV,9,5,29,65,35,285,17,66,12,341,16,72,23,229,9,73,19,83,*6F
$GLGSV,9,6,29,74,66,20,26,75,36,293,12,83,34,45,17,84,40,118,25*64
$GLGSV,9,7,29,85,8,162,16*67
$BDGSV,9,8,29,205,10,109,28,207,5,,8,208,16,28,8,211,5,,*56
$BDGSV,9,9,29,212,14,176,8,213,5,,,214,15,237,11*5F
$GPRMC,162047.00,A,4825.1634,N,00428.2468,W,0.000,0.000,040317,,E,A*03
$GPGGA,162048.00,4825.1634,N,00428.2468,W,1,19,0.582,150.176,M,,M,0,*57
$GNGSA,A,3,10,12,14,15,17,19,24,25,29,32,212,214,65,72,74,75,83,84,85,,1.062,0.582,0.889*22
$GPGSA,A,3,10,12,14,15,17,19,24,25,29,32,,,,,,,,,,,1.062,0.582,0.889*37
$GLGSA,A,3,65,72,74,75,83,84,85,,,,,,,,,,,,,,1.062,0.582,0.889*20
$BDGSA,A,3,212,214,,,,,,,,,,,,,,,,,,,1.062,0.582,0.889*26
$QZGSA,A,3,,,,,,,,,,,,,,,,,,,,,1.062,0.582,0.889*2D
$GPGSV,9,1,29,2,8,107,,4,5,,,6,11,70,10,10,8,252,15*7F
$GPGSV,9,2,29,12,79,41,28,14,26,313,22,15,6,166,14,17,5,31,8*44
$GPGSV,9,3,29,19,20,41,8,24,53,111,30,25,53,250,21,29,10,187,13*7E
$GPGSV,9,4,29,32,45,293,15*43
$GLGSV,9,5,29,65,35,285,22,66,12,341,17,72,23,229,10,73,19,83,*50
$GLGSV,9,6,29,74,66,20,24,75,36,293,14,83,34,45,18,84,40,118,28*62
$GLGSV,9,7,29,85,8,162,16*67
$BDGSV,9,8,29,205,10,109,28,207,5,,8,208,16,28,8,211,5,,*56
$BDGSV,9,9,29,212,14,176,8,213,5,,,214,15,237,11*5F
$GPRMC,162048.00,A,4825.1634,N,00428.2468,W,0.000,0.000,040317,,E,A*0C
$GPGGA,162049.00,4825.1656,N,00428.2441,W,1,19,0.582,150.194,M,,M,0,*55
$GNGSA,A,3,10,12,14,15,17,19,24,25,29,32,212,214,65,72,74,75,83,84,85,,1.062,0.582,0.889*22
$GPGSA,A,3,10,12,14,15,17,19,24,25,29,32,,,,,,,,,,,1.062,0.582,0.889*37
$GLGSA,A,3,65,72,74,75,83,84,85,,,,,,,,,,,,,,1.062,0.582,0.889*20
$BDGSA,A,3,212,214,,,,,,,,,,,,,,,,,,,1.062,0.582,0.889*26
$QZGSA,A,3,,,,,,,,,,,,,,,,,,,,,1.062,0.582,0.889*2D
$GPGSV,9,1,29,2,8,107,,4,5,,,6,11,70,10,10,8,252,16*7C
$GPGSV,9,2,29,12,79,41,32,14,26,313,21,15,6,166,17,17,5,31,8*4F
$GPGSV,9,3,29,19,20,41,8,24,53,111,34,25,53,250,22,29,10,187,13*79
$GPGSV,9,4,29,32,45,293,16*40
$GLGSV,9,5,29,65,35,285,22,66,12,341,17,72,22,229,10,73,19,83,*51
$GLGSV,9,6,29,74,66,20,24,75,36,293,17,83,34,45,18,84,40,118,24*6D
$GLGSV,9,7,29,85,8,162,22*60
$BDGSV,9,8,29,205,10,109,28,207,5,,23,208,16,28,10,211,5,,23*57
$BDGSV,9,9,29,212,14,176,8,213,5,,23,214,15,237,12*5D
$GPRMC,162049.00,A,4825.1656,N,00428.2441,W,1.634,0.000,040317,,E,A*02
$GPGGA,162050.00,4825.1657,N,00428.2440,W,1,19,0.582,150.782,M,,M,0,*5C
$GNGSA,A,3,10,12,14,15,17,19,24,25,29,32,212,214,65,72,74,75,83,84,85,,1.062,0.582,0.889*22
$GPGSA,A,3,10,12,14,15,17,19,24,25,29,32,,,,,,,,,,,1.062,0.582,0.889*37
$GLGSA,A,3,65,72,74,75,83,84,85,,,,,,,,,,,,,,1.062,0.582,0.889*20
$BDGSA,A,3,212,214,,,,,,,,,,,,,,,,,,,1.062,0.582,0.889*26
$QZGSA,A,3,,,,,,,,,,,,,,,,,,,,,1.062,0.582,0.889*2D
$GPGSV,9,1,29,2,8,107,,4,5,,,6,11,70,10,10,8,252,15*7F
$GPGSV,9,2,29,12,79,41,34,14,26,313,20,15,6,166,22,17,5,31,8*4E
$GPGSV,9,3,29,19,20,41,10,24,53,111,34,25,53,250,20,29,10,187,15*44
$GPGSV,9,4,29,32,45,293,17*41
$GLGSV,9,5,29,65,35,284,23,66,12,341,22,72,22,229,10,73,19,83,*57
$GLGSV,9,6,29,74,66,20,26,75,36,293,18,83,33,45,17,84,40,118,25*69
$GLGSV,9,7,29,85,8,162,27*65
$BDGSV,9,8,29,205,10,109,28,207,5,,12,208,16,28,10,211,5,,11*54
$BDGSV,9,9,29,212,14,176,10,213,5,,10,214,15,237,12*64
$GPRMC,162050.00,A,4825.1657,N,00428.2440,W,1.271,0.000,040317,,E,A*0F
$GPGGA,162051.00,4825.1664,N,00428.2423,W,1,19,0.582,150.998,M,,M,0,*5D
$GNGSA,A,3,10,12,14,15,17,19,24,25,29,32,212,214,65,72,74,75,83,84,85,,1.062,0.582,0.888*23
$GPGSA,A,3,10,12,14,15,17,19,24,25,29,32,,,,,,,,,,,1.062,0.582,0.888*36
$GLGSA,A,3,65,72,74,75,83,84,85,,,,,,,,,,,,,,1.062,0.582,0.888*21
$BDGSA,A,3,212,214,,,,,,,,,,,,,,,,,,,1.062,0.582,0.888*27
$QZGSA,A,3,,,,,,,,,,,,,,,,,,,,,1.062,0.582,0.888*2C
$GPGSV,9,1,29,2,8,107,,4,5,,,6,11,70,10,10,8,252,16*7C
$GPGSV,9,2,29,12,79,41,36,14,26,313,20,15,6,166,28,17,5,31,10*7F
$GPGSV,9,3,29,19,20,41,10,24,53,111,29,25,53,250,22,29,10,187,16*49
$GPGSV,9,4,29,32,45,293,23*46
$GLGSV,9,5,29,65,35,284,27,66,12,341,24,72,22,229,12,73,19,83,*57
$GLGSV,9,6,29,74,66,20,24,75,36,293,19,83,33,45,17,84,40,118,23*6C
$GLGSV,9,7,29,85,8,162,29*6B
$BDGSV,9,8,29,205,10,109,28,207,5,,10,208,16,28,8,211,5,,11*6F
$BDGSV,9,9,29,212,14,176,11,213,5,,9,214,15,237,12*5D
$GPRMC,162051.00,A,4825.1664,N,00428.2423,W,0.692,0.000,040317,,E,A*03
$GPGGA,162052.00,4825.1665,N,00428.2419,W,1,19,0.582,151.358,M,,M,0,*51
$GNGSA,A,3,10,12,14,15,17,19,24,25,29,32,212,214,65,72,74,75,83,84,85,,1.062,0.582,0.888*23
$GPGSA,A,3,10,12,14,15,17,19,24,25,29,32,,,,,,,,,,,1.062,0.582,0.888*36
$GLGSA,A,3,65,72,74,75,83,84,85,,,,,,,,,,,,,,1.062,0.582,0.888*21
$BDGSA,A,3,212,214,,,,,,,,,,,,,,,,,,,1.062,0.582,0.888*27
$QZGSA,A,3,,,,,,,,,,,,,,,,,,,,,1.062,0.582,0.888*2C
$GPGSV,9,1,29,2,8,107,,4,5,,,6,11,70,8,10,8,252,17*44
$GPGSV,9,2,29,12,79,41,32,14,26,313,20,15,6,166,31,17,5,31,10*73
$GPGSV,9,3,29,19,20,41,9,24,53,111,31,25,53,250,26,29,10,187,18*72
$GPGSV,9,4,29,32,45,293,23*46
$GLGSV,9,5,29,65,35,284,24,66,12,341,28,72,22,229,13,73,19,83,*59
$GLGSV,9,6,29,74,66,20,29,75,36,293,23,83,33,45,17,84,40,118,24*6F
$GLGSV,9,7,29,85,8,162,31*62
$BDGSV,9,8,29,205,10,109,28,207,5,,10,208,16,28,10,211,5,,11*56
$BDGSV,9,9,29,212,14,176,14,213,5,,9,214,15,237,12*58
$GPRMC,162052.00,A,4825.1665,N,00428.2419,W,0.315,0.000,040317,,E,A*02
$GPGGA,162053.00,4825.1665,N,00428.2419,W,1,19,0.582,151.358,M,,M,0,*50
$GNGSA,A,3,10,12,14,15,17,19,24,25,29,32,212,214,65,72,74,75,83,84,85,,1.062,0.582,0.888*23
$GPGSA,A,3,10,12,14,15,17,19,24,25,29,32,,,,,,,,,,,1.062,0.582,0.888*36
$GLGSA,A,3,65,72,74,75,83,84,85,,,,,,,,,,,,,,1.062,0.582,0.888*21
$BDGSA,A,3,212,214,,,,,,,,,,,,,,,,,,,1.062,0.582,0.888*27
$QZGSA,A,3,,,,,,,,,,,,,,,,,,,,,1.062,0.582,0.888*2C
$GPGSV,9,1,29,2,8,107,,4,5,,,6,11,70,8,10,8,252,18*4B
$GPGSV,9,2,29,12,79,41,35,14,26,313,19,15,6,166,34,17,5,31,11*7A
$GPGSV,9,3,29,19,20,41,9,24,53,111,30,25,53,250,26,29,10,187,18*73
$GPGSV,9,4,29,32,45,293,25*40
$GLGSV,9,5,29,65,35,284,24,66,12,341,27,72,22,229,13,73,19,83,*56
$GLGSV,9,6,29,74,66,20,29,75,36,293,18,83,33,45,17,84,40,118,24*67
$GLGSV,9,7,29,85,8,162,29*6B
$BDGSV,9,8,29,205,10,109,28,207,5,,,208,16,28,,211,5,,*56
$BDGSV,9,9,29,212,14,176,16,213,5,,,214,15,237,12*63
$GPRMC,162053.00,A,4825.1665,N,00428.2419,W,0.000,0.000,040317,,E,A*04
$GPGGA,162054.00,4825.1665,N,00428.2419,W,1,19,0.582,151.358,M,,M,0,*57
$GNGSA,A,3,10,12,14,15,17,19,24,25,29,32,212,214,65,72,74,75,83,84,85,,1.062,0.582,0.888*23
$GPGSA,A,3,10,12,14,15,17,19,24,25,29,32,,,,,,,,,,,1.062,0.582,0.888*36
$GLGSA,A,3,65,72,74,75,83,84,85,,,,,,,,,,,,,,1.062,0.582,0.888*21
$BDGSA,A,3,212,214,,,,,,,,,,,,,,,,,,,1.062,0.582,0.888*27
$QZGSA,A,3,,,,,,,,,,,,,,,,,,,,,1.062,0.582,0.888*2C
$GPGSV,9,1,29,2,8,107,,4,5,,,6,11,70,8,10,8,252,18*4B
$GPGSV,9,2,29,12,79,41,31,14,26,313,22,15,6,166,33,17,5,31,11*71
$GPGSV,9,3,29,19,20,41,10,24,53,111,29,25,53,250,28,29,10,187,19*4C
$GPGSV,9,4,29,32,45,293,24*41
$GLGSV,9,5,29,65,35,284,21,66,12,341,25,72,22,229,14,73,19,83,*56
$GLGSV,9,6,29,74,66,20,26,75,36,293,22,83,33,45,17,84,40,118,26*63
$GLGSV,9,7,29,85,8,162,33*60
$BDGSV,9,8,29,205,10,109,28,207,5,,,208,16,28,,211,5,,*56
$BDGSV,9,9,29,212,14,176,22,213,5,,,214,15,237,12*64
$GPRMC,162054.00,A,4825.1665,N,00428.2419,W,0.000,0.000,040317,,E,A*03
$GPGGA,162055.00,4825.1665,N,00428.2419,W,1,19,0.582,151.358,M,,M,0,*56
$GNGSA,A,3,10,12,14,15,17,19,24,25,29,32,212,214,65,72,74,75,83,84,85,,1.062,0.582,0.888*23
$GPGSA,A,3,10,12,14,15,17,19,24,25,29,32,,,,,,,,,,,1.062,0.582,0.888*36
$GLGSA,A,3,65,72,74,75,83,84,85,,,,,,,,,,,,,,1.062,0.582,0.888*21
$BDGSA,A,3,212,214,,,,,,,,,,,,,,,,,,,1.062,0.582,0.888*27
$QZGSA,A,3,,,,,,,,,,,,,,,,,,,,,1.062,0.582,0.888*2C
$GPGSV,9,1,29,2,8,107,,4,5,,,6,11,70,8,10,8,252,19*4A
$GPGSV,9,2,29,12,79,41,29,14,26,313,25,15,6,166,29,17,5,31,12*77
$GPGSV,9,3,29,19,20,41,9,24,53,111,28,25,53,250,28,29,10,187,19*75
$GPGSV,9,4,29,32,45,293,28*4D
$GLGSV,9,5,29,65,35,284,20,66,12,341,26,72,22,229,14,73,19,83,*54
$GLGSV,9,6,29,74,66,20,25,75,36,293,24,83,33,45,18,84,40,118,21*6E
$GLGSV,9,7,29,85,8,162,33*60
$BDGSV,9,8,29,205,10,109,23,207,5,,,208,16,28,,211,5,,*5D
$BDGSV,9,9,29,212,14,176,27,213,5,,,214,15,237,11*62
$GPRMC,162055.00,A,4825.1665,N,00428.2419,W,0.000,0.000,040317,,E,A*02
$GPGGA,162056.00,4825.1665,N,00428.2419,W,1,19,0.582,151.358,M,,M,0,*55
$GNGSA,A,3,10,12,14,15,17,19,24,25,29,32,212,214,65,72,74,75,83,84,85,,1.062,0.582,0.888*23
$GPGSA,A,3,10,12,14,15,17,19,24,25,29,32,,,,,,,,,,,1.062,0.582,0.888*36
$GLGSA,A,3,65,72,74,75,83,84,85,,,,,,,,,,,,,,1.062,0.582,0.888*21
$BDGSA,A,3,212,214,,,,,,,,,,,,,,,,,,,1.062,0.582,0.888*27
$QZGSA,A,3,,,,,,,,,,,,,,,,,,,,,1.062,0.582,0.888*2C
$GPGSV,9,1,29,2,8,107,17,4,5,,,6,11,70,8,10,8,252,19*4C
$GPGSV,9,2,29,12,79,41,30,14,26,313,26,15,6,166,29,17,5,31,12*7C
$GPGSV,9,3,29,19,20,41,11,24,53,111,27,25,53,250,29,29,10,187,19*42
$GPGSV,9,4,29,32,45,293,25*40
$GLGSV,9,5,29,65,35,284,27,66,12,341,32,72,22,229,13,73,19,83,*51
$GLGSV,9,6,29,74,66,20,25,75,36,293,25,83,33,45,19,84,40,118,18*64
$GLGSV,9,7,29,85,8,162,33*60
$BDGSV,9,8,29,205,10,109,23,207,5,,,208,16,28,,211,5,,*5D
$BDGSV,9,9,29,212,14,176,28,213,5,,,214,15,237,11*6D
$GPRMC,162056.00,A,4825.1665,N,00428.2419,W,0.000,0.000,040317,,E,A*01
$GPGGA,162057.00,4825.1665,N,00428.2419,W,1,20,0.561,151.358,M,,M,0,*53
$GNGSA,A,3,2,10,12,14,15,17,19,24,25,29,32,212,214,65,72,74,75,83,84,85,1.031,0.561,0.865*19
$GPGSA,A,3,2,10,12,14,15,17,19,24,25,29,32,,,,,,,,,,1.031,0.561,0.865*0C
$GLGSA,A,3,65,72,74,75,83,84,85,,,,,,,,,,,,,,1.031,0.561,0.865*29
$BDGSA,A,3,212,214,,,,,,,,,,,,,,,,,,,1.031,0.561,0.865*2F
$QZGSA,A,3,,,,,,,,,,,,,,,,,,,,,1.031,0.561,0.865*24
$GPGSV,9,1,29,2,8,107,11,4,5,,,6,11,70,8,10,8,252,19*4A
$GPGSV,9,2,29,12,79,41,28,14,26,313,26,15,6,166,29,17,5,31,12*75
$GPGSV,9,3,29,19,20,41,12,24,53,111,25,25,53,250,29,29,10,187,20*49
$GPGSV,9,4,29,32,45,293,27*42
$GLGSV,9,5,29,65,35,284,27,66,12,341,29,72,22,229,11,73,19,83,*59
$GLGSV,9,6,29,74,66,21,27,75,36,293,25,83,33,44,21,84,40,118,19*6C
$GLGSV,9,7,29,85,8,162,33*60
$BDGSV,9,8,29,205,10,109,18,207,5,,,208,16,28,,211,5,,*55
$BDGSV,9,9,29,212,14,176,26,213,5,,,214,15,237,13*61
$GPRMC,162057.00,A,4825.1665,N,00428.2419,W,0.000,0.000,040317,,E,A*00
$GPGGA,162058.00,4825.1665,N,00428.2419,W,1,20,0.561,151.358,M,,M,0,*5C
$GNGSA,A,3,2,10,12,14,15,17,19,24,25,29,32,212,214,65,72,74,75,83,84,85,1.031,0.561,0.865*19
$GPGSA,A,3,2,10,12,14,15,17,19,24,25,29,32,,,,,,,,,,1.031,0.561,0.865*0C
$GLGSA,A,3,65,72,74,75,83,84,85,,,,,,,,,,,,,,1.031,0.561,0.865*29
$BDGSA,A,3,212,214,,,,,,,,,,,,,,,,,,,1.031,0.561,0.865*2F
$QZGSA,A,3,,,,,,,,,,,,,,,,,,,,,1.031,0.561,0.865*24
$GPGSV,9,1,29,2,8,107,13,4,5,,,6,11,70,8,10,8,252,18*49
$GPGSV,9,2,29,12,79,41,29,14,26,313,23,15,6,166,30,17,5,31,11*7A
$GPGSV,9,3,29,19,20,41,12,24,53,111,23,25,53,250,29,29,10,187,22*4D
$GPGSV,9,4,29,32,45,293,29*4C
$GLGSV,9,5,29,65,35,284,22,66,12,341,26,72,22,229,12,73,19,83,*50
$GLGSV,9,6,29,74,66,21,20,75,36,293,24,83,33,44,19,84,40,118,18*60
$GLGSV,9,7,29,85,8,162,27*65
$BDGSV,9,8,29,205,10,109,18,207,5,,,208,16,28,,211,5,,*55
$BDGSV,9,9,29,212,14,176,27,213,5,,,214,15,237,13*60
$GPRMC,162058.00,A,4825.1665,N,00428.2419,W,0.000,0.000,040317,,E,A*0F
