$GPGGA,183340.36,4824.6000,N,00429.9997,W,0,,100.000,164.174,M,,M,0,*54
 
$GNGSA,A,1,,,,,,,,,,,,,,,,,,,,,100.000,100.000,100.000*2F
 
$GPGSA,A,1,,,,,,,,,,,,,,,,,,,,,100.000,100.000,100.000*31
 
$GLGSA,A,1,,,,,,,,,,,,,,,,,,,,,100.000,100.000,100.000*2D
 
$BDGSA,A,1,,,,,,,,,,,,,,,,,,,,,100.000,100.000,100.000*20
 
$QZGSA,A,1,,,,,,,,,,,,,,,,,,,,,100.000,100.000,100.000*2D
 
$GPGSV,5,1,20,2,26,63,,3,5,,,6,7,28,,12,32,75,*41
 
$GPGSV,5,2,20,14,40,260,,22,5,,,24,8,137,,25,74,46,*71
 
$GPGSV,5,3,20,26,10,270,,29,62,185,,31,47,303,,32,31,229,*75
 
$GLGSV,5,4,20,68,16,290,,69,12,340,,76,30,109,,77,74,19,*5E
 
$GLGSV,5,5,20,78,26,309,,86,39,39,,87,63,146,,88,21,187,*5C
 
$GPRMC,183340.36,V,4824.6000,N,00429.9997,W,0.000,0.000,260217,,E,N*14
 
$GPGGA,183349.79,4825.0033,N,00428.2403,W,1,10,1.291,151.151,M,,M,0,*50
 
$GNGSA,A,3,2,12,14,25,26,29,31,32,69,86,,,,,,,,,,,1.991,1.291,1.516*1A
 
$GPGSA,A,3,2,12,14,25,26,29,31,32,,,,,,,,,,,,,1.991,1.291,1.516*05
 
$GLGSA,A,3,69,86,,,,,,,,,,,,,,,,,,,1.991,1.291,1.516*27
 
$BDGSA,A,3,,,,,,,,,,,,,,,,,,,,,1.991,1.291,1.516*2B
 
$QZGSA,A,3,,,,,,,,,,,,,,,,,,,,,1.991,1.291,1.516*26
 
$GPGSV,6,1,23,2,27,63,31,4,5,,,6,7,28,,12,32,75,34*42
 
$GPGSV,6,2,23,14,40,260,24,24,8,137,19,25,74,46,26,26,10,270,19*76
 
$GPGSV,6,3,23,29,63,185,23,31,47,303,30,32,31,229,24*40
 
$GLGSV,6,4,23,68,16,290,27,69,12,340,27,76,30,109,34,77,74,19,*59
 
$GLGSV,6,5,23,78,26,309,20,86,38,39,24,87,63,146,21,88,21,187,*5A
 
$BDGSV,6,6,23,205,10,109,,211,5,,,212,9,205,,213,12,35,*6A
 
$GPRMC,183349.79,A,4825.0033,N,00428.2403,W,1.928,0.000,260217,,E,A*01
 
$GPGGA,183350.79,4825.0015,N,00428.2377,W,1,13,0.898,148.046,M,,M,0,*56
 
$GNGSA,A,3,2,12,14,25,26,29,31,32,68,69,76,78,86,,,,,,,,1.708,0.898,1.453*16
 
$GPGSA,A,3,2,12,14,25,26,29,31,32,,,,,,,,,,,,,1.708,0.898,1.453*09
 
$GLGSA,A,3,68,69,76,78,86,,,,,,,,,,,,,,,,1.708,0.898,1.453*2B
 
$BDGSA,A,3,,,,,,,,,,,,,,,,,,,,,1.708,0.898,1.453*27
 
$QZGSA,A,3,,,,,,,,,,,,,,,,,,,,,1.708,0.898,1.453*2A
 
$GPGSV,6,1,23,2,27,63,28,4,5,,,6,7,28,,12,32,75,37*49
 
$GPGSV,6,2,23,14,40,260,28,24,8,137,17,25,74,46,30,26,10,270,18*72
 
$GPGSV,6,3,23,29,63,185,29,31,47,303,30,32,31,229,28*46
 
$GLGSV,6,4,23,68,16,290,25,69,12,340,23,76,30,109,35,77,74,19,*5E
 
$GLGSV,6,5,23,78,26,309,20,86,38,39,22,87,63,146,22,88,21,187,*5F
 
$BDGSV,6,6,23,205,10,109,,211,5,,,212,9,205,,213,12,35,*6A
 
$GPRMC,183350.79,A,4825.0015,N,00428.2377,W,1.559,0.000,260217,,E,A*03
 
$GPGGA,183352.00,4825.0036,N,00428.2384,W,1,13,0.898,145.034,M,,M,0,*5F
 
$GNGSA,A,3,2,12,14,25,26,29,31,32,68,69,76,78,86,,,,,,,,1.708,0.898,1.453*16
 
$GPGSA,A,3,2,12,14,25,26,29,31,32,,,,,,,,,,,,,1.708,0.898,1.453*09
 
$GLGSA,A,3,68,69,76,78,86,,,,,,,,,,,,,,,,1.708,0.898,1.453*2B
 
$BDGSA,A,3,,,,,,,,,,,,,,,,,,,,,1.708,0.898,1.453*27
 
$QZGSA,A,3,,,,,,,,,,,,,,,,,,,,,1.708,0.898,1.453*2A
 
$GPGSV,6,1,23,2,27,63,28,4,5,,,6,7,28,,12,32,75,35*4B
 
$GPGSV,6,2,23,14,40,260,28,24,8,137,17,25,74,46,29,26,10,270,18*7A
 
$GPGSV,6,3,23,29,63,185,25,31,47,303,33,32,31,229,29*48
 
$GLGSV,6,4,23,68,16,290,27,69,12,339,25,76,30,109,31,77,74,19,*50
 
$GLGSV,6,5,23,78,26,309,21,86,38,39,26,87,63,146,18,88,21,187,24*55
 
$BDGSV,6,6,23,205,10,109,,211,5,,,212,9,205,,213,12,35,*6A
 
$GPRMC,183352.00,A,4825.0036,N,00428.2384,W,1.362,0.000,260217,,E,A*0C
 
$GPGGA,183353.00,4825.0065,N,00428.2377,W,1,11,0.932,177.790,M,,M,0,*5F
 
$GNGSA,A,3,2,12,14,25,26,29,31,32,68,69,76,,,,,,,,,,1.673,0.932,1.390*13
 
$GPGSA,A,3,2,12,14,25,26,29,31,32,,,,,,,,,,,,,1.673,0.932,1.390*0D
 
$GLGSA,A,3,68,69,76,,,,,,,,,,,,,,,,,,1.673,0.932,1.390*2E
 
$BDGSA,A,3,,,,,,,,,,,,,,,,,,,,,1.673,0.932,1.390*23
 
$QZGSA,A,3,,,,,,,,,,,,,,,,,,,,,1.673,0.932,1.390*2E
 
$GPGSV,6,1,23,2,27,63,22,4,5,,,6,7,28,,12,32,75,34*40
 
$GPGSV,6,2,23,14,40,260,30,24,8,137,,25,74,46,24,26,10,270,18*78
 
$GPGSV,6,3,23,29,63,185,26,31,47,303,30,32,31,229,26*47
 
$GLGSV,6,4,23,68,16,290,29,69,12,339,20,76,30,109,29,77,74,19,*52
 
$GLGSV,6,5,23,78,26,309,20,86,38,39,30,87,63,146,22,88,21,187,24*5A
 
$BDGSV,6,6,23,205,10,109,,211,5,,,212,9,205,,213,12,35,*6A
 
$GPRMC,183353.00,A,4825.0065,N,00428.2377,W,1.299,321.081,260217,,E,A*0B
 
$GPGGA,183354.00,4825.0046,N,00428.2382,W,1,12,0.887,173.946,M,,M,0,*5E
 
$GNGSA,A,3,2,12,14,25,26,29,31,32,68,69,76,78,,,,,,,,,1.644,0.887,1.384*12
 
$GPGSA,A,3,2,12,14,25,26,29,31,32,,,,,,,,,,,,,1.644,0.887,1.384*03
 
$GLGSA,A,3,68,69,76,78,,,,,,,,,,,,,,,,,1.644,0.887,1.384*2F
 
$BDGSA,A,3,,,,,,,,,,,,,,,,,,,,,1.644,0.887,1.384*2D
 
$QZGSA,A,3,,,,,,,,,,,,,,,,,,,,,1.644,0.887,1.384*20
 
$GPGSV,6,1,23,2,27,63,27,4,5,,,6,7,28,,12,32,75,28*48
 
$GPGSV,6,2,23,14,40,260,30,24,8,137,,25,74,46,25,26,10,270,17*76
 
$GPGSV,6,3,23,29,63,185,23,31,47,303,30,32,31,229,29*4D
 
$GLGSV,6,4,23,68,16,290,29,69,12,339,25,76,30,109,26,77,74,19,*58
 
$GLGSV,6,5,23,78,26,309,24,86,38,39,31,87,63,146,24,88,21,187,22*5F
 
$BDGSV,6,6,23,205,10,109,,211,5,,,212,9,205,,213,12,35,*6A
 
$GPRMC,183354.00,A,4825.0046,N,00428.2382,W,1.662,330.240,260217,,E,A*08
 
$GPGGA,183355.00,4825.0044,N,00428.2383,W,1,12,0.887,171.180,M,,M,0,*5C
 
$GNGSA,A,3,2,12,14,25,26,29,31,32,68,69,76,78,,,,,,,,,1.644,0.887,1.384*12
 
$GPGSA,A,3,2,12,14,25,26,29,31,32,,,,,,,,,,,,,1.644,0.887,1.384*03
 
$GLGSA,A,3,68,69,76,78,,,,,,,,,,,,,,,,,1.644,0.887,1.384*2F
 
$BDGSA,A,3,,,,,,,,,,,,,,,,,,,,,1.644,0.887,1.384*2D
 
$QZGSA,A,3,,,,,,,,,,,,,,,,,,,,,1.644,0.887,1.384*20
 
$GPGSV,6,1,23,2,27,63,26,4,5,,,6,7,28,21,12,32,75,26*44
 
$GPGSV,6,2,23,14,40,260,31,24,8,137,12,25,74,46,27,26,10,270,17*76
 
$GPGSV,6,3,23,29,63,185,21,31,47,303,30,32,31,229,26*40
 
$GLGSV,6,4,23,68,16,290,30,69,12,339,24,76,30,109,27,77,74,19,*50
 
$GLGSV,6,5,23,78,26,309,23,86,38,39,30,87,63,146,24,88,21,187,18*50
 
$BDGSV,6,6,23,205,10,109,,211,5,,,212,9,205,,213,12,35,*6A
 
$GPRMC,183355.00,A,4825.0044,N,00428.2383,W,1.986,332.715,260217,,E,A*08
 
$GPGGA,183356.00,4825.0050,N,00428.2384,W,1,13,0.750,171.507,M,,M,0,*52
 
$GNGSA,A,3,2,12,14,24,25,26,29,31,32,68,69,76,78,,,,,,,,1.352,0.750,1.125*1A
 
$GPGSA,A,3,2,12,14,24,25,26,29,31,32,,,,,,,,,,,,1.352,0.750,1.125*0B
 
$GLGSA,A,3,68,69,76,78,,,,,,,,,,,,,,,,,1.352,0.750,1.125*21
 
$BDGSA,A,3,,,,,,,,,,,,,,,,,,,,,1.352,0.750,1.125*23
 
$QZGSA,A,3,,,,,,,,,,,,,,,,,,,,,1.352,0.750,1.125*2E
 
$GPGSV,6,1,23,2,27,63,28,4,5,,,6,7,28,14,12,32,75,32*49
 
$GPGSV,6,2,23,14,40,260,27,24,8,137,17,25,74,46,24,26,10,270,17*77
 
$GPGSV,6,3,23,29,63,185,23,31,47,303,34,32,31,229,26*46
 
$GLGSV,6,4,23,68,16,290,29,69,12,339,20,76,30,109,19,77,74,19,26*55
 
$GLGSV,6,5,23,78,26,309,21,86,38,39,32,87,63,146,26,88,21,187,20*59
 
$BDGSV,6,6,23,205,10,109,,211,5,,,212,9,205,,213,12,35,*6A
 
$GPRMC,183356.00,A,4825.0050,N,00428.2384,W,2.342,339.577,260217,,E,A*05
 
$GPGGA,183357.00,4825.0046,N,00428.2384,W,1,15,0.687,166.635,M,,M,0,*5D
 
$GNGSA,A,3,2,6,12,14,24,25,26,29,31,32,68,69,76,77,78,,,,,,1.172,0.687,0.949*24
 
$GPGSA,A,3,2,6,12,14,24,25,26,29,31,32,,,,,,,,,,,1.172,0.687,0.949*35
 
$GLGSA,A,3,68,69,76,77,78,,,,,,,,,,,,,,,,1.172,0.687,0.949*29
 
$BDGSA,A,3,,,,,,,,,,,,,,,,,,,,,1.172,0.687,0.949*2B
 
$QZGSA,A,3,,,,,,,,,,,,,,,,,,,,,1.172,0.687,0.949*26
 
$GPGSV,6,1,23,2,26,63,28,4,5,,,6,7,28,15,12,32,75,30*4B
 
$GPGSV,6,2,23,14,40,260,29,24,8,137,22,25,74,46,28,26,10,270,22*75
 
$GPGSV,6,3,23,29,63,185,22,31,47,303,31,32,31,229,29*4D
 
$GLGSV,6,4,23,68,16,290,27,69,12,339,20,76,30,109,24,77,74,19,27*54
 
$GLGSV,6,5,23,78,26,309,23,86,38,39,33,87,64,146,25,88,21,187,20*5E
 
$BDGSV,6,6,23,205,10,109,,211,5,,,212,9,205,,213,12,35,*6A
 
$GPRMC,183357.00,A,4825.0046,N,00428.2384,W,2.414,344.119,260217,,E,A*01
 
$GPGGA,183358.00,4825.0053,N,00428.2383,W,1,15,0.687,165.429,M,,M,0,*5D
 
$GNGSA,A,3,2,6,12,14,24,25,26,29,31,32,68,69,76,77,78,,,,,,1.172,0.687,0.949*24
 
$GPGSA,A,3,2,6,12,14,24,25,26,29,31,32,,,,,,,,,,,1.172,0.687,0.949*35
 
$GLGSA,A,3,68,69,76,77,78,,,,,,,,,,,,,,,,1.172,0.687,0.949*29
 
$BDGSA,A,3,,,,,,,,,,,,,,,,,,,,,1.172,0.687,0.949*2B
 
$QZGSA,A,3,,,,,,,,,,,,,,,,,,,,,1.172,0.687,0.949*26
 
$GPGSV,6,1,23,2,26,63,29,4,5,,,6,7,28,16,12,32,75,30*49
 
$GPGSV,6,2,23,14,40,260,28,24,8,137,24,25,74,46,34,26,10,270,18*76
 
$GPGSV,6,3,23,29,63,185,20,31,47,303,32,32,31,229,26*43
 
$GLGSV,6,4,23,68,16,290,26,69,12,339,23,76,30,109,31,77,74,19,29*5C
 
$GLGSV,6,5,23,78,26,309,24,86,38,39,33,87,64,146,26,88,21,187,20*5A
 
$BDGSV,6,6,23,205,10,109,,211,5,,,212,9,205,,213,12,35,*6A
 
$GPRMC,183358.00,A,4825.0053,N,00428.2383,W,2.622,343.094,260217,,E,A*09
 
$GPGGA,183359.00,4825.0061,N,00428.2386,W,1,15,0.687,163.423,M,,M,0,*54
 
$GNGSA,A,3,2,6,12,14,24,25,26,29,31,32,68,69,76,77,78,,,,,,1.172,0.687,0.949*24
 
$GPGSA,A,3,2,6,12,14,24,25,26,29,31,32,,,,,,,,,,,1.172,0.687,0.949*35
 
$GLGSA,A,3,68,69,76,77,78,,,,,,,,,,,,,,,,1.172,0.687,0.949*29
 
$BDGSA,A,3,,,,,,,,,,,,,,,,,,,,,1.172,0.687,0.949*2B
 
$QZGSA,A,3,,,,,,,,,,,,,,,,,,,,,1.172,0.687,0.949*26
 
$GPGSV,6,1,23,2,26,63,28,4,5,,,6,7,28,18,12,32,75,32*44
 
$GPGSV,6,2,23,14,40,260,25,24,8,137,25,25,74,46,34,26,10,270,22*73
 
$GPGSV,6,3,23,29,63,185,23,31,47,303,35,32,31,229,29*48
 
$GLGSV,6,4,23,68,16,290,28,69,12,339,27,76,30,109,32,77,74,19,28*54
 
$GLGSV,6,5,23,78,26,309,22,86,38,39,34,87,64,146,26,88,21,187,22*59
 
$BDGSV,6,6,23,205,10,109,,211,5,,,212,9,205,,213,12,35,*6A
 
$GPRMC,183359.00,A,4825.0061,N,00428.2386,W,2.845,342.811,260217,,E,A*07
 
$GPGGA,183400.00,4825.0066,N,00428.2393,W,1,15,0.687,161.789,M,,M,0,*5D
 
$GNGSA,A,3,2,6,12,14,24,25,26,29,31,32,68,69,76,77,78,,,,,,1.171,0.687,0.949*27
 
$GPGSA,A,3,2,6,12,14,24,25,26,29,31,32,,,,,,,,,,,1.171,0.687,0.949*36
 
$GLGSA,A,3,68,69,76,77,78,,,,,,,,,,,,,,,,1.171,0.687,0.949*2A
 
$BDGSA,A,3,,,,,,,,,,,,,,,,,,,,,1.171,0.687,0.949*28
 
$QZGSA,A,3,,,,,,,,,,,,,,,,,,,,,1.171,0.687,0.949*25
 
$GPGSV,6,1,23,2,26,63,24,4,5,,,6,7,28,18,12,32,75,32*48
 
$GPGSV,6,2,23,14,40,260,29,24,8,137,20,25,74,46,31,26,10,270,25*78
 
$GPGSV,6,3,23,29,63,185,24,31,47,303,32,32,31,229,31*41
 
$GLGSV,6,4,23,68,16,290,30,69,12,339,29,76,30,109,30,77,74,19,24*5D
 
$GLGSV,6,5,23,78,26,309,22,86,38,39,32,87,64,146,23,88,21,187,19*52
 
$BDGSV,6,6,23,205,10,109,,211,5,,,212,9,205,,213,12,35,23*6B
 
$GPRMC,183400.00,A,4825.0066,N,00428.2393,W,2.728,345.999,260217,,E,A*0D
 
$GPGGA,183401.00,4825.0072,N,00428.2398,W,1,15,0.687,162.048,M,,M,0,*5B
 
$GNGSA,A,3,2,6,12,14,24,25,26,29,31,32,68,69,76,77,78,,,,,,1.171,0.687,0.949*27
 
$GPGSA,A,3,2,6,12,14,24,25,26,29,31,32,,,,,,,,,,,1.171,0.687,0.949*36
 
$GLGSA,A,3,68,69,76,77,78,,,,,,,,,,,,,,,,1.171,0.687,0.949*2A
 
$BDGSA,A,3,,,,,,,,,,,,,,,,,,,,,1.171,0.687,0.949*28
 
$QZGSA,A,3,,,,,,,,,,,,,,,,,,,,,1.171,0.687,0.949*25
 
$GPGSV,6,1,23,2,26,63,22,4,5,,,6,7,28,19,12,32,75,34*49
 
$GPGSV,6,2,23,14,40,260,29,24,8,137,20,25,74,46,29,26,10,270,29*7D
 
$GPGSV,6,3,23,29,63,185,24,31,47,303,34,32,31,229,30*46
 
$GLGSV,6,4,23,68,16,290,27,69,12,339,27,76,30,109,28,77,74,19,23*5B
 
$GLGSV,6,5,23,78,26,309,20,86,38,39,34,87,64,146,26,88,21,187,23*5A
 
$BDGSV,6,6,23,205,10,109,,211,5,,,212,9,205,,213,12,35,11*6A
 
$GPRMC,183401.00,A,4825.0072,N,00428.2398,W,2.731,344.867,260217,,E,A*0B
 
$GPGGA,183402.00,4825.0081,N,00428.2401,W,1,15,0.687,161.083,M,,M,0,*57
 
$GNGSA,A,3,2,6,12,14,24,25,26,29,31,32,68,69,76,77,78,,,,,,1.171,0.687,0.949*27
 
$GPGSA,A,3,2,6,12,14,24,25,26,29,31,32,,,,,,,,,,,1.171,0.687,0.949*36
 
$GLGSA,A,3,68,69,76,77,78,,,,,,,,,,,,,,,,1.171,0.687,0.949*2A
 
$BDGSA,A,3,,,,,,,,,,,,,,,,,,,,,1.171,0.687,0.949*28
 
$QZGSA,A,3,,,,,,,,,,,,,,,,,,,,,1.171,0.687,0.949*25
 
$GPGSV,6,1,23,2,26,63,24,4,5,,,6,7,28,19,12,32,75,31*4A
 
$GPGSV,6,2,23,14,40,260,29,24,8,137,18,25,74,46,30,26,10,270,29*7E
 
$GPGSV,6,3,23,29,63,185,26,31,47,303,32,32,31,229,28*4B
 
$GLGSV,6,4,23,68,16,290,28,69,12,339,28,76,30,109,31,77,74,19,26*56
 
$GLGSV,6,5,23,78,26,309,22,86,38,39,33,87,64,146,24,88,21,187,24*5A
 
$BDGSV,6,6,23,205,10,109,,211,5,,,212,9,205,,213,12,35,11*6A
 
$GPRMC,183402.00,A,4825.0081,N,00428.2401,W,2.951,347.315,260217,,E,A*06
 
$GPGGA,183403.00,4825.0092,N,00428.2405,W,1,15,0.687,160.587,M,,M,0,*50
 
$GNGSA,A,3,2,6,12,14,24,25,26,29,31,32,68,69,76,77,78,,,,,,1.171,0.687,0.949*27
 
$GPGSA,A,3,2,6,12,14,24,25,26,29,31,32,,,,,,,,,,,1.171,0.687,0.949*36
 
$GLGSA,A,3,68,69,76,77,78,,,,,,,,,,,,,,,,1.171,0.687,0.949*2A
 
$BDGSA,A,3,,,,,,,,,,,,,,,,,,,,,1.171,0.687,0.949*28
 
$QZGSA,A,3,,,,,,,,,,,,,,,,,,,,,1.171,0.687,0.949*25
 
$GPGSV,6,1,22,2,26,63,27,4,5,,,6,7,28,19,12,32,75,32*4B
 
$GPGSV,6,2,22,14,40,260,29,24,8,137,21,25,74,46,30,26,10,270,28*74
 
$GPGSV,6,3,22,29,63,185,27,31,47,303,32,32,31,229,29*4A
 
$GLGSV,6,4,22,68,16,290,26,69,12,339,27,76,30,109,32,77,74,19,27*54
 
$GLGSV,6,5,22,78,26,309,21,86,38,39,32,87,64,146,23,88,21,187,19*50
 
$BDGSV,6,6,22,205,10,109,,212,9,205,,213,12,35,11*6C
 
$GPRMC,183403.00,A,4825.0092,N,00428.2405,W,3.258,347.349,260217,,E,A*0B
 
$GPGGA,183404.00,4825.0103,N,00428.2411,W,1,15,0.687,159.994,M,,M,0,*5F
 
$GNGSA,A,3,2,6,12,14,24,25,26,29,31,32,68,69,76,77,78,,,,,,1.171,0.687,0.949*27
 
$GPGSA,A,3,2,6,12,14,24,25,26,29,31,32,,,,,,,,,,,1.171,0.687,0.949*36
 
$GLGSA,A,3,68,69,76,77,78,,,,,,,,,,,,,,,,1.171,0.687,0.949*2A
 
$BDGSA,A,3,,,,,,,,,,,,,,,,,,,,,1.171,0.687,0.949*28
 
$QZGSA,A,3,,,,,,,,,,,,,,,,,,,,,1.171,0.687,0.949*25
 
$GPGSV,6,1,22,2,26,63,28,4,5,,,6,7,28,18,12,32,75,34*43
 
$GPGSV,6,2,22,14,40,260,29,24,8,137,26,25,74,46,31,26,10,270,24*7E
 
$GPGSV,6,3,22,29,63,185,25,31,47,303,34,32,31,229,28*4F
 
$GLGSV,6,4,22,68,16,290,22,69,12,339,27,76,30,109,33,77,74,20,28*54
 
$GLGSV,6,5,22,78,26,309,25,86,38,39,33,87,64,146,23,88,21,187,24*5B
 
$BDGSV,6,6,22,205,10,109,,212,9,205,,213,12,35,*6C
 
$GPRMC,183404.00,A,4825.0103,N,00428.2411,W,3.184,344.791,260217,,E,A*00
 
$GPGGA,183405.00,4825.0114,N,00428.2419,W,1,15,0.687,158.359,M,,M,0,*5A
 
$GNGSA,A,3,2,6,12,14,24,25,26,29,31,32,68,69,76,77,78,,,,,,1.171,0.687,0.949*27
 
$GPGSA,A,3,2,6,12,14,24,25,26,29,31,32,,,,,,,,,,,1.171,0.687,0.949*36
 
$GLGSA,A,3,68,69,76,77,78,,,,,,,,,,,,,,,,1.171,0.687,0.949*2A
 
$BDGSA,A,3,,,,,,,,,,,,,,,,,,,,,1.171,0.687,0.949*28
 
$QZGSA,A,3,,,,,,,,,,,,,,,,,,,,,1.171,0.687,0.949*25
 
$GPGSV,6,1,22,2,26,63,30,4,5,,,6,7,27,18,12,32,75,33*42
 
$GPGSV,6,2,22,14,40,260,29,24,8,137,26,25,74,46,33,26,10,270,27*7F
 
$GPGSV,6,3,22,29,63,185,26,31,47,303,33,32,31,229,26*45
 
$GLGSV,6,4,22,68,16,290,27,69,12,339,27,76,30,109,31,77,74,20,28*53
 
$GLGSV,6,5,22,78,26,309,26,86,38,39,34,87,64,146,26,88,21,187,24*5A
 
$BDGSV,6,6,22,205,10,109,,212,9,205,,213,12,35,*6C
 
$GPRMC,183405.00,A,4825.0114,N,00428.2419,W,3.109,347.327,260217,,E,A*00
 
$GPGGA,183406.00,4825.0125,N,00428.2426,W,1,15,0.687,157.204,M,,M,0,*51
 
$GNGSA,A,3,2,6,12,14,24,25,26,29,31,32,68,69,76,77,78,,,,,,1.171,0.687,0.949*27
 
$GPGSA,A,3,2,6,12,14,24,25,26,29,31,32,,,,,,,,,,,1.171,0.687,0.949*36
 
$GLGSA,A,3,68,69,76,77,78,,,,,,,,,,,,,,,,1.171,0.687,0.949*2A
 
$BDGSA,A,3,,,,,,,,,,,,,,,,,,,,,1.171,0.687,0.949*28
 
$QZGSA,A,3,,,,,,,,,,,,,,,,,,,,,1.171,0.687,0.949*25
 
$GPGSV,6,1,22,2,26,63,29,4,5,,,6,7,27,18,12,32,75,32*4B
 
$GPGSV,6,2,22,14,40,260,28,24,8,137,24,25,74,46,34,26,10,270,27*7B
 
$GPGSV,6,3,22,29,63,185,29,31,47,303,34,32,31,229,28*43
 
$GLGSV,6,4,22,68,16,290,32,69,12,339,26,76,30,109,30,77,74,20,29*56
 
$GLGSV,6,5,22,78,26,309,20,86,38,39,35,87,64,146,27,88,21,187,24*5C
 
$BDGSV,6,6,22,205,10,109,,212,9,205,,213,12,35,*6C
 
$GPRMC,183406.00,A,4825.0125,N,00428.2426,W,3.179,344.005,260217,,E,A*0A
 
$GPGGA,183407.00,4825.0135,N,00428.2429,W,1,15,0.687,155.924,M,,M,0,*55
 
$GNGSA,A,3,2,6,12,14,24,25,26,29,31,32,68,69,76,77,78,,,,,,1.171,0.687,0.949*27
 
$GPGSA,A,3,2,6,12,14,24,25,26,29,31,32,,,,,,,,,,,1.171,0.687,0.949*36
 
$GLGSA,A,3,68,69,76,77,78,,,,,,,,,,,,,,,,1.171,0.687,0.949*2A
 
$BDGSA,A,3,,,,,,,,,,,,,,,,,,,,,1.171,0.687,0.949*28
 
$QZGSA,A,3,,,,,,,,,,,,,,,,,,,,,1.171,0.687,0.949*25
 
$GPGSV,6,1,22,2,26,63,28,4,5,,,6,7,27,18,12,32,75,31*49
 
$GPGSV,6,2,22,14,40,260,29,24,8,137,23,25,74,46,34,26,10,270,27*7D
 
$GPGSV,6,3,22,29,63,185,31,31,47,303,32,32,31,229,27*43
 
$GLGSV,6,4,22,68,16,290,32,69,12,339,29,76,30,109,29,77,74,20,27*5F
 
$GLGSV,6,5,22,78,26,309,19,86,38,39,33,87,64,146,30,88,21,187,19*58
 
$BDGSV,6,6,22,205,10,109,,212,9,205,,213,12,35,*6C
 
$GPRMC,183407.00,A,4825.0135,N,00428.2429,W,2.909,349.178,260217,,E,A*0D
 
$GPGGA,183408.00,4825.0144,N,00428.2431,W,1,15,0.687,155.585,M,,M,0,*52
 
$GNGSA,A,3,2,6,12,14,24,25,26,29,31,32,68,69,76,77,78,,,,,,1.171,0.687,0.948*26
 
$GPGSA,A,3,2,6,12,14,24,25,26,29,31,32,,,,,,,,,,,1.171,0.687,0.948*37
 
$GLGSA,A,3,68,69,76,77,78,,,,,,,,,,,,,,,,1.171,0.687,0.948*2B
 
$BDGSA,A,3,,,,,,,,,,,,,,,,,,,,,1.171,0.687,0.948*29
 
$QZGSA,A,3,,,,,,,,,,,,,,,,,,,,,1.171,0.687,0.948*24
 
$GPGSV,6,1,23,2,26,63,27,4,5,,,6,7,27,18,12,32,75,31*47
 
$GPGSV,6,2,23,14,40,260,29,24,8,137,19,25,74,46,34,26,10,270,26*74
 
$GPGSV,6,3,23,29,63,185,29,31,47,303,33,32,31,229,28*45
 
$GLGSV,6,4,23,68,16,290,32,69,12,339,28,76,30,109,31,77,74,20,27*56
 
$GLGSV,6,5,23,78,26,309,20,86,38,39,34,87,64,146,29,88,21,187,19*5C
 
$BDGSV,6,6,23,205,10,109,,211,5,,,212,9,205,,213,12,35,*6A
 
$GPRMC,183408.00,A,4825.0144,N,00428.2431,W,2.782,348.973,260217,,E,A*02
 
$GPGGA,183409.00,4825.0153,N,00428.2436,W,1,15,0.687,154.711,M,,M,0,*5C
 
$GNGSA,A,3,2,6,12,14,24,25,26,29,31,32,68,69,76,77,78,,,,,,1.171,0.687,0.948*26
 
$GPGSA,A,3,2,6,12,14,24,25,26,29,31,32,,,,,,,,,,,1.171,0.687,0.948*37
 
$GLGSA,A,3,68,69,76,77,78,,,,,,,,,,,,,,,,1.171,0.687,0.948*2B
 
$BDGSA,A,3,,,,,,,,,,,,,,,,,,,,,1.171,0.687,0.948*29
 
$QZGSA,A,3,,,,,,,,,,,,,,,,,,,,,1.171,0.687,0.948*24
 
$GPGSV,6,1,23,2,26,63,29,4,5,,,6,7,27,17,12,32,75,32*45
 
$GPGSV,6,2,23,14,40,260,26,24,8,137,18,25,74,46,34,26,10,270,25*79
 
$GPGSV,6,3,23,29,63,185,31,31,47,303,32,32,31,229,28*4D
 
$GLGSV,6,4,23,68,16,290,31,69,12,339,28,76,30,109,30,77,74,20,27*54
 
$GLGSV,6,5,23,78,26,309,21,86,38,39,34,87,64,146,30,88,21,187,21*5E
 
$BDGSV,6,6,23,205,10,109,,211,5,,,212,9,205,,213,12,35,*6A
 
$GPRMC,183409.00,A,4825.0153,N,00428.2436,W,2.777,340.106,260217,,E,A*0A
 
$GPGGA,183410.00,4825.0162,N,00428.2441,W,1,15,0.687,153.661,M,,M,0,*57
 
$GNGSA,A,3,2,6,12,14,24,25,26,29,31,32,68,69,76,77,78,,,,,,1.171,0.687,0.948*26
 
$GPGSA,A,3,2,6,12,14,24,25,26,29,31,32,,,,,,,,,,,1.171,0.687,0.948*37
 
$GLGSA,A,3,68,69,76,77,78,,,,,,,,,,,,,,,,1.171,0.687,0.948*2B
 
$BDGSA,A,3,,,,,,,,,,,,,,,,,,,,,1.171,0.687,0.948*29
 
$QZGSA,A,3,,,,,,,,,,,,,,,,,,,,,1.171,0.687,0.948*24
 
$GPGSV,6,1,23,2,26,63,28,4,5,,,6,7,27,15,12,32,75,31*45
 
$GPGSV,6,2,23,14,40,260,30,24,8,137,16,25,74,46,32,26,10,270,27*74
 
$GPGSV,6,3,23,29,63,185,28,31,47,303,32,32,31,229,30*4C
 
$GLGSV,6,4,23,68,16,290,31,69,12,339,29,76,30,109,30,77,74,20,28*5A
 
$GLGSV,6,5,23,78,26,309,20,86,38,39,31,87,64,146,28,88,21,187,22*50
 
$BDGSV,6,6,23,205,10,109,,211,5,,,212,9,205,,213,12,35,*6A
 
$GPRMC,183410.00,A,4825.0162,N,00428.2441,W,3.061,340.845,260217,,E,A*0F
 
$GPGGA,183411.00,4825.0170,N,00428.2447,W,1,15,0.687,152.687,M,,M,0,*5A
 
$GNGSA,A,3,2,6,12,14,24,25,26,29,31,32,68,69,76,77,78,,,,,,1.171,0.687,0.948*26
 
$GPGSA,A,3,2,6,12,14,24,25,26,29,31,32,,,,,,,,,,,1.171,0.687,0.948*37
 
$GLGSA,A,3,68,69,76,77,78,,,,,,,,,,,,,,,,1.171,0.687,0.948*2B
 
$BDGSA,A,3,,,,,,,,,,,,,,,,,,,,,1.171,0.687,0.948*29
 
$QZGSA,A,3,,,,,,,,,,,,,,,,,,,,,1.171,0.687,0.948*24
 
$GPGSV,6,1,23,2,26,63,29,4,5,,,6,7,27,16,12,32,75,31*47
 
$GPGSV,6,2,23,14,40,260,28,24,8,137,19,25,74,46,33,26,10,270,26*72
 
$GPGSV,6,3,23,29,63,185,28,31,47,303,33,32,31,229,31*4C
 
$GLGSV,6,4,23,68,16,290,30,69,12,339,29,76,30,109,30,77,74,20,28*5B
 
$GLGSV,6,5,23,78,26,309,24,86,38,39,33,87,64,146,31,88,21,187,20*5C
 
$BDGSV,6,6,23,205,10,109,,211,5,,,212,9,205,,213,12,35,*6A
 
$GPRMC,183411.00,A,4825.0170,N,00428.2447,W,2.941,343.139,260217,,E,A*00
 
$GPGGA,183412.00,4825.0177,N,00428.2452,W,1,15,0.686,151.903,M,,M,0,*5B
 
$GNGSA,A,3,2,6,12,14,24,25,26,29,31,32,68,69,76,77,78,,,,,,1.171,0.686,0.948*27
 
$GPGSA,A,3,2,6,12,14,24,25,26,29,31,32,,,,,,,,,,,1.171,0.686,0.948*36
 
$GLGSA,A,3,68,69,76,77,78,,,,,,,,,,,,,,,,1.171,0.686,0.948*2A
 
$BDGSA,A,3,,,,,,,,,,,,,,,,,,,,,1.171,0.686,0.948*28
 
$QZGSA,A,3,,,,,,,,,,,,,,,,,,,,,1.171,0.686,0.948*25
 
$GPGSV,6,1,23,2,26,63,27,4,5,,,6,7,27,15,12,32,75,31*4A
 
$GPGSV,6,2,23,14,40,260,30,24,8,137,17,25,74,46,33,26,10,270,25*76
 
$GPGSV,6,3,23,29,63,185,27,31,47,303,32,32,31,229,28*4A
 
$GLGSV,6,4,23,68,16,290,31,69,12,339,29,76,30,109,30,77,75,20,27*54
 
$GLGSV,6,5,23,78,26,309,24,86,38,39,30,87,64,146,31,88,21,187,20*5F
 
$BDGSV,6,6,23,205,10,109,,211,5,,,212,9,205,,213,12,35,*6A
 
$GPRMC,183412.00,A,4825.0177,N,00428.2452,W,2.812,346.902,260217,,E,A*02
 
$GPGGA,183413.00,4825.0186,N,00428.2455,W,1,15,0.686,151.154,M,,M,0,*59
 
$GNGSA,A,3,2,6,12,14,24,25,26,29,31,32,68,69,76,77,78,,,,,,1.171,0.686,0.948*27
 
$GPGSA,A,3,2,6,12,14,24,25,26,29,31,32,,,,,,,,,,,1.171,0.686,0.948*36
 
$GLGSA,A,3,68,69,76,77,78,,,,,,,,,,,,,,,,1.171,0.686,0.948*2A
 
$BDGSA,A,3,,,,,,,,,,,,,,,,,,,,,1.171,0.686,0.948*28
 
$QZGSA,A,3,,,,,,,,,,,,,,,,,,,,,1.171,0.686,0.948*25
 
$GPGSV,6,1,23,2,26,63,26,4,5,,,6,7,27,14,12,32,75,29*43
 
$GPGSV,6,2,23,14,40,260,31,24,8,137,17,25,74,46,33,26,10,270,25*77
 
$GPGSV,6,3,23,29,63,185,28,31,47,303,35,32,31,229,27*4D
 
$GLGSV,6,4,23,68,16,290,32,69,12,339,27,76,30,109,28,77,75,20,28*5F
 
$GLGSV,6,5,23,78,26,309,26,86,38,39,30,87,64,146,31,88,21,187,19*57
 
$BDGSV,6,6,23,205,10,109,,211,5,,,212,9,205,,213,12,35,*6A
 
$GPRMC,183413.00,A,4825.0186,N,00428.2455,W,2.699,354.562,260217,,E,A*0E
 
$GPGGA,183414.00,4825.0194,N,00428.2458,W,1,15,0.686,150.518,M,,M,0,*5D
 
$GNGSA,A,3,2,6,12,14,24,25,26,29,31,32,68,69,76,77,78,,,,,,1.170,0.686,0.948*26
 
$GPGSA,A,3,2,6,12,14,24,25,26,29,31,32,,,,,,,,,,,1.170,0.686,0.948*37
 
$GLGSA,A,3,68,69,76,77,78,,,,,,,,,,,,,,,,1.170,0.686,0.948*2B
 
$BDGSA,A,3,,,,,,,,,,,,,,,,,,,,,1.170,0.686,0.948*29
 
$QZGSA,A,3,,,,,,,,,,,,,,,,,,,,,1.170,0.686,0.948*24
 
$GPGSV,6,1,23,2,26,63,27,4,5,,,6,7,27,14,12,32,75,30*4A
 
$GPGSV,6,2,23,14,40,260,29,24,8,137,17,25,74,46,33,26,10,270,22*79
 
$GPGSV,6,3,23,29,63,185,29,31,47,303,35,32,31,229,29*42
 
$GLGSV,6,4,23,68,16,290,29,69,12,339,25,76,30,109,26,77,75,20,27*56
 
$GLGSV,6,5,23,78,26,309,27,86,38,39,33,87,64,146,31,88,21,187,20*5F
 
$BDGSV,6,6,23,205,10,109,,211,5,,,212,9,205,,213,12,35,*6A
 
$GPRMC,183414.00,A,4825.0194,N,00428.2458,W,2.849,355.814,260217,,E,A*09
 
$GPGGA,183415.00,4825.0203,N,00428.2461,W,1,15,0.686,149.933,M,,M,0,*56
 
$GNGSA,A,3,2,6,12,14,24,25,26,29,31,32,68,69,76,77,78,,,,,,1.170,0.686,0.948*26
 
$GPGSA,A,3,2,6,12,14,24,25,26,29,31,32,,,,,,,,,,,1.170,0.686,0.948*37
 
$GLGSA,A,3,68,69,76,77,78,,,,,,,,,,,,,,,,1.170,0.686,0.948*2B
 
$BDGSA,A,3,,,,,,,,,,,,,,,,,,,,,1.170,0.686,0.948*29
 
$QZGSA,A,3,,,,,,,,,,,,,,,,,,,,,1.170,0.686,0.948*24
 
$GPGSV,6,1,23,2,26,63,29,4,5,,,6,7,27,17,12,32,75,31*46
 
$GPGSV,6,2,23,14,40,260,28,24,8,137,18,25,74,46,33,26,10,270,18*7E
 
$GPGSV,6,3,23,29,63,185,29,31,47,303,34,32,31,229,29*43
 
$GLGSV,6,4,23,68,16,290,27,69,12,339,23,76,30,109,28,77,75,20,28*5F
 
$GLGSV,6,5,23,78,26,309,27,86,38,39,35,87,64,146,31,88,21,187,18*52
 
$BDGSV,6,6,23,205,10,109,,211,5,,,212,9,205,,213,12,35,*6A
 
$GPRMC,183415.00,A,4825.0203,N,00428.2461,W,2.913,355.839,260217,,E,A*0E
 
$GPGGA,183416.00,4825.0213,N,00428.2464,W,1,15,0.686,149.669,M,,M,0,*51
 
$GNGSA,A,3,2,6,12,14,24,25,26,29,31,32,68,69,76,77,78,,,,,,1.170,0.686,0.948*26
 
$GPGSA,A,3,2,6,12,14,24,25,26,29,31,32,,,,,,,,,,,1.170,0.686,0.948*37
 
$GLGSA,A,3,68,69,76,77,78,,,,,,,,,,,,,,,,1.170,0.686,0.948*2B
 
$BDGSA,A,3,,,,,,,,,,,,,,,,,,,,,1.170,0.686,0.948*29
 
$QZGSA,A,3,,,,,,,,,,,,,,,,,,,,,1.170,0.686,0.948*24
 
$GPGSV,6,1,23,2,26,63,31,4,5,,,6,7,27,17,12,32,75,32*4C
 
$GPGSV,6,2,23,14,40,260,26,24,8,137,17,25,74,46,34,26,10,270,20*73
 
$GPGSV,6,3,23,29,63,185,30,31,47,303,35,32,31,229,29*4A
 
$GLGSV,6,4,23,68,15,290,30,69,12,339,23,76,30,109,31,77,75,20,27*5D
 
$GLGSV,6,5,23,78,26,309,23,86,38,39,35,87,64,146,31,88,21,187,22*5F
 
$BDGSV,6,6,23,205,10,109,,211,5,,,212,9,205,,213,12,35,*6A
 
$GPRMC,183416.00,A,4825.0213,N,00428.2464,W,3.154,357.570,260217,,E,A*01
 
$GPGGA,183417.00,4825.0224,N,00428.2466,W,1,15,0.686,149.383,M,,M,0,*57
 
$GNGSA,A,3,2,6,12,14,24,25,26,29,31,32,68,69,76,77,78,,,,,,1.170,0.686,0.948*26
 
$GPGSA,A,3,2,6,12,14,24,25,26,29,31,32,,,,,,,,,,,1.170,0.686,0.948*37
 
$GLGSA,A,3,68,69,76,77,78,,,,,,,,,,,,,,,,1.170,0.686,0.948*2B
 
$BDGSA,A,3,,,,,,,,,,,,,,,,,,,,,1.170,0.686,0.948*29
 
$QZGSA,A,3,,,,,,,,,,,,,,,,,,,,,1.170,0.686,0.948*24
 
$GPGSV,6,1,23,2,26,63,33,4,5,,,6,7,27,19,12,32,75,32*40
 
$GPGSV,6,2,23,14,40,260,28,24,8,137,18,25,74,46,34,26,10,270,22*70
 
$GPGSV,6,3,23,29,63,185,30,31,47,303,33,32,31,229,24*41
 
$GLGSV,6,4,23,68,15,290,26,69,12,339,21,76,30,109,30,77,75,20,27*59
 
$GLGSV,6,5,23,78,26,309,24,86,38,39,33,87,64,145,32,88,21,187,18*57
 
$BDGSV,6,6,23,205,10,109,,211,5,,,212,9,205,,213,12,35,23*6B
 
$GPRMC,183417.00,A,4825.0224,N,00428.2466,W,3.111,5.988,260217,,E,A*08
 
$GPGGA,183418.00,4825.0232,N,00428.2467,W,1,15,0.686,149.210,M,,M,0,*55
 
$GNGSA,A,3,2,6,12,14,24,25,26,29,31,32,68,69,76,77,78,,,,,,1.170,0.686,0.948*26
 
$GPGSA,A,3,2,6,12,14,24,25,26,29,31,32,,,,,,,,,,,1.170,0.686,0.948*37
 
$GLGSA,A,3,68,69,76,77,78,,,,,,,,,,,,,,,,1.170,0.686,0.948*2B
 
$BDGSA,A,3,,,,,,,,,,,,,,,,,,,,,1.170,0.686,0.948*29
 
$QZGSA,A,3,,,,,,,,,,,,,,,,,,,,,1.170,0.686,0.948*24
 
$GPGSV,6,1,23,2,26,63,33,4,5,,,6,7,27,19,12,32,75,32*40
 
$GPGSV,6,2,23,14,40,260,28,24,8,137,19,25,74,46,34,26,10,270,21*72
 
$GPGSV,6,3,23,29,63,185,31,31,47,303,33,32,31,229,25*41
 
$GLGSV,6,4,23,68,15,290,27,69,12,339,20,76,30,109,31,77,75,20,28*57
 
$GLGSV,6,5,23,78,26,309,24,86,38,39,33,87,64,145,31,88,21,187,21*5E
 
$BDGSV,6,6,23,205,10,109,,211,5,,,212,9,205,,213,12,35,26*6E
 
$GPRMC,183418.00,A,4825.0232,N,00428.2467,W,2.875,14.346,260217,,E,A*33
 
$GPGGA,183419.00,4825.0243,N,00428.2465,W,1,15,0.686,149.204,M,,M,0,*55
 
$GNGSA,A,3,2,6,12,14,24,25,26,29,31,32,68,69,76,77,78,,,,,,1.170,0.686,0.948*26
 
$GPGSA,A,3,2,6,12,14,24,25,26,29,31,32,,,,,,,,,,,1.170,0.686,0.948*37
 
$GLGSA,A,3,68,69,76,77,78,,,,,,,,,,,,,,,,1.170,0.686,0.948*2B
 
$BDGSA,A,3,,,,,,,,,,,,,,,,,,,,,1.170,0.686,0.948*29
 
$QZGSA,A,3,,,,,,,,,,,,,,,,,,,,,1.170,0.686,0.948*24
 
$GPGSV,6,1,23,2,26,63,33,4,5,,,6,7,27,18,12,32,75,34*47
 
$GPGSV,6,2,23,14,40,260,24,24,8,137,19,25,74,47,34,26,10,270,23*7D
 
$GPGSV,6,3,23,29,63,185,29,31,47,303,33,32,31,229,24*49
 
$GLGSV,6,4,23,68,15,290,25,69,12,339,20,76,30,109,30,77,75,20,27*5B
 
$GLGSV,6,5,23,78,26,309,23,86,38,39,33,87,64,145,33,88,21,187,22*58
 
$BDGSV,6,6,23,205,10,109,,211,5,,,212,9,205,,213,12,35,29*61
 
$GPRMC,183419.00,A,4825.0243,N,00428.2465,W,2.886,16.389,260217,,E,A*3B
 
$GPGGA,183420.00,4825.0251,N,00428.2464,W,1,15,0.686,149.018,M,,M,0,*52
 
$GNGSA,A,3,2,6,12,14,24,25,26,29,31,32,68,69,76,77,78,,,,,,1.170,0.686,0.948*26
 
$GPGSA,A,3,2,6,12,14,24,25,26,29,31,32,,,,,,,,,,,1.170,0.686,0.948*37
 
$GLGSA,A,3,68,69,76,77,78,,,,,,,,,,,,,,,,1.170,0.686,0.948*2B
 
$BDGSA,A,3,,,,,,,,,,,,,,,,,,,,,1.170,0.686,0.948*29
 
$QZGSA,A,3,,,,,,,,,,,,,,,,,,,,,1.170,0.686,0.948*24
 
$GPGSV,6,1,23,2,26,63,30,4,5,,,6,7,27,17,12,32,75,34*4B
 
$GPGSV,6,2,23,14,40,260,26,24,8,137,18,25,74,47,34,26,10,270,18*76
 
$GPGSV,6,3,23,29,63,185,30,31,47,303,32,32,31,229,24*40
 
$GLGSV,6,4,23,68,15,290,21,69,12,339,17,76,30,109,28,77,75,20,27*52
 
$GLGSV,6,5,23,78,26,309,21,86,38,39,33,87,64,145,33,88,21,187,24*5C
 
$BDGSV,6,6,23,205,10,109,,211,5,,,212,9,205,,213,12,35,30*69
 
$GPRMC,183420.00,A,4825.0251,N,00428.2464,W,2.666,17.256,260217,,E,A*31
 
$GPGGA,183421.00,4825.0262,N,00428.2461,W,1,15,0.686,148.619,M,,M,0,*50
 
$GNGSA,A,3,2,6,12,14,24,25,26,29,31,32,68,69,76,77,78,,,,,,1.170,0.686,0.948*26
 
$GPGSA,A,3,2,6,12,14,24,25,26,29,31,32,,,,,,,,,,,1.170,0.686,0.948*37
 
$GLGSA,A,3,68,69,76,77,78,,,,,,,,,,,,,,,,1.170,0.686,0.948*2B
 
$BDGSA,A,3,,,,,,,,,,,,,,,,,,,,,1.170,0.686,0.948*29
 
$QZGSA,A,3,,,,,,,,,,,,,,,,,,,,,1.170,0.686,0.948*24
 
$GPGSV,6,1,23,2,26,63,31,4,5,,,6,7,27,16,12,32,75,33*4C
 
$GPGSV,6,2,23,14,40,260,29,24,8,137,19,25,74,47,33,26,10,270,18*7F
 
$GPGSV,6,3,23,29,63,185,30,31,47,303,30,32,31,229,24*42
 
$GLGSV,6,4,23,68,15,290,20,69,12,339,19,76,30,109,30,77,75,20,27*54
 
$GLGSV,6,5,23,78,26,309,19,86,38,39,33,87,64,145,36,88,21,187,23*55
 
$BDGSV,6,6,23,205,10,109,,211,5,,,212,9,205,,213,12,35,26*6E
 
$GPRMC,183421.00,A,4825.0262,N,00428.2461,W,2.742,24.806,260217,,E,A*3D
 
$GPGGA,183422.00,4825.0272,N,00428.2456,W,1,15,0.686,148.589,M,,M,0,*5C
 
$GNGSA,A,3,2,6,12,14,24,25,26,29,31,32,68,69,76,77,78,,,,,,1.170,0.686,0.947*29
 
$GPGSA,A,3,2,6,12,14,24,25,26,29,31,32,,,,,,,,,,,1.170,0.686,0.947*38
 
$GLGSA,A,3,68,69,76,77,78,,,,,,,,,,,,,,,,1.170,0.686,0.947*24
 
$BDGSA,A,3,,,,,,,,,,,,,,,,,,,,,1.170,0.686,0.947*26
 
$QZGSA,A,3,,,,,,,,,,,,,,,,,,,,,1.170,0.686,0.947*2B
 
$GPGSV,6,1,23,2,26,63,29,4,5,,,6,7,27,13,12,32,75,32*41
 
$GPGSV,6,2,23,14,40,260,23,24,8,137,18,25,74,47,34,26,10,270,19*72
 
$GPGSV,6,3,23,29,63,185,32,31,47,303,29,32,31,229,23*4F
 
$GLGSV,6,4,23,68,15,290,18,69,12,339,17,76,30,109,34,77,75,20,26*54
 
$GLGSV,6,5,23,78,26,309,17,86,38,39,31,87,64,145,37,88,21,187,25*5E
 
$BDGSV,6,6,23,205,10,109,,211,5,,,212,10,205,,213,12,35,29*59
 
$GPRMC,183422.00,A,4825.0272,N,00428.2456,W,2.732,40.893,260217,,E,A*32
 
$GPGGA,183423.00,4825.0278,N,00428.2446,W,1,15,0.686,147.975,M,,M,0,*56
 
$GNGSA,A,3,2,6,12,14,24,25,26,29,31,32,68,69,76,77,78,,,,,,1.170,0.686,0.947*29
 
$GPGSA,A,3,2,6,12,14,24,25,26,29,31,32,,,,,,,,,,,1.170,0.686,0.947*38
 
$GLGSA,A,3,68,69,76,77,78,,,,,,,,,,,,,,,,1.170,0.686,0.947*24
 
$BDGSA,A,3,,,,,,,,,,,,,,,,,,,,,1.170,0.686,0.947*26
 
$QZGSA,A,3,,,,,,,,,,,,,,,,,,,,,1.170,0.686,0.947*2B
 
$GPGSV,6,1,23,2,26,63,28,4,5,,,6,7,27,11,12,32,75,29*48
 
$GPGSV,6,2,23,14,40,260,23,24,8,137,18,25,74,47,33,26,10,270,18*74
 
$GPGSV,6,3,23,29,63,185,34,31,47,303,27,32,31,229,27*43
 
$GLGSV,6,4,23,68,15,290,19,69,12,339,15,76,30,109,33,77,75,20,28*5E
 
$GLGSV,6,5,23,78,26,309,19,86,38,39,29,87,64,145,37,88,21,187,28*54
 
$BDGSV,6,6,23,205,10,109,,211,5,,,212,10,205,,213,12,35,29*59
 
$GPRMC,183423.00,A,4825.0278,N,00428.2446,W,2.986,55.271,260217,,E,A*3B
 
$GPGGA,183424.00,4825.0282,N,00428.2436,W,1,15,0.686,147.271,M,,M,0,*5C
 
$GNGSA,A,3,2,6,12,14,24,25,26,29,31,32,68,69,76,77,78,,,,,,1.170,0.686,0.947*29
 
$GPGSA,A,3,2,6,12,14,24,25,26,29,31,32,,,,,,,,,,,1.170,0.686,0.947*38
 
$GLGSA,A,3,68,69,76,77,78,,,,,,,,,,,,,,,,1.170,0.686,0.947*24
 
$BDGSA,A,3,,,,,,,,,,,,,,,,,,,,,1.170,0.686,0.947*26
 
$QZGSA,A,3,,,,,,,,,,,,,,,,,,,,,1.170,0.686,0.947*2B
 
$GPGSV,6,1,23,2,26,63,27,4,5,,,6,7,27,11,12,32,75,30*4F
 
$GPGSV,6,2,23,14,40,260,23,24,8,137,18,25,74,47,33,26,10,270,16*7A
 
$GPGSV,6,3,23,29,63,185,33,31,47,303,27,32,31,229,28*4B
 
$GLGSV,6,4,23,68,15,290,15,69,12,339,12,76,30,109,33,77,75,20,28*55
 
$GLGSV,6,5,23,78,26,309,17,86,38,39,35,87,64,145,32,88,21,187,27*5D
 
$BDGSV,6,6,23,205,10,109,,211,5,,,212,10,205,,213,12,35,28*58
 
$GPRMC,183424.00,A,4825.0282,N,00428.2436,W,3.127,58.811,260217,,E,A*3D
 
$GPGGA,183425.00,4825.0284,N,00428.2425,W,1,15,0.686,146.244,M,,M,0,*5E
 
$GNGSA,A,3,2,6,12,14,24,25,26,29,31,32,68,69,76,77,78,,,,,,1.170,0.686,0.947*29
 
$GPGSA,A,3,2,6,12,14,24,25,26,29,31,32,,,,,,,,,,,1.170,0.686,0.947*38
 
$GLGSA,A,3,68,69,76,77,78,,,,,,,,,,,,,,,,1.170,0.686,0.947*24
 
$BDGSA,A,3,,,,,,,,,,,,,,,,,,,,,1.170,0.686,0.947*26
 
$QZGSA,A,3,,,,,,,,,,,,,,,,,,,,,1.170,0.686,0.947*2B
 
$GPGSV,6,1,23,2,26,63,29,4,5,,,6,7,27,12,12,32,75,30*42
 
$GPGSV,6,2,23,14,40,260,21,24,8,137,18,25,74,47,35,26,10,270,15*7D
 
$GPGSV,6,3,23,29,63,185,34,31,47,303,30,32,31,229,26*44
 
$GLGSV,6,4,23,68,15,290,14,69,12,339,12,76,30,109,36,77,75,20,27*5E
 
$GLGSV,6,5,23,78,26,309,15,86,38,39,30,87,64,145,34,88,21,187,26*5D
 
$BDGSV,6,6,23,205,10,109,,211,5,,,212,10,205,,213,12,35,24*54
 
$GPRMC,183425.00,A,4825.0284,N,00428.2425,W,2.519,56.012,260217,,E,A*35
 
$GPGGA,183426.00,4825.0292,N,00428.2419,W,1,15,0.686,145.747,M,,M,0,*50
 
$GNGSA,A,3,2,6,12,14,24,25,26,29,31,32,68,69,76,77,78,,,,,,1.170,0.686,0.947*29
 
$GPGSA,A,3,2,6,12,14,24,25,26,29,31,32,,,,,,,,,,,1.170,0.686,0.947*38
 
$GLGSA,A,3,68,69,76,77,78,,,,,,,,,,,,,,,,1.170,0.686,0.947*24
 
$BDGSA,A,3,,,,,,,,,,,,,,,,,,,,,1.170,0.686,0.947*26
 
$QZGSA,A,3,,,,,,,,,,,,,,,,,,,,,1.170,0.686,0.947*2B
 
$GPGSV,6,1,23,2,26,63,34,4,5,,,6,7,27,12,12,32,75,32*4C
 
$GPGSV,6,2,23,14,40,260,24,24,8,137,18,25,74,47,33,26,10,270,15*7E
 
$GPGSV,6,3,23,29,63,185,30,31,47,303,31,32,31,229,25*42
 
$GLGSV,6,4,23,68,15,290,22,69,12,339,11,76,30,109,35,77,75,20,26*5A
 
$GLGSV,6,5,23,78,26,309,15,86,38,39,35,87,64,145,34,88,21,187,23*5D
 
$BDGSV,6,6,23,205,10,109,,211,5,,,212,10,205,,213,12,35,21*51
 
$GPRMC,183426.00,A,4825.0292,N,00428.2419,W,2.748,11.738,260217,,E,A*34
 
$GPGGA,183427.00,4825.0299,N,00428.2414,W,1,15,0.686,145.692,M,,M,0,*5E
 
$GNGSA,A,3,2,6,12,14,24,25,26,29,31,32,68,69,76,77,78,,,,,,1.170,0.686,0.947*29
 
$GPGSA,A,3,2,6,12,14,24,25,26,29,31,32,,,,,,,,,,,1.170,0.686,0.947*38
 
$GLGSA,A,3,68,69,76,77,78,,,,,,,,,,,,,,,,1.170,0.686,0.947*24
 
$BDGSA,A,3,,,,,,,,,,,,,,,,,,,,,1.170,0.686,0.947*26
 
$QZGSA,A,3,,,,,,,,,,,,,,,,,,,,,1.170,0.686,0.947*2B
 
$GPGSV,6,1,23,2,26,63,30,4,5,,20,6,7,27,12,12,32,75,34*4C
 
$GPGSV,6,2,23,14,40,260,26,24,8,137,17,25,74,47,35,26,10,270,15*75
 
$GPGSV,6,3,23,29,63,185,27,31,47,303,35,32,31,229,24*41
 
$GLGSV,6,4,23,68,15,290,26,69,12,339,15,76,30,109,35,77,75,20,27*5B
 
$GLGSV,6,5,23,78,26,309,22,86,38,39,38,87,64,145,30,88,21,187,24*57
 
$BDGSV,6,6,23,205,10,109,23,211,5,,,212,10,205,,213,12,35,24*55
 
$GPRMC,183427.00,A,4825.0299,N,00428.2414,W,3.223,348.937,260217,,E,A*04
 
$GPGGA,183428.00,4825.0308,N,00428.2419,W,1,15,0.686,145.327,M,,M,0,*5E
 
$GNGSA,A,3,2,6,12,14,24,25,26,29,31,32,68,69,76,77,78,,,,,,1.169,0.686,0.947*21
 
$GPGSA,A,3,2,6,12,14,24,25,26,29,31,32,,,,,,,,,,,1.169,0.686,0.947*30
 
$GLGSA,A,3,68,69,76,77,78,,,,,,,,,,,,,,,,1.169,0.686,0.947*2C
 
$BDGSA,A,3,,,,,,,,,,,,,,,,,,,,,1.169,0.686,0.947*2E
 
$QZGSA,A,3,,,,,,,,,,,,,,,,,,,,,1.169,0.686,0.947*23
 
$GPGSV,6,1,23,2,26,63,25,4,5,,25,6,7,27,12,12,32,75,32*4B
 
$GPGSV,6,2,23,14,40,260,29,24,8,137,16,25,74,47,32,26,10,270,15*7C
 
$GPGSV,6,3,23,29,63,185,28,31,47,303,34,32,31,229,26*4D
 
$GLGSV,6,4,23,68,15,290,26,69,12,339,24,76,30,109,29,77,75,20,27*54
 
$GLGSV,6,5,23,78,26,309,22,86,38,39,33,87,64,145,27,88,21,187,20*5E
 
$BDGSV,6,6,23,205,10,109,23,211,5,,,212,10,205,,213,12,35,21*50
 
$GPRMC,183428.00,A,4825.0308,N,00428.2419,W,3.002,331.795,260217,,E,A*06
 
$GPGGA,183429.00,4825.0316,N,00428.2428,W,1,15,0.686,144.855,M,,M,0,*5D
 
$GNGSA,A,3,2,6,12,14,24,25,26,29,31,32,68,69,76,77,78,,,,,,1.169,0.686,0.947*21
 
$GPGSA,A,3,2,6,12,14,24,25,26,29,31,32,,,,,,,,,,,1.169,0.686,0.947*30
 
$GLGSA,A,3,68,69,76,77,78,,,,,,,,,,,,,,,,1.169,0.686,0.947*2C
 
$BDGSA,A,3,,,,,,,,,,,,,,,,,,,,,1.169,0.686,0.947*2E
 
$QZGSA,A,3,,,,,,,,,,,,,,,,,,,,,1.169,0.686,0.947*23
 
$GPGSV,6,1,23,2,26,63,20,4,5,,29,6,7,27,12,12,32,75,32*42
 
$GPGSV,6,2,23,14,40,260,30,24,8,137,16,25,74,47,32,26,10,270,15*74
 
$GPGSV,6,3,23,29,63,185,29,31,47,303,35,32,31,229,25*4E
 
$GLGSV,6,4,23,68,15,290,24,69,12,339,21,76,30,109,30,77,75,20,29*55
 
$GLGSV,6,5,23,78,26,309,20,86,38,39,33,87,64,145,28,88,22,187,25*55
 
$BDGSV,6,6,23,205,10,109,16,211,5,,,212,10,205,,213,12,35,19*5D
 
$GPRMC,183429.00,A,4825.0316,N,00428.2428,W,2.922,319.640,260217,,E,A*03
 
$GPGGA,183430.00,4825.0322,N,00428.2436,W,1,15,0.686,144.851,M,,M,0,*59
 
$GNGSA,A,3,2,6,12,14,24,25,26,29,31,32,68,69,76,77,78,,,,,,1.169,0.686,0.947*21
 
$GPGSA,A,3,2,6,12,14,24,25,26,29,31,32,,,,,,,,,,,1.169,0.686,0.947*30
 
$GLGSA,A,3,68,69,76,77,78,,,,,,,,,,,,,,,,1.169,0.686,0.947*2C
 
$BDGSA,A,3,,,,,,,,,,,,,,,,,,,,,1.169,0.686,0.947*2E
 
$QZGSA,A,3,,,,,,,,,,,,,,,,,,,,,1.169,0.686,0.947*23
 
$GPGSV,6,1,23,2,26,63,20,4,5,,29,6,7,27,13,12,32,75,31*40
 
$GPGSV,6,2,23,14,40,260,29,24,8,137,16,25,74,47,35,26,10,270,14*7A
 
$GPGSV,6,3,23,29,63,185,29,31,47,303,36,32,31,229,25*4D
 
$GLGSV,6,4,23,68,15,290,22,69,12,339,23,76,30,109,29,77,75,20,28*58
 
$GLGSV,6,5,23,78,26,309,19,86,38,39,31,87,64,145,29,88,22,187,22*5B
 
$BDGSV,6,6,23,205,10,109,16,211,5,,,212,10,205,,213,12,35,21*56
 
$GPRMC,183430.00,A,4825.0322,N,00428.2436,W,2.641,318.720,260217,,E,A*0F
 
$GPGGA,183431.00,4825.0329,N,00428.2443,W,1,15,0.686,144.549,M,,M,0,*55
 
$GNGSA,A,3,2,6,12,14,24,25,26,29,31,32,68,69,76,77,78,,,,,,1.169,0.686,0.947*21
 
$GPGSA,A,3,2,6,12,14,24,25,26,29,31,32,,,,,,,,,,,1.169,0.686,0.947*30
 
$GLGSA,A,3,68,69,76,77,78,,,,,,,,,,,,,,,,1.169,0.686,0.947*2C
 
$BDGSA,A,3,,,,,,,,,,,,,,,,,,,,,1.169,0.686,0.947*2E
 
$QZGSA,A,3,,,,,,,,,,,,,,,,,,,,,1.169,0.686,0.947*23
 
$GPGSV,6,1,23,2,26,63,23,4,5,,25,6,7,27,12,12,32,75,28*46
 
$GPGSV,6,2,23,14,40,260,29,24,8,137,16,25,74,47,33,26,10,270,15*7D
 
$GPGSV,6,3,23,29,63,185,30,31,47,303,31,32,31,229,24*43
 
$GLGSV,6,4,23,68,15,290,20,69,12,339,21,76,30,109,30,77,75,20,25*5D
 
$GLGSV,6,5,23,78,26,309,18,86,38,39,31,87,64,145,30,88,22,187,25*55
 
$BDGSV,6,6,23,205,10,109,18,211,5,,,212,10,205,,213,12,35,21*58
 
$GPRMC,183431.00,A,4825.0329,N,00428.2443,W,2.422,318.320,260217,,E,A*04
 
$GPGGA,183432.00,4825.0337,N,00428.2449,W,1,15,0.686,144.625,M,,M,0,*5A
 
$GNGSA,A,3,2,6,12,14,24,25,26,29,31,32,68,69,76,77,78,,,,,,1.169,0.686,0.947*21
 
$GPGSA,A,3,2,6,12,14,24,25,26,29,31,32,,,,,,,,,,,1.169,0.686,0.947*30
 
$GLGSA,A,3,68,69,76,77,78,,,,,,,,,,,,,,,,1.169,0.686,0.947*2C
 
$BDGSA,A,3,,,,,,,,,,,,,,,,,,,,,1.169,0.686,0.947*2E
 
$QZGSA,A,3,,,,,,,,,,,,,,,,,,,,,1.169,0.686,0.947*23
 
$GPGSV,6,1,23,2,26,62,24,4,5,,23,6,7,27,13,12,32,75,31*4F
 
$GPGSV,6,2,23,14,40,260,28,24,8,137,15,25,74,47,32,26,10,270,15*7E
 
$GPGSV,6,3,23,29,63,185,28,31,47,303,27,32,31,229,26*4F
 
$GLGSV,6,4,23,68,15,290,23,69,12,339,18,76,30,109,33,77,75,21,27*54
 
$GLGSV,6,5,23,78,26,309,19,86,38,39,33,87,64,145,29,88,22,187,21*5A
 
$BDGSV,6,6,23,205,10,109,18,211,5,,,212,10,205,,213,12,35,19*53
 
$GPRMC,183432.00,A,4825.0337,N,00428.2449,W,2.461,333.123,260217,,E,A*0D
 
$GPGGA,183433.00,4825.0348,N,00428.2451,W,1,15,0.686,144.514,M,,M,0,*5B
 
$GNGSA,A,3,2,6,12,14,24,25,26,29,31,32,68,69,76,77,78,,,,,,1.169,0.686,0.947*21
 
$GPGSA,A,3,2,6,12,14,24,25,26,29,31,32,,,,,,,,,,,1.169,0.686,0.947*30
 
$GLGSA,A,3,68,69,76,77,78,,,,,,,,,,,,,,,,1.169,0.686,0.947*2C
 
$BDGSA,A,3,,,,,,,,,,,,,,,,,,,,,1.169,0.686,0.947*2E
 
$QZGSA,A,3,,,,,,,,,,,,,,,,,,,,,1.169,0.686,0.947*23
 
$GPGSV,6,1,23,2,26,62,28,4,5,,24,6,7,27,22,12,32,75,32*45
 
$GPGSV,6,2,23,14,40,260,27,24,8,137,15,25,74,47,37,26,10,270,15*74
 
$GPGSV,6,3,23,29,63,185,32,31,47,303,25,32,31,229,27*47
 
$GLGSV,6,4,23,68,15,289,19,69,12,339,18,76,30,109,32,77,75,21,28*5B
 
$GLGSV,6,5,23,78,26,309,17,86,38,39,34,87,64,145,30,88,22,187,21*5B
 
$BDGSV,6,6,23,205,10,109,17,211,5,,,212,10,205,,213,12,35,18*5D
 
$GPRMC,183433.00,A,4825.0348,N,00428.2451,W,2.874,343.541,260217,,E,A*02
 
$GPGGA,183434.00,4825.0356,N,00428.2453,W,1,15,0.686,144.129,M,,M,0,*5B
 
$GNGSA,A,3,2,6,12,14,24,25,26,29,31,32,68,69,76,77,78,,,,,,1.169,0.686,0.947*21
 
$GPGSA,A,3,2,6,12,14,24,25,26,29,31,32,,,,,,,,,,,1.169,0.686,0.947*30
 
$GLGSA,A,3,68,69,76,77,78,,,,,,,,,,,,,,,,1.169,0.686,0.947*2C
 
$BDGSA,A,3,,,,,,,,,,,,,,,,,,,,,1.169,0.686,0.947*2E
 
$QZGSA,A,3,,,,,,,,,,,,,,,,,,,,,1.169,0.686,0.947*23
 
$GPGSV,6,1,23,2,26,62,27,4,5,,21,6,7,27,21,12,32,75,29*46
 
$GPGSV,6,2,23,14,40,260,19,24,8,137,16,25,74,47,32,26,10,270,15*7F
 
$GPGSV,6,3,23,29,63,185,29,31,47,303,24,32,31,229,20*4B
 
$GLGSV,6,4,23,68,15,289,20,69,12,339,20,76,30,109,33,77,75,21,22*51
 
$GLGSV,6,5,23,78,26,309,16,86,38,39,32,87,64,145,35,88,22,187,19*52
 
$BDGSV,6,6,23,205,10,109,,211,5,,,212,10,205,,213,12,35,19*5A
 
$GPRMC,183434.00,A,4825.0356,N,00428.2453,W,2.697,343.840,260217,,E,A*07
 
$GPGGA,183435.00,4825.0363,N,00428.2451,W,1,15,0.686,144.046,M,,M,0,*56
 
$GNGSA,A,3,2,6,12,14,24,25,26,29,31,32,68,69,76,77,78,,,,,,1.169,0.686,0.947*21
 
$GPGSA,A,3,2,6,12,14,24,25,26,29,31,32,,,,,,,,,,,1.169,0.686,0.947*30
 
$GLGSA,A,3,68,69,76,77,78,,,,,,,,,,,,,,,,1.169,0.686,0.947*2C
 
$BDGSA,A,3,,,,,,,,,,,,,,,,,,,,,1.169,0.686,0.947*2E
 
$QZGSA,A,3,,,,,,,,,,,,,,,,,,,,,1.169,0.686,0.947*23
 
$GPGSV,6,1,23,2,26,62,24,4,5,,19,6,7,27,18,12,32,75,31*4D
 
$GPGSV,6,2,23,14,40,260,21,24,8,137,17,25,74,47,32,26,10,270,16*76
 
$GPGSV,6,3,23,29,63,185,27,31,47,303,26,32,31,229,23*44
 
$GLGSV,6,4,23,68,15,289,24,69,12,339,19,76,30,109,31,77,75,21,24*5B
 
$GLGSV,6,5,23,78,26,309,13,86,38,39,25,87,64,145,32,88,22,187,22*5E
 
$BDGSV,6,6,23,205,10,109,,211,5,,,212,10,205,,213,12,35,18*5B
 
$GPRMC,183435.00,A,4825.0363,N,00428.2451,W,2.466,346.359,260217,,E,A*08
 
$GPGGA,183436.00,4825.0369,N,00428.2449,W,1,15,0.686,143.577,M,,M,0,*56
 
$GNGSA,A,3,2,6,12,14,24,25,26,29,31,32,68,69,76,77,78,,,,,,1.169,0.686,0.946*20
 
$GPGSA,A,3,2,6,12,14,24,25,26,29,31,32,,,,,,,,,,,1.169,0.686,0.946*31
 
$GLGSA,A,3,68,69,76,77,78,,,,,,,,,,,,,,,,1.169,0.686,0.946*2D
 
$BDGSA,A,3,,,,,,,,,,,,,,,,,,,,,1.169,0.686,0.946*2F
 
$QZGSA,A,3,,,,,,,,,,,,,,,,,,,,,1.169,0.686,0.946*22
 
$GPGSV,6,1,23,2,26,62,20,4,5,,21,6,7,27,21,12,32,75,30*49
 
$GPGSV,6,2,23,14,40,260,24,24,8,137,17,25,74,47,34,26,10,270,14*77
 
$GPGSV,6,3,23,29,63,185,29,31,47,303,26,32,31,229,19*43
 
$GLGSV,6,4,23,68,15,289,21,69,12,339,22,76,30,109,31,77,75,21,25*57
 
$GLGSV,6,5,23,78,26,309,13,86,38,39,23,87,64,145,29,88,22,187,21*51
 
$BDGSV,6,6,23,205,10,109,,211,5,,,212,10,205,,213,12,35,18*5B
 
$GPRMC,183436.00,A,4825.0369,N,00428.2449,W,2.199,350.494,260217,,E,A*0C
 
$GPGGA,183437.00,4825.0375,N,00428.2448,W,1,15,0.686,143.331,M,,M,0,*5F
 
$GNGSA,A,3,2,6,12,14,24,25,26,29,31,32,68,69,76,77,78,,,,,,1.169,0.686,0.946*20
 
$GPGSA,A,3,2,6,12,14,24,25,26,29,31,32,,,,,,,,,,,1.169,0.686,0.946*31
 
$GLGSA,A,3,68,69,76,77,78,,,,,,,,,,,,,,,,1.169,0.686,0.946*2D
 
$BDGSA,A,3,,,,,,,,,,,,,,,,,,,,,1.169,0.686,0.946*2F
 
$QZGSA,A,3,,,,,,,,,,,,,,,,,,,,,1.169,0.686,0.946*22
 
$GPGSV,6,1,23,2,26,62,21,4,5,,25,6,7,27,24,12,32,75,23*4B
 
$GPGSV,6,2,23,14,40,260,24,24,8,137,18,25,74,47,34,26,10,270,14*78
 
$GPGSV,6,3,23,29,63,185,25,31,47,303,28,32,31,229,22*49
 
$GLGSV,6,4,23,68,15,289,21,69,12,339,20,76,30,109,33,77,75,21,27*55
 
$GLGSV,6,5,23,78,26,309,15,86,38,39,25,87,64,145,28,88,22,187,20*51
 
$BDGSV,6,6,23,205,10,109,,211,5,,,212,10,205,,213,12,35,18*5B
 
$GPRMC,183437.00,A,4825.0375,N,00428.2448,W,2.321,347.416,260217,,E,A*0C
 
$GPGGA,183438.00,4825.0381,N,00428.2447,W,1,15,0.686,142.994,M,,M,0,*50
 
$GNGSA,A,3,2,6,12,14,24,25,26,29,31,32,68,69,76,77,78,,,,,,1.169,0.686,0.946*20
 
$GPGSA,A,3,2,6,12,14,24,25,26,29,31,32,,,,,,,,,,,1.169,0.686,0.946*31
 
$GLGSA,A,3,68,69,76,77,78,,,,,,,,,,,,,,,,1.169,0.686,0.946*2D
 
$BDGSA,A,3,,,,,,,,,,,,,,,,,,,,,1.169,0.686,0.946*2F
 
$QZGSA,A,3,,,,,,,,,,,,,,,,,,,,,1.169,0.686,0.946*22
 
$GPGSV,6,1,23,2,26,62,22,4,5,,23,6,7,27,27,12,32,75,20*4E
 
$GPGSV,6,2,23,14,40,260,21,24,8,137,18,25,74,47,33,26,10,270,12*7C
 
$GPGSV,6,3,23,29,63,185,26,31,47,303,26,32,31,229,21*47
 
$GLGSV,6,4,23,68,15,289,23,69,12,339,19,76,30,109,29,77,75,21,29*58
 
$GLGSV,6,5,23,78,26,309,16,86,38,39,25,87,64,145,28,88,22,187,19*58
 
$BDGSV,6,6,23,205,10,109,,211,5,,,212,10,205,,213,12,35,23*53
 
$GPRMC,183438.00,A,4825.0381,N,00428.2447,W,2.336,347.936,260217,,E,A*0E
 
$GPGGA,183439.00,4825.0387,N,00428.2448,W,1,15,0.686,142.641,M,,M,0,*5F
 
$GNGSA,A,3,2,6,12,14,24,25,26,29,31,32,68,69,76,77,78,,,,,,1.169,0.686,0.946*20
 
$GPGSA,A,3,2,6,12,14,24,25,26,29,31,32,,,,,,,,,,,1.169,0.686,0.946*31
 
$GLGSA,A,3,68,69,76,77,78,,,,,,,,,,,,,,,,1.169,0.686,0.946*2D
 
$BDGSA,A,3,,,,,,,,,,,,,,,,,,,,,1.169,0.686,0.946*2F
 
$QZGSA,A,3,,,,,,,,,,,,,,,,,,,,,1.169,0.686,0.946*22
 
$GPGSV,6,1,23,2,26,62,21,4,5,,25,6,7,27,25,12,32,75,23*4A
 
$GPGSV,6,2,23,14,40,260,18,24,8,137,18,25,74,47,32,26,10,270,13*76
 
$GPGSV,6,3,23,29,63,185,26,31,47,303,27,32,31,229,25*42
 
$GLGSV,6,4,23,68,15,289,23,69,12,339,19,76,30,109,26,77,75,21,24*5A
 
$GLGSV,6,5,23,78,26,309,16,86,38,39,31,87,64,145,30,88,22,187,20*5E
 
$BDGSV,6,6,23,205,10,109,,211,5,,,212,10,205,,213,12,35,24*54
 
$GPRMC,183439.00,A,4825.0387,N,00428.2448,W,2.136,346.556,260217,,E,A*0F
 
$GPGGA,183440.00,4825.0395,N,00428.2447,W,1,15,0.686,142.079,M,,M,0,*50
 
$GNGSA,A,3,2,6,12,14,24,25,26,29,31,32,68,69,76,77,78,,,,,,1.169,0.686,0.946*20
 
$GPGSA,A,3,2,6,12,14,24,25,26,29,31,32,,,,,,,,,,,1.169,0.686,0.946*31
 
$GLGSA,A,3,68,69,76,77,78,,,,,,,,,,,,,,,,1.169,0.686,0.946*2D
 
$BDGSA,A,3,,,,,,,,,,,,,,,,,,,,,1.169,0.686,0.946*2F
 
$QZGSA,A,3,,,,,,,,,,,,,,,,,,,,,1.169,0.686,0.946*22
 
$GPGSV,6,1,23,2,26,62,29,4,5,,22,6,7,27,22,12,32,75,24*45
 
$GPGSV,6,2,23,14,40,260,23,24,8,137,18,25,74,47,31,26,10,270,13*7D
 
$GPGSV,6,3,23,29,63,185,26,31,47,303,28,32,31,229,21*49
 
$GLGSV,6,4,23,68,15,289,21,69,12,339,19,76,30,110,22,77,75,21,24*54
 
$GLGSV,6,5,23,78,26,309,17,86,38,39,28,87,64,145,32,88,22,187,19*5F
 
$BDGSV,6,6,23,205,10,109,,211,5,,,212,10,205,,213,12,35,23*53
 
$GPRMC,183440.00,A,4825.0395,N,00428.2447,W,2.118,351.616,260217,,E,A*00
 
$GPGGA,183441.00,4825.0403,N,00428.2444,W,1,15,0.686,141.508,M,,M,0,*5A
 
$GNGSA,A,3,2,6,12,14,24,25,26,29,31,32,68,69,76,77,78,,,,,,1.169,0.686,0.946*20
 
$GPGSA,A,3,2,6,12,14,24,25,26,29,31,32,,,,,,,,,,,1.169,0.686,0.946*31
 
$GLGSA,A,3,68,69,76,77,78,,,,,,,,,,,,,,,,1.169,0.686,0.946*2D
 
$BDGSA,A,3,,,,,,,,,,,,,,,,,,,,,1.169,0.686,0.946*2F
 
$QZGSA,A,3,,,,,,,,,,,,,,,,,,,,,1.169,0.686,0.946*22
 
$GPGSV,6,1,23,2,26,62,26,4,5,,22,6,7,27,23,12,32,75,26*49
 
$GPGSV,6,2,23,14,40,260,23,24,8,137,17,25,74,47,27,26,10,270,15*73
 
$GPGSV,6,3,23,29,63,185,30,31,47,303,29,32,31,229,21*4F
 
$GLGSV,6,4,23,68,15,289,21,69,12,339,19,76,30,110,22,77,75,21,23*53
 
$GLGSV,6,5,23,78,26,309,18,86,38,39,26,87,64,145,30,88,22,187,17*52
 
$BDGSV,6,6,23,205,10,109,,211,5,,,212,10,205,,213,12,35,20*50
 
$GPRMC,183441.00,A,4825.0403,N,00428.2444,W,2.017,359.596,260217,,E,A*07
 
$GPGGA,183442.00,4825.0412,N,00428.2444,W,1,15,0.686,140.830,M,,M,0,*5E
 
$GNGSA,A,3,2,6,12,14,24,25,26,29,31,32,68,69,76,77,78,,,,,,1.168,0.686,0.946*21
 
$GPGSA,A,3,2,6,12,14,24,25,26,29,31,32,,,,,,,,,,,1.168,0.686,0.946*30
 
$GLGSA,A,3,68,69,76,77,78,,,,,,,,,,,,,,,,1.168,0.686,0.946*2C
 
$BDGSA,A,3,,,,,,,,,,,,,,,,,,,,,1.168,0.686,0.946*2E
 
$QZGSA,A,3,,,,,,,,,,,,,,,,,,,,,1.168,0.686,0.946*23
 
$GPGSV,6,1,23,2,26,62,22,4,5,,24,6,7,27,25,12,32,75,30*4A
 
$GPGSV,6,2,23,14,40,260,22,24,8,137,17,25,74,47,30,26,10,270,15*74
 
$GPGSV,6,3,23,29,63,185,31,31,47,303,29,32,31,229,21*4E
 
$GLGSV,6,4,23,68,15,289,22,69,12,339,19,76,30,110,21,77,75,21,25*55
 
$GLGSV,6,5,23,78,26,309,18,86,38,39,27,87,64,145,34,88,22,187,16*56
 
$BDGSV,6,6,23,205,10,109,,211,5,,,212,10,205,,213,12,35,19*5A
 
$GPRMC,183442.00,A,4825.0412,N,00428.2444,W,1.910,1.297,260217,,E,A*01
 
$GPGGA,183443.00,4825.0420,N,00428.2444,W,1,15,0.686,140.200,M,,M,0,*57
 
$GNGSA,A,3,2,6,12,14,24,25,26,29,31,32,68,69,76,77,78,,,,,,1.168,0.686,0.946*21
 
$GPGSA,A,3,2,6,12,14,24,25,26,29,31,32,,,,,,,,,,,1.168,0.686,0.946*30
 
$GLGSA,A,3,68,69,76,77,78,,,,,,,,,,,,,,,,1.168,0.686,0.946*2C
 
$BDGSA,A,3,,,,,,,,,,,,,,,,,,,,,1.168,0.686,0.946*2E
 
$QZGSA,A,3,,,,,,,,,,,,,,,,,,,,,1.168,0.686,0.946*23
 
$GPGSV,6,1,22,2,26,62,26,4,5,,25,6,7,27,23,12,32,75,25*4C
 
$GPGSV,6,2,22,14,40,260,22,24,8,137,17,25,74,47,30,26,10,270,16*76
 
$GPGSV,6,3,22,29,63,185,29,31,47,303,29,32,31,229,23*44
 
$GLGSV,6,4,22,68,15,289,26,69,12,339,24,76,30,110,22,77,75,21,22*5A
 
$GLGSV,6,5,22,78,26,309,18,86,38,39,30,87,64,145,29,88,22,187,16*5D
 
$BDGSV,6,6,22,205,10,109,,212,10,205,,213,12,35,22*54
 
$GPRMC,183443.00,A,4825.0420,N,00428.2444,W,2.064,2.957,260217,,E,A*0C
 
$GPGGA,183444.00,4825.0426,N,00428.2441,W,1,15,0.686,139.633,M,,M,0,*59
 
$GNGSA,A,3,2,6,12,14,24,25,26,29,31,32,68,69,76,77,78,,,,,,1.168,0.686,0.946*21
 
$GPGSA,A,3,2,6,12,14,24,25,26,29,31,32,,,,,,,,,,,1.168,0.686,0.946*30
 
$GLGSA,A,3,68,69,76,77,78,,,,,,,,,,,,,,,,1.168,0.686,0.946*2C
 
$BDGSA,A,3,,,,,,,,,,,,,,,,,,,,,1.168,0.686,0.946*2E
 
$QZGSA,A,3,,,,,,,,,,,,,,,,,,,,,1.168,0.686,0.946*23
 
$GPGSV,6,1,22,2,26,62,26,4,5,,23,6,7,27,21,12,32,75,26*4B
 
$GPGSV,6,2,22,14,40,260,20,24,8,137,17,25,74,47,29,26,10,270,15*7F
 
$GPGSV,6,3,22,29,63,185,29,31,47,303,32,32,31,229,19*47
 
$GLGSV,6,4,22,68,15,289,26,69,12,339,22,76,30,110,20,77,75,21,26*5A
 
$GLGSV,6,5,22,78,26,309,19,86,38,39,33,87,64,145,28,88,22,187,15*5D
 
$BDGSV,6,6,22,205,10,109,,212,10,205,,213,12,35,21*57
 
$GPRMC,183444.00,A,4825.0426,N,00428.2441,W,2.103,7.224,260217,,E,A*02
 
$GPGGA,183445.00,4825.0430,N,00428.2440,W,1,15,0.686,139.348,M,,M,0,*57
 
$GNGSA,A,3,2,6,12,14,24,25,26,29,31,32,68,69,76,77,78,,,,,,1.168,0.686,0.946*21
 
$GPGSA,A,3,2,6,12,14,24,25,26,29,31,32,,,,,,,,,,,1.168,0.686,0.946*30
 
$GLGSA,A,3,68,69,76,77,78,,,,,,,,,,,,,,,,1.168,0.686,0.946*2C
 
$BDGSA,A,3,,,,,,,,,,,,,,,,,,,,,1.168,0.686,0.946*2E
 
$QZGSA,A,3,,,,,,,,,,,,,,,,,,,,,1.168,0.686,0.946*23
 
$GPGSV,6,1,22,2,26,62,29,4,5,,23,6,7,27,23,12,32,75,28*48
 
$GPGSV,6,2,22,14,40,260,22,24,8,137,15,25,74,47,31,26,10,270,15*76
 
$GPGSV,6,3,22,29,63,185,27,31,47,303,27,32,31,229,22*45
 
$GLGSV,6,4,22,68,15,289,24,69,12,339,21,76,30,110,24,77,75,21,26*5F
 
$GLGSV,6,5,22,78,26,309,19,86,38,39,30,87,64,145,27,88,22,187,16*52
 
$BDGSV,6,6,22,205,10,109,,212,10,205,,213,12,35,21*57
 
$GPRMC,183445.00,A,4825.0430,N,00428.2440,W,1.986,13.773,260217,,E,A*31
 
$GPGGA,183446.00,4825.0434,N,00428.2436,W,1,15,0.686,139.129,M,,M,0,*54
 
$GNGSA,A,3,2,6,12,14,24,25,26,29,31,32,68,69,76,77,78,,,,,,1.168,0.686,0.946*21
 
$GPGSA,A,3,2,6,12,14,24,25,26,29,31,32,,,,,,,,,,,1.168,0.686,0.946*30
 
$GLGSA,A,3,68,69,76,77,78,,,,,,,,,,,,,,,,1.168,0.686,0.946*2C
 
$BDGSA,A,3,,,,,,,,,,,,,,,,,,,,,1.168,0.686,0.946*2E
 
$QZGSA,A,3,,,,,,,,,,,,,,,,,,,,,1.168,0.686,0.946*23
 
$GPGSV,6,1,22,2,26,62,26,4,5,,22,6,7,27,23,12,32,75,30*4F
 
$GPGSV,6,2,22,14,40,260,22,24,8,137,15,25,74,47,31,26,10,270,15*76
 
$GPGSV,6,3,22,29,63,185,27,31,47,303,26,32,31,229,19*4C
 
$GLGSV,6,4,22,68,15,289,26,69,12,339,25,76,30,110,25,77,75,21,26*58
 
$GLGSV,6,5,22,78,26,309,19,86,38,39,30,87,64,145,26,88,22,187,16*53
 
$BDGSV,6,6,22,205,10,109,,212,10,205,,213,12,35,22*54
 
$GPRMC,183446.00,A,4825.0434,N,00428.2436,W,0.000,0.000,260217,,E,A*00
 
$GPGGA,183447.00,4825.0434,N,00428.2433,W,1,15,0.686,139.473,M,,M,0,*5A
 
$GNGSA,A,3,2,6,12,14,24,25,26,29,31,32,68,69,76,77,78,,,,,,1.168,0.686,0.946*21
 
$GPGSA,A,3,2,6,12,14,24,25,26,29,31,32,,,,,,,,,,,1.168,0.686,0.946*30
 
$GLGSA,A,3,68,69,76,77,78,,,,,,,,,,,,,,,,1.168,0.686,0.946*2C
 
$BDGSA,A,3,,,,,,,,,,,,,,,,,,,,,1.168,0.686,0.946*2E
 
$QZGSA,A,3,,,,,,,,,,,,,,,,,,,,,1.168,0.686,0.946*23
 
$GPGSV,6,1,22,2,26,62,29,4,5,,26,6,7,27,28,12,32,75,31*4E
 
$GPGSV,6,2,22,14,40,260,19,24,8,137,15,25,74,47,31,26,10,270,16*7D
 
$GPGSV,6,3,22,29,63,185,26,31,47,303,28,32,31,229,19*43
 
$GLGSV,6,4,22,68,15,289,25,69,12,339,19,76,30,110,30,77,75,21,22*54
 
$GLGSV,6,5,22,78,26,309,19,86,38,39,29,87,64,145,28,88,22,187,15*56
 
$BDGSV,6,6,22,205,10,109,,212,10,205,,213,12,35,25*53
 
$GPRMC,183447.00,A,4825.0434,N,00428.2433,W,0.478,0.000,260217,,E,A*0F
 
$GPGGA,183448.00,4825.0434,N,00428.2433,W,1,15,0.686,139.473,M,,M,0,*55
 
$GNGSA,A,3,2,6,12,14,24,25,26,29,31,32,68,69,76,77,78,,,,,,1.168,0.686,0.946*21
 
$GPGSA,A,3,2,6,12,14,24,25,26,29,31,32,,,,,,,,,,,1.168,0.686,0.946*30
 
$GLGSA,A,3,68,69,76,77,78,,,,,,,,,,,,,,,,1.168,0.686,0.946*2C
 
$BDGSA,A,3,,,,,,,,,,,,,,,,,,,,,1.168,0.686,0.946*2E
 
$QZGSA,A,3,,,,,,,,,,,,,,,,,,,,,1.168,0.686,0.946*23
 
$GPGSV,6,1,23,2,26,62,26,4,5,,29,6,7,27,25,12,32,75,35*46
 
$GPGSV,6,2,23,14,40,260,23,24,8,137,14,25,74,47,31,26,10,270,16*74
 
$GPGSV,6,3,23,29,63,185,25,31,47,303,32,32,31,229,24*44
 
$GLGSV,6,4,23,68,15,289,28,69,12,339,23,76,30,110,30,77,75,21,28*5B
 
$GLGSV,6,5,23,78,26,309,19,86,38,39,31,87,64,145,32,88,22,187,15*55
 
$BDGSV,6,6,23,205,10,109,,211,5,,,212,10,205,,213,12,35,25*55
 
$GPRMC,183448.00,A,4825.0434,N,00428.2433,W,0.000,0.000,260217,,E,A*0B
 
$GPGGA,183449.00,4825.0444,N,00428.2431,W,1,15,0.686,140.877,M,,M,0,*57
 
$GNGSA,A,3,2,6,12,14,24,25,26,29,31,32,68,69,76,77,78,,,,,,1.168,0.686,0.945*22
 
$GPGSA,A,3,2,6,12,14,24,25,26,29,31,32,,,,,,,,,,,1.168,0.686,0.945*33
 
$GLGSA,A,3,68,69,76,77,78,,,,,,,,,,,,,,,,1.168,0.686,0.945*2F
 
$BDGSA,A,3,,,,,,,,,,,,,,,,,,,,,1.168,0.686,0.945*2D
 
$QZGSA,A,3,,,,,,,,,,,,,,,,,,,,,1.168,0.686,0.945*20
 
$GPGSV,6,1,23,2,26,62,25,4,5,,31,6,7,27,26,12,32,75,31*4B
 
$GPGSV,6,2,23,14,40,260,20,24,8,137,14,25,74,47,35,26,10,270,17*72
 
$GPGSV,6,3,23,29,63,185,32,31,47,303,32,32,31,229,23*45
 
$GLGSV,6,4,23,68,15,289,28,69,12,339,22,76,30,110,28,77,75,21,29*52
 
$GLGSV,6,5,23,78,26,309,18,86,38,39,33,87,64,145,28,88,22,187,14*5C
 
$BDGSV,6,6,23,205,10,109,,211,5,,,212,10,205,,213,12,35,24*54
 
$GPRMC,183449.00,A,4825.0444,N,00428.2431,W,1.201,0.000,260217,,E,A*0D
 
$GPGGA,183450.00,4825.0453,N,00428.2432,W,1,15,0.686,141.827,M,,M,0,*5E
 
$GNGSA,A,3,2,6,12,14,24,25,26,29,31,32,68,69,76,77,78,,,,,,1.168,0.686,0.945*22
 
$GPGSA,A,3,2,6,12,14,24,25,26,29,31,32,,,,,,,,,,,1.168,0.686,0.945*33
 
$GLGSA,A,3,68,69,76,77,78,,,,,,,,,,,,,,,,1.168,0.686,0.945*2F
 
$BDGSA,A,3,,,,,,,,,,,,,,,,,,,,,1.168,0.686,0.945*2D
 
$QZGSA,A,3,,,,,,,,,,,,,,,,,,,,,1.168,0.686,0.945*20
 
$GPGSV,6,1,23,2,26,62,27,4,5,,30,6,7,27,22,12,32,75,29*45
 
$GPGSV,6,2,23,14,40,260,21,24,8,137,15,25,74,47,34,26,10,270,22*75
 
$GPGSV,6,3,23,29,63,185,32,31,47,303,32,32,31,229,28*4E
 
$GLGSV,6,4,23,68,15,289,26,69,12,339,19,76,29,110,27,77,75,21,29*53
 
$GLGSV,6,5,23,78,26,309,22,86,38,39,36,87,64,145,32,88,22,187,13*5C
 
$BDGSV,6,6,23,205,10,109,,211,5,,,212,10,205,,213,12,35,27*57
 
$GPRMC,183450.00,A,4825.0453,N,00428.2432,W,2.232,352.931,260217,,E,A*0C
 
$GPGGA,183451.00,4825.0464,N,00428.2433,W,1,15,0.686,142.790,M,,M,0,*5A
 
$GNGSA,A,3,2,6,12,14,24,25,26,29,31,32,68,69,76,77,78,,,,,,1.168,0.686,0.945*22
 
$GPGSA,A,3,2,6,12,14,24,25,26,29,31,32,,,,,,,,,,,1.168,0.686,0.945*33
 
$GLGSA,A,3,68,69,76,77,78,,,,,,,,,,,,,,,,1.168,0.686,0.945*2F
 
$BDGSA,A,3,,,,,,,,,,,,,,,,,,,,,1.168,0.686,0.945*2D
 
$QZGSA,A,3,,,,,,,,,,,,,,,,,,,,,1.168,0.686,0.945*20
 
$GPGSV,6,1,23,2,26,62,25,4,5,,25,6,7,27,22,12,32,75,30*4B
 
$GPGSV,6,2,23,14,40,260,21,24,8,137,15,25,74,47,35,26,10,270,18*7D
 
$GPGSV,6,3,23,29,63,185,32,31,47,303,32,32,31,229,25*43
 
$GLGSV,6,4,23,68,15,289,26,69,12,339,18,76,29,110,27,77,75,21,28*53
 
$GLGSV,6,5,23,78,26,309,18,86,38,39,31,87,64,145,32,88,22,187,14*55
 
$BDGSV,6,6,23,205,10,109,,211,5,,,212,10,205,,213,12,35,21*51
 
$GPRMC,183451.00,A,4825.0464,N,00428.2433,W,2.766,351.627,260217,,E,A*07
 
$GPGGA,183452.00,4825.0474,N,00428.2430,W,1,15,0.686,144.294,M,,M,0,*5C
 
$GNGSA,A,3,2,6,12,14,24,25,26,29,31,32,68,69,76,77,78,,,,,,1.168,0.686,0.945*22
 
$GPGSA,A,3,2,6,12,14,24,25,26,29,31,32,,,,,,,,,,,1.168,0.686,0.945*33
 
$GLGSA,A,3,68,69,76,77,78,,,,,,,,,,,,,,,,1.168,0.686,0.945*2F
 
$BDGSA,A,3,,,,,,,,,,,,,,,,,,,,,1.168,0.686,0.945*2D
 
$QZGSA,A,3,,,,,,,,,,,,,,,,,,,,,1.168,0.686,0.945*20
 
$GPGSV,6,1,23,2,26,62,23,4,5,,31,6,7,27,23,12,32,75,29*41
 
$GPGSV,6,2,23,14,40,260,18,24,8,137,16,25,74,47,33,26,10,270,18*72
 
$GPGSV,6,3,23,29,63,185,31,31,47,303,31,32,31,229,26*40
 
$GLGSV,6,4,23,68,15,289,30,69,12,339,18,76,29,110,23,77,75,21,25*5D
 
$GLGSV,6,5,23,78,26,309,18,86,38,39,32,87,64,145,31,88,22,187,15*54
 
$BDGSV,6,6,23,205,10,109,,211,5,,,212,10,205,,213,12,35,23*53
 
$GPRMC,183452.00,A,4825.0474,N,00428.2430,W,2.886,353.891,260217,,E,A*06
 
$GPGGA,183453.00,4825.0488,N,00428.2430,W,1,15,0.686,145.709,M,,M,0,*5E
 
$GNGSA,A,3,2,6,12,14,24,25,26,29,31,32,68,69,76,77,78,,,,,,1.168,0.686,0.945*22
 
$GPGSA,A,3,2,6,12,14,24,25,26,29,31,32,,,,,,,,,,,1.168,0.686,0.945*33
 
$GLGSA,A,3,68,69,76,77,78,,,,,,,,,,,,,,,,1.168,0.686,0.945*2F
 
$BDGSA,A,3,,,,,,,,,,,,,,,,,,,,,1.168,0.686,0.945*2D
 
$QZGSA,A,3,,,,,,,,,,,,,,,,,,,,,1.168,0.686,0.945*20
 
$GPGSV,6,1,23,2,26,62,26,4,5,,31,6,7,27,21,12,32,75,27*48
 
$GPGSV,6,2,23,14,40,260,21,24,8,137,16,25,74,47,35,26,10,270,17*71
 
$GPGSV,6,3,23,29,63,185,30,31,47,303,32,32,31,229,26*42
 
$GLGSV,6,4,23,68,15,289,29,69,12,339,22,76,29,110,25,77,75,21,29*56
 
$GLGSV,6,5,23,78,27,309,19,86,38,39,35,87,64,145,32,88,22,187,15*50
 
$BDGSV,6,6,23,205,10,109,,211,5,,,212,10,205,,213,12,35,23*53
 
$GPRMC,183453.00,A,4825.0488,N,00428.2430,W,3.012,358.013,260217,,E,A*09
 
$GPGGA,183454.00,4825.0501,N,00428.2433,W,1,15,0.686,147.044,M,,M,0,*56
 
$GNGSA,A,3,2,6,12,14,24,25,26,29,31,32,68,69,76,77,78,,,,,,1.168,0.686,0.945*22
 
$GPGSA,A,3,2,6,12,14,24,25,26,29,31,32,,,,,,,,,,,1.168,0.686,0.945*33
 
$GLGSA,A,3,68,69,76,77,78,,,,,,,,,,,,,,,,1.168,0.686,0.945*2F
 
$BDGSA,A,3,,,,,,,,,,,,,,,,,,,,,1.168,0.686,0.945*2D
 
$QZGSA,A,3,,,,,,,,,,,,,,,,,,,,,1.168,0.686,0.945*20
 
$GPGSV,6,1,23,2,26,62,26,4,5,,28,6,7,27,24,12,32,75,32*41
 
$GPGSV,6,2,23,14,40,260,23,24,8,137,16,25,74,47,35,26,10,270,18*7C
 
$GPGSV,6,3,23,29,63,185,31,31,47,303,33,32,31,229,26*42
 
$GLGSV,6,4,23,68,15,289,28,69,12,339,24,76,29,110,23,77,75,21,28*56
 
$GLGSV,6,5,23,78,27,309,18,86,38,39,34,87,64,145,33,88,22,187,16*52
 
$BDGSV,6,6,23,205,10,109,,211,5,,,212,10,205,,213,12,35,24*54
 
$GPRMC,183454.00,A,4825.0501,N,00428.2433,W,3.284,358.175,260217,,E,A*01
 
$GPGGA,183455.00,4825.0515,N,00428.2440,W,1,15,0.686,148.189,M,,M,0,*59
 
$GNGSA,A,3,2,6,12,14,24,25,26,29,31,32,68,69,76,77,78,,,,,,1.168,0.686,0.945*22
 
$GPGSA,A,3,2,6,12,14,24,25,26,29,31,32,,,,,,,,,,,1.168,0.686,0.945*33
 
$GLGSA,A,3,68,69,76,77,78,,,,,,,,,,,,,,,,1.168,0.686,0.945*2F
 
$BDGSA,A,3,,,,,,,,,,,,,,,,,,,,,1.168,0.686,0.945*2D
 
$QZGSA,A,3,,,,,,,,,,,,,,,,,,,,,1.168,0.686,0.945*20
 
$GPGSV,6,1,23,2,26,62,25,4,5,,30,6,7,27,24,12,32,75,31*48
 
$GPGSV,6,2,23,14,40,260,20,24,8,137,17,25,74,47,32,26,10,270,16*77
 
$GPGSV,6,3,23,29,63,185,30,31,47,303,35,32,31,229,23*40
 
$GLGSV,6,4,23,68,15,289,29,69,12,339,26,76,29,110,27,77,75,21,28*51
 
$GLGSV,6,5,23,78,27,309,17,86,38,39,33,87,64,145,33,88,22,187,18*54
 
$BDGSV,6,6,23,205,10,109,,211,5,,,212,10,205,,213,12,35,24*54
 
$GPRMC,183455.00,A,4825.0515,N,00428.2440,W,3.128,353.815,260217,,E,A*00
 
$GPGGA,183456.00,4825.0527,N,00428.2444,W,1,15,0.686,148.557,M,,M,0,*58
 
$GNGSA,A,3,2,6,12,14,24,25,26,29,31,32,68,69,76,77,78,,,,,,1.167,0.686,0.945*2D
 
$GPGSA,A,3,2,6,12,14,24,25,26,29,31,32,,,,,,,,,,,1.167,0.686,0.945*3C
 
$GLGSA,A,3,68,69,76,77,78,,,,,,,,,,,,,,,,1.167,0.686,0.945*20
 
$BDGSA,A,3,,,,,,,,,,,,,,,,,,,,,1.167,0.686,0.945*22
 
$QZGSA,A,3,,,,,,,,,,,,,,,,,,,,,1.167,0.686,0.945*2F
 
$GPGSV,6,1,23,2,26,62,29,4,5,,30,6,7,27,22,12,32,76,28*49
 
$GPGSV,6,2,23,14,40,260,19,24,8,137,22,25,74,47,33,26,10,270,18*74
 
$GPGSV,6,3,23,29,63,185,33,31,47,303,33,32,31,229,28*4E
 
$GLGSV,6,4,23,68,15,289,30,69,12,339,25,76,29,110,24,77,75,21,28*59
 
$GLGSV,6,5,23,78,27,309,17,86,38,39,34,87,64,145,33,88,22,187,18*53
 
$BDGSV,6,6,23,205,10,109,,211,5,,,212,10,205,20,213,12,35,25*57
 
$GPRMC,183456.00,A,4825.0527,N,00428.2444,W,3.144,353.915,260217,,E,A*0D
 
$GPGGA,183457.00,4825.0539,N,00428.2447,W,1,16,0.623,149.107,M,,M,0,*59
 
$GNGSA,A,3,2,6,12,14,24,25,26,29,31,32,212,68,69,76,77,78,,,,,1.088,0.623,0.892*18
 
$GPGSA,A,3,2,6,12,14,24,25,26,29,31,32,,,,,,,,,,,1.088,0.623,0.892*38
 
$GLGSA,A,3,68,69,76,77,78,,,,,,,,,,,,,,,,1.088,0.623,0.892*24
 
$BDGSA,A,3,212,,,,,,,,,,,,,,,,,,,,1.088,0.623,0.892*17
 
$QZGSA,A,3,,,,,,,,,,,,,,,,,,,,,1.088,0.623,0.892*2B
 
$GPGSV,6,1,23,2,26,62,28,4,5,,30,6,7,27,27,12,32,76,31*45
 
$GPGSV,6,2,23,14,40,260,23,24,8,137,23,25,74,47,34,26,10,270,18*7B
 
$GPGSV,6,3,23,29,63,185,31,31,47,303,32,32,31,229,20*45
 
$GLGSV,6,4,23,68,15,289,28,69,12,339,24,76,29,110,25,77,75,21,26*5E
 
$GLGSV,6,5,23,78,27,309,18,86,38,39,35,87,64,145,32,88,22,187,17*53
 
$BDGSV,6,6,23,205,10,109,,211,5,,,212,10,205,20,213,12,35,22*50
 
$GPRMC,183457.00,A,4825.0539,N,00428.2447,W,3.192,352.064,260217,,E,A*05
 
$GPGGA,183458.00,4825.0549,N,00428.2450,W,1,16,0.623,149.345,M,,M,0,*53
 
$GNGSA,A,3,2,6,12,14,24,25,26,29,31,32,212,68,69,76,77,78,,,,,1.088,0.623,0.892*18
 
$GPGSA,A,3,2,6,12,14,24,25,26,29,31,32,,,,,,,,,,,1.088,0.623,0.892*38
 
$GLGSA,A,3,68,69,76,77,78,,,,,,,,,,,,,,,,1.088,0.623,0.892*24
 
$BDGSA,A,3,212,,,,,,,,,,,,,,,,,,,,1.088,0.623,0.892*17
 
$QZGSA,A,3,,,,,,,,,,,,,,,,,,,,,1.088,0.623,0.892*2B
 
$GPGSV,6,1,23,2,26,62,24,4,5,,32,6,7,27,23,12,32,76,30*4E
 
$GPGSV,6,2,23,14,40,260,22,24,8,137,24,25,74,47,32,26,10,270,19*7A
 
$GPGSV,6,3,23,29,63,185,30,31,47,303,32,32,31,229,27*43
 
$GLGSV,6,4,23,68,15,289,29,69,12,339,25,76,29,110,26,77,75,21,27*5C
 
