VTG,21.68,T,,M,0.00,N,0.0,K,D*35
 
$GPGGA,103049.000,4825.0835,N,00428.3977,W,2,11,0.8,94.5,M,52.0,M,2.8,0000*50
 
$GPGSA,A,3,03,32,06,09,31,23,17,01,11,12,19,,1.5,0.8,1.3*3E
 
$GPRMC,103049.000,A,4825.0835,N,00428.3977,W,0.00,21.68,060116,,,D*4A
 
$GPVTG,21.68,T,,M,0.00,N,0.0,K,D*35
 
$GPGGA,103050.000,4825.0835,N,00428.3977,W,2,11,0.8,94.5,M,52.0,M,1.8,0000*5B
 
$GPGSA,A,3,03,32,06,09,31,23,17,01,11,12,19,,1.5,0.8,1.3*3E
 
$GPGSV,3,1,12,32,20,073,36,03,56,067,34,06,36,303,32,09,36,198,45*73
 
$GPGSV,3,2,12,31,15,042,29,01,30,129,27,17,45,241,50,23,66,155,39*72
 
$GPGSV,3,3,12,11,12,146,18,19,44,225,45,12,05,325,48,49,33,167,42*7A
 
$GPRMC,103050.000,A,4825.0835,N,00428.3977,W,0.00,21.68,060116,,,D*42
 
$GPVTG,21.68,T,,M,0.00,N,0.0,K,D*35
 
$GPGGA,103051.000,4825.0835,N,00428.3977,W,2,11,0.8,94.5,M,52.0,M,1.8,0000*5A
 
$GPGSA,A,3,03,32,06,09,31,23,17,01,11,12,19,,1.5,0.8,1.3*3E
 
$GPRMC,103051.000,A,4825.0835,N,00428.3977,W,0.00,21.68,060116,,,D*43
 
$GPVTG,21.68,T,,M,0.00,N,0.0,K,D*35
 
$GPGGA,103052.000,4825.0835,N,00428.3977,W,2,11,0.8,94.5,M,52.0,M,1.8,0000*59
 
$GPGSA,A,3,03,32,06,09,31,23,17,01,11,12,19,,1.5,0.8,1.3*3E
 
$GPRMC,103052.000,A,4825.0835,N,00428.3977,W,0.00,21.68,060116,,,D*40
 
$GPVTG,21.68,T,,M,0.00,N,0.0,K,D*35
 
$GPGGA,103053.000,4825.0812,N,00428.3928,W,2,11,0.8,106.5,M,52.0,M,2.8,0000*6E
 
$GPGSA,A,3,03,32,06,09,31,23,17,01,11,12,19,,1.5,0.8,1.3*3E
 
$GPGSV,3,1,12,32,20,073,48,03,56,067,44,06,36,303,40,09,36,198,34*7E
 
$GPGSV,3,2,12,31,15,042,27,01,30,129,26,17,45,241,35,23,66,155,43*73
 
$GPGSV,3,3,12,11,12,146,27,19,44,225,37,12,05,325,37,49,33,167,43*7A
 
$GPRMC,103053.000,A,4825.0812,N,00428.3928,W,1.78,2.46,060116,,,D*7D
 
$GPVTG,2.46,T,,M,1.78,N,3.3,K,D*06
 
$GPGGA,103054.000,4825.0817,N,00428.3926,W,2,11,0.8,106.7,M,52.0,M,1.8,0000*63
 
$GPGSA,A,3,03,32,06,09,31,23,17,01,11,12,19,,1.5,0.8,1.3*3E
 
$GPRMC,103054.000,A,4825.0817,N,00428.3926,W,1.96,4.76,060116,,,D*74
 
$GPVTG,4.76,T,,M,1.96,N,3.6,K,D*06
 
$GPGGA,103055.000,4825.0823,N,00428.3924,W,2,11,0.8,106.8,M,52.0,M,1.8,0000*68
 
$GPGSA,A,3,03,32,06,09,31,23,17,01,11,12,19,,1.5,0.8,1.3*3E
 
$GPRMC,103055.000,A,4825.0823,N,00428.3924,W,2.36,4.85,060116,,,D*75
 
$GPVTG,4.85,T,,M,2.36,N,4.4,K,D*06
 
$GPGGA,103056.000,4825.0829,N,00428.3923,W,2,11,0.8,106.8,M,52.0,M,1.8,0000*66
 
$GPGSA,A,3,03,32,06,09,31,23,17,01,11,12,19,,1.5,0.8,1.3*3E
 
$GPGSV,3,1,12,32,20,073,45,03,56,067,45,06,36,303,39,09,36,198,34*7C
 
$GPGSV,3,2,12,31,15,042,28,01,30,129,26,17,45,241,37,23,66,155,44*79
 
$GPGSV,3,3,12,11,12,146,27,19,44,225,30,12,05,325,36,49,33,167,37*7F
 
$GPRMC,103056.000,A,4825.0829,N,00428.3923,W,2.16,358.52,060116,,,D*79
 
$GPVTG,358.52,T,,M,2.16,N,4.0,K,D*00
 
$GPGGA,103057.000,4825.0835,N,00428.3922,W,2,10,0.8,106.8,M,52.0,M,2.8,0000*69
 
$GPGSA,A,3,03,32,06,09,31,23,17,11,12,19,,,1.5,0.8,1.3*3F
 
$GPRMC,103057.000,A,4825.0835,N,00428.3922,W,2.06,354.99,060116,,,D*7E
 
$GPVTG,354.99,T,,M,2.06,N,3.8,K,D*05
 
$GPGGA,103058.000,4825.0841,N,00428.3923,W,2,10,0.8,106.6,M,52.0,M,3.8,0000*6B
 
$GPGSA,A,3,03,32,06,09,31,23,17,11,12,19,,,1.5,0.8,1.3*3F
 
$GPRMC,103058.000,A,4825.0841,N,00428.3923,W,2.42,354.42,060116,,,D*75
 
$GPVTG,354.42,T,,M,2.42,N,4.5,K,D*09
 
$GPGGA,103059.000,4825.0847,N,00428.3924,W,2,11,0.8,106.8,M,52.0,M,4.8,0000*63
 
$GPGSA,A,3,03,32,06,09,31,23,17,01,11,12,19,,1.5,0.8,1.3*3E
 
$GPGSV,3,1,12,32,20,073,26,03,56,067,45,06,36,303,39,09,36,198,27*7B
 
$GPGSV,3,2,12,31,15,042,20,01,30,129,35,17,45,241,37,23,66,155,43*74
 
$GPGSV,3,3,12,11,12,146,14,19,44,225,31,12,05,325,32,49,33,167,31*7C
 
$GPRMC,103059.000,A,4825.0847,N,00428.3924,W,2.33,352.87,060116,,,D*7C
 
$GPVTG,352.87,T,,M,2.33,N,4.3,K,D*06
 
$GPGGA,103100.000,4825.0855,N,00428.3928,W,2,11,0.8,107.3,M,52.0,M,5.8,0000*6A
 
$GPGSA,A,3,03,32,06,09,31,23,17,01,11,12,19,,1.5,0.8,1.3*3E
 
$GPRMC,103100.000,A,4825.0855,N,00428.3928,W,2.28,0.67,060116,,,D*7E
 
$GPVTG,0.67,T,,M,2.28,N,4.2,K,D*07
 
$GPGGA,103101.000,4825.0863,N,00428.3930,W,2,11,0.8,107.6,M,52.0,M,6.8,0000*61
 
$GPGSA,A,3,03,32,06,09,31,23,17,01,11,12,19,,1.5,0.8,1.3*3E
 
$GPRMC,103101.000,A,4825.0863,N,00428.3930,W,2.32,1.46,060116,,,D*7A
 
$GPVTG,1.46,T,,M,2.32,N,4.3,K,D*0F
 
$GPGGA,103102.000,4825.0871,N,00428.3932,W,2,11,0.8,107.6,M,52.0,M,7.8,0000*62
 
$GPGSA,A,3,03,32,06,09,31,23,17,01,11,12,19,,1.5,0.8,1.3*3E
 
$GPGSV,3,1,12,32,20,073,25,03,56,067,46,06,36,303,40,09,36,198,30*73
 
$GPGSV,3,2,12,31,15,042,24,01,30,129,43,17,45,241,38,23,66,155,42*7F
 
$GPGSV,3,3,12,11,12,146,17,19,44,225,31,12,05,325,34,49,33,167,37*7F
 
$GPRMC,103102.000,A,4825.0871,N,00428.3932,W,2.67,352.53,060116,,,D*79
 
$GPVTG,352.53,T,,M,2.67,N,4.9,K,D*04
 
$GPGGA,103103.000,4825.0878,N,00428.3935,W,2,11,0.8,107.5,M,52.0,M,1.8,0000*68
 
$GPGSA,A,3,03,32,06,09,31,23,17,01,11,12,19,,1.5,0.8,1.3*3E
 
$GPRMC,103103.000,A,4825.0878,N,00428.3935,W,2.43,355.32,060116,,,D*70
 
$GPVTG,355.32,T,,M,2.43,N,4.5,K,D*0E
 
$GPGGA,103104.000,4825.0886,N,00428.3938,W,2,11,0.8,107.4,M,52.0,M,1.8,0000*62
 
$GPGSA,A,3,03,32,06,09,31,23,17,01,11,12,19,,1.5,0.8,1.3*3E
 
$GPRMC,103104.000,A,4825.0886,N,00428.3938,W,2.49,350.35,060116,,,D*73
 
$GPVTG,350.35,T,,M,2.49,N,4.6,K,D*05
 
$GPGGA,103105.000,4825.0895,N,00428.3942,W,2,11,0.8,107.5,M,52.0,M,2.8,0000*6E
 
$GPGSA,A,3,03,32,06,09,31,23,17,01,11,12,19,,1.5,0.8,1.3*3E
 
$GPGSV,3,1,12,32,20,073,25,03,56,067,47,06,36,303,40,09,36,198,32*70
 
$GPGSV,3,2,12,31,15,042,24,01,30,129,44,17,45,241,39,23,66,155,42*79
 
$GPGSV,3,3,12,11,12,146,18,19,44,225,36,12,05,325,40,49,33,167,32*71
 
$GPRMC,103105.000,A,4825.0895,N,00428.3942,W,2.53,349.63,060116,,,D*7D
 
$GPVTG,349.63,T,,M,2.53,N,4.7,K,D*04
 
$GPGGA,103106.000,4825.0903,N,00428.3945,W,2,11,0.8,107.4,M,52.0,M,3.8,0000*64
 
$GPGSA,A,3,03,32,06,09,31,23,17,01,11,12,19,,1.5,0.8,1.3*3E
 
$GPRMC,103106.000,A,4825.0903,N,00428.3945,W,2.54,350.25,060116,,,D*7A
 
$GPVTG,350.25,T,,M,2.54,N,4.7,K,D*09
 
$GPGGA,103107.000,4825.0910,N,00428.3949,W,2,11,0.8,107.4,M,52.0,M,4.8,0000*6C
 
$GPGSA,A,3,03,32,06,09,31,23,17,01,11,12,19,,1.5,0.8,1.3*3E
 
$GPRMC,103107.000,A,4825.0910,N,00428.3949,W,2.49,349.70,060116,,,D*71
 
$GPVTG,349.70,T,,M,2.49,N,4.6,K,D*0C
 
$GPGGA,103108.000,4825.0918,N,00428.3952,W,2,11,0.8,107.5,M,52.0,M,1.8,0000*65
 
$GPGSA,A,3,03,32,06,09,31,23,17,01,11,12,19,,1.5,0.8,1.3*3E
 
$GPGSV,3,1,12,32,20,073,25,03,56,067,46,06,36,303,36,09,36,198,31*73
 
$GPGSV,3,2,12,31,15,042,26,01,30,129,45,17,45,241,39,23,66,155,43*7B
 
$GPGSV,3,3,12,11,12,146,19,19,44,225,35,12,05,325,39,49,33,167,34*7B
 
$GPRMC,103108.000,A,4825.0918,N,00428.3952,W,2.46,354.24,060116,,,D*7E
 
$GPVTG,354.24,T,,M,2.46,N,4.6,K,D*0E
 
$GPGGA,103109.000,4825.0926,N,00428.3955,W,2,11,0.8,107.4,M,52.0,M,2.8,0000*6C
 
$GPGSA,A,3,03,32,06,09,31,23,17,01,11,12,19,,1.5,0.8,1.3*3E
 
$GPRMC,103109.000,A,4825.0926,N,00428.3955,W,2.70,353.12,060116,,,D*72
 
$GPVTG,353.12,T,,M,2.70,N,5.0,K,D*0E
 
$GPGGA,103110.000,4825.0934,N,00428.3958,W,2,11,0.8,107.3,M,52.0,M,1.8,0000*6E
 
$GPGSA,A,3,03,32,06,09,31,23,17,01,11,12,19,,1.5,0.8,1.3*3E
 
$GPRMC,103110.000,A,4825.0934,N,00428.3958,W,2.74,351.06,060116,,,D*77
 
$GPVTG,351.06,T,,M,2.74,N,5.1,K,D*0C
 
$GPGGA,103111.000,4825.0943,N,00428.3961,W,2,11,0.8,107.2,M,52.0,M,2.8,0000*67
 
$GPGSA,A,3,03,32,06,09,31,23,17,01,11,12,19,,1.5,0.8,1.3*3E
 
$GPGSV,3,1,12,32,20,073,26,03,56,067,47,06,36,303,38,09,36,198,31*7F
 
$GPGSV,3,2,12,31,15,042,30,01,30,129,45,17,45,241,40,23,66,155,44*75
 
$GPGSV,3,3,12,11,12,146,24,19,44,225,37,12,05,325,40,49,33,167,34*79
 
$GPRMC,103111.000,A,4825.0943,N,00428.3961,W,2.80,350.65,060116,,,D*73
 
$GPVTG,350.65,T,,M,2.80,N,5.2,K,D*00
 
$GPGGA,103112.000,4825.0951,N,00428.3964,W,2,11,0.8,107.2,M,52.0,M,3.8,0000*63
 
$GPGSA,A,3,03,32,06,09,31,23,17,01,11,12,19,,1.5,0.8,1.3*3E
 
$GPRMC,103112.000,A,4825.0951,N,00428.3964,W,2.55,349.39,060116,,,D*7F
 
$GPVTG,349.39,T,,M,2.55,N,4.7,K,D*0D
 
$GPGGA,103113.000,4825.0958,N,00428.3966,W,2,11,0.8,107.0,M,52.0,M,4.8,0000*6C
 
$GPGSA,A,3,03,32,06,09,31,23,17,01,11,12,19,,1.5,0.8,1.3*3E
 
$GPRMC,103113.000,A,4825.0958,N,00428.3966,W,2.68,351.75,060116,,,D*7A
 
$GPVTG,351.75,T,,M,2.68,N,5.0,K,D*04
 
$GPGGA,103114.000,4825.0965,N,00428.3968,W,2,11,0.8,107.0,M,52.0,M,5.8,0000*6A
 
$GPGSA,A,3,03,32,06,09,31,23,17,01,11,12,19,,1.5,0.8,1.3*3E
 
$GPGSV,3,1,12,32,20,073,30,03,56,067,47,06,36,303,37,09,36,198,29*7E
 
$GPGSV,3,2,12,31,15,042,30,01,30,129,45,17,45,241,41,23,66,155,44*74
 
$GPGSV,3,3,12,11,12,146,26,19,44,225,37,12,05,325,40,49,33,167,33*7C
 
$GPRMC,103114.000,A,4825.0965,N,00428.3968,W,2.55,357.46,060116,,,D*75
 
$GPVTG,357.46,T,,M,2.55,N,4.7,K,D*0A
 
$GPGGA,103115.000,4825.0973,N,00428.3969,W,2,11,0.8,106.9,M,52.0,M,6.8,0000*66
 
$GPGSA,A,3,03,32,06,09,31,23,17,01,11,12,19,,1.5,0.8,1.3*3E
 
$GPRMC,103115.000,A,4825.0973,N,00428.3969,W,2.59,353.86,060116,,,D*76
 
$GPVTG,353.86,T,,M,2.59,N,4.8,K,D*01
 
$GPGGA,103116.000,4825.0980,N,00428.3971,W,2,11,0.8,106.6,M,52.0,M,7.8,0000*6E
 
$GPGSA,A,3,03,32,06,09,31,23,17,01,11,12,19,,1.5,0.8,1.3*3E
 
$GPRMC,103116.000,A,4825.0980,N,00428.3971,W,2.73,352.09,060116,,,D*7E
 
$GPVTG,352.09,T,,M,2.73,N,5.1,K,D*07
 
$GPGGA,103117.000,4825.0988,N,00428.3972,W,2,11,0.8,106.3,M,52.0,M,8.8,0000*6E
 
$GPGSA,A,3,03,32,06,09,31,23,17,01,11,12,19,,1.5,0.8,1.3*3E
 
$GPGSV,3,1,12,32,20,073,31,03,56,067,47,06,36,303,32,09,36,198,30*72
 
$GPGSV,3,2,12,31,15,042,38,01,30,129,44,17,45,241,42,23,66,155,45*7F
 
$GPGSV,3,3,12,11,12,146,33,19,44,225,37,12,05,325,40,49,33,167,33*78
 
$GPRMC,103117.000,A,4825.0988,N,00428.3972,W,2.79,352.32,060116,,,D*76
 
$GPVTG,352.32,T,,M,2.79,N,5.2,K,D*06
 
$GPGGA,103118.000,4825.0996,N,00428.3974,W,2,11,0.8,106.0,M,52.0,M,9.8,0000*6A
 
$GPGSA,A,3,03,32,06,09,31,23,17,01,11,12,19,,1.5,0.8,1.3*3E
 
$GPRMC,103118.000,A,4825.0996,N,00428.3974,W,2.73,349.76,060116,,,D*70
 
$GPVTG,349.76,T,,M,2.73,N,5.1,K,D*05
 
$GPGGA,103119.000,4825.1004,N,00428.3976,W,2,11,0.8,105.7,M,52.0,M,1.8,0000*66
 
$GPGSA,A,3,03,32,06,09,31,23,17,01,11,12,19,,1.5,0.8,1.3*3E
 
$GPRMC,103119.000,A,4825.1004,N,00428.3976,W,2.78,353.30,060116,,,D*72
 
$GPVTG,353.30,T,,M,2.78,N,5.2,K,D*04
 
$GPGGA,103120.000,4825.1012,N,00428.3978,W,2,11,0.8,105.5,M,52.0,M,1.8,0000*67
 
$GPGSA,A,3,03,32,06,09,31,23,17,01,11,12,19,,1.5,0.8,1.3*3E
 
$GPGSV,3,1,12,32,20,073,31,03,56,067,47,06,36,303,35,09,36,198,29*7D
 
$GPGSV,3,2,12,31,15,042,38,01,30,129,44,17,45,241,42,23,66,155,45*7F
 
$GPGSV,3,3,12,11,12,146,34,19,44,225,37,12,05,325,40,49,33,167,32*7E
 
$GPRMC,103120.000,A,4825.1012,N,00428.3978,W,2.60,354.57,060116,,,D*7E
 
$GPVTG,354.57,T,,M,2.60,N,4.8,K,D*00
 
$GPGGA,103121.000,4825.1020,N,00428.3979,W,2,11,0.8,105.2,M,52.0,M,2.8,0000*62
 
$GPGSA,A,3,03,32,06,09,31,23,17,01,11,12,19,,1.5,0.8,1.3*3E
 
$GPRMC,103121.000,A,4825.1020,N,00428.3979,W,2.77,355.08,060116,,,D*72
 
$GPVTG,355.08,T,,M,2.77,N,5.1,K,D*05
 
$GPGGA,103122.000,4825.1028,N,00428.3980,W,2,11,0.8,104.8,M,52.0,M,3.8,0000*65
 
$GPGSA,A,3,03,32,06,09,31,23,17,01,11,12,19,,1.5,0.8,1.3*3E
 
$GPRMC,103122.000,A,4825.1028,N,00428.3980,W,2.69,357.04,060116,,,D*7E
 
$GPVTG,357.04,T,,M,2.69,N,5.0,K,D*05
 
$GPGGA,103123.000,4825.1035,N,00428.3981,W,2,11,0.8,104.6,M,52.0,M,1.8,0000*65
 
$GPGSA,A,3,03,32,06,09,31,23,17,01,11,12,19,,1.5,0.8,1.3*3E
 
$GPGSV,3,1,12,32,20,073,30,03,56,067,47,06,36,303,35,09,36,198,29*7C
 
$GPGSV,3,2,12,31,15,042,38,01,30,129,45,17,45,241,36,23,66,155,45*7D
 
$GPGSV,3,3,12,11,12,146,41,19,44,225,37,12,05,325,40,49,33,167,33*7D
 
$GPRMC,103123.000,A,4825.1035,N,00428.3981,W,2.40,357.45,060116,,,D*7C
 
$GPVTG,357.45,T,,M,2.40,N,4.4,K,D*0E
 
$GPGGA,103124.000,4825.1043,N,00428.3981,W,2,11,0.8,104.3,M,52.0,M,1.8,0000*66
 
$GPGSA,A,3,03,32,06,09,31,23,17,01,11,12,19,,1.5,0.8,1.3*3E
 
$GPRMC,103124.000,A,4825.1043,N,00428.3981,W,2.51,357.35,060116,,,D*7D
 
$GPVTG,357.35,T,,M,2.51,N,4.6,K,D*0B
 
$GPGGA,103125.000,4825.1050,N,00428.3982,W,2,11,0.8,104.1,M,52.0,M,2.8,0000*67
 
$GPGSA,A,3,03,32,06,09,31,23,17,01,11,12,19,,1.5,0.8,1.3*3E
 
$GPRMC,103125.000,A,4825.1050,N,00428.3982,W,2.42,357.79,060116,,,D*77
 
$GPVTG,357.79,T,,M,2.42,N,4.5,K,D*02
 
$GPGGA,103126.000,4825.1058,N,00428.3982,W,2,11,0.8,103.8,M,52.0,M,1.8,0000*61
 
$GPGSA,A,3,03,32,06,09,31,23,17,01,11,12,19,,1.5,0.8,1.3*3E
 
$GPGSV,3,1,12,32,20,073,29,03,56,067,46,06,36,303,40,09,36,198,34*7B
 
$GPGSV,3,2,12,31,15,042,38,01,30,129,46,17,45,241,39,23,66,155,45*71
 
$GPGSV,3,3,12,11,12,146,40,19,44,225,32,12,05,325,40,49,33,167,38*72
 
$GPRMC,103126.000,A,4825.1058,N,00428.3982,W,2.53,354.54,060116,,,D*70
 
$GPVTG,354.54,T,,M,2.53,N,4.7,K,D*0C
 
$GPGGA,103127.000,4825.1065,N,00428.3982,W,2,11,0.8,103.6,M,52.0,M,1.8,0000*60
 
$GPGSA,A,3,03,32,06,09,31,23,17,01,11,12,19,,1.5,0.8,1.3*3E
 
$GPRMC,103127.000,A,4825.1065,N,00428.3982,W,2.43,3.83,060116,,,D*75
 
$GPVTG,3.83,T,,M,2.43,N,4.5,K,D*04
 
$GPGGA,103128.000,4825.1073,N,00428.3982,W,2,11,0.8,103.5,M,52.0,M,1.8,0000*6B
 
$GPGSA,A,3,03,32,06,09,31,23,17,01,11,12,19,,1.5,0.8,1.3*3E
 
$GPRMC,103128.000,A,4825.1073,N,00428.3982,W,2.51,355.60,060116,,,D*73
 
$GPVTG,355.60,T,,M,2.51,N,4.6,K,D*09
 
$GPGGA,103129.000,4825.1080,N,00428.3982,W,2,11,0.8,103.4,M,52.0,M,2.8,0000*64
 
$GPGSA,A,3,03,32,06,09,31,23,17,01,11,12,19,,1.5,0.8,1.3*3E
 
$GPGSV,3,1,12,32,20,073,35,03,56,067,46,06,36,303,40,09,36,198,33*71
 
$GPGSV,3,2,12,31,15,042,30,01,30,129,46,17,45,241,41,23,66,155,45*76
 
$GPGSV,3,3,12,11,12,146,33,19,44,225,35,12,05,325,42,49,33,167,36*7D
 
$GPRMC,103129.000,A,4825.1080,N,00428.3982,W,2.38,353.63,060116,,,D*74
 
$GPVTG,353.63,T,,M,2.38,N,4.4,K,D*01
 
$GPGGA,103130.000,4825.1088,N,00428.3982,W,2,11,0.8,103.1,M,52.0,M,1.8,0000*62
 
$GPGSA,A,3,03,32,06,09,31,23,17,01,11,12,19,,1.5,0.8,1.3*3E
 
$GPRMC,103130.000,A,4825.1088,N,00428.3982,W,2.37,352.33,060116,,,D*7F
 
$GPVTG,352.33,T,,M,2.37,N,4.4,K,D*0A
 
$GPGGA,103131.000,4825.1095,N,00428.3982,W,2,11,0.8,102.7,M,52.0,M,2.8,0000*6B
 
$GPGSA,A,3,03,32,06,09,31,23,17,01,11,12,19,,1.5,0.8,1.3*3E
 
$GPRMC,103131.000,A,4825.1095,N,00428.3982,W,2.13,2.04,060116,,,D*76
 
$GPVTG,2.04,T,,M,2.13,N,3.9,K,D*04
 
$GPGGA,103132.000,4825.1101,N,00428.3980,W,2,11,0.8,102.2,M,52.0,M,1.8,0000*60
 
$GPGSA,A,3,03,32,06,09,31,23,17,01,11,12,19,,1.5,0.8,1.3*3E
 
$GPGSV,3,1,12,32,20,073,34,03,56,067,46,06,36,303,40,09,36,198,43*77
 
$GPGSV,3,2,12,31,15,042,41,01,30,129,44,17,45,241,41,23,66,155,45*72
 
$GPGSV,3,3,12,11,12,146,32,19,44,225,42,12,05,325,43,49,33,167,46*7A
 
$GPRMC,103132.000,A,4825.1101,N,00428.3980,W,1.83,19.18,060116,,,D*46
 
$GPVTG,19.18,T,,M,1.83,N,3.4,K,D*34
 
$GPGGA,103133.000,4825.1107,N,00428.3975,W,2,11,0.8,102.0,M,52.0,M,2.8,0000*6C
 
$GPGSA,A,3,03,32,06,09,31,23,17,01,11,12,19,,1.5,0.8,1.3*3E
 
$GPRMC,103133.000,A,4825.1107,N,00428.3975,W,2.21,38.75,060116,,,D*48
 
$GPVTG,38.75,T,,M,2.21,N,4.1,K,D*35
 
$GPGGA,103134.000,4825.1112,N,00428.3968,W,2,11,0.8,101.9,M,52.0,M,1.8,0000*6A
 
$GPGSA,A,3,03,32,06,09,31,23,17,01,11,12,19,,1.5,0.8,1.3*3E
 
$GPRMC,103134.000,A,4825.1112,N,00428.3968,W,2.16,52.13,060116,,,D*4F
 
$GPVTG,52.13,T,,M,2.16,N,4.0,K,D*3C
 
$GPGGA,103135.000,4825.1117,N,00428.3961,W,2,11,0.8,101.7,M,52.0,M,1.8,0000*69
 
$GPGSA,A,3,03,32,06,09,31,23,17,01,11,12,19,,1.5,0.8,1.3*3E
 
$GPGSV,3,1,12,32,20,073,31,03,56,067,42,06,36,303,40,09,36,198,34*76
 
$GPGSV,3,2,12,31,15,042,46,01,30,129,42,17,45,241,36,23,66,155,45*73
 
$GPGSV,3,3,12,11,12,146,32,19,44,225,35,12,05,325,42,49,33,167,40*7D
 
$GPRMC,103135.000,A,4825.1117,N,00428.3961,W,1.51,36.52,060116,,,D*45
 
$GPVTG,36.52,T,,M,1.51,N,2.8,K,D*35
 
$GPGGA,103136.000,4825.1122,N,00428.3955,W,2,11,0.8,101.6,M,52.0,M,1.8,0000*6A
 
$GPGSA,A,3,03,32,06,09,31,23,17,01,11,12,19,,1.5,0.8,1.3*3E
 
$GPRMC,103136.000,A,4825.1122,N,00428.3955,W,2.49,36.07,060116,,,D*4D
 
$GPVTG,36.07,T,,M,2.49,N,4.6,K,D*37
 
$GPGGA,103137.000,4825.1129,N,00428.3947,W,2,11,0.8,101.6,M,52.0,M,2.8,0000*60
 
$GPGSA,A,3,03,32,06,09,31,23,17,01,11,12,19,,1.5,0.8,1.3*3E
 
$GPRMC,103137.000,A,4825.1129,N,00428.3947,W,2.77,41.24,060116,,,D*48
 
$GPVTG,41.24,T,,M,2.77,N,5.1,K,D*3D
 
$GPGGA,103138.000,4825.1135,N,00428.3938,W,2,11,0.8,101.6,M,52.0,M,1.8,0000*69
 
$GPGSA,A,3,03,32,06,09,31,23,17,01,11,12,19,,1.5,0.8,1.3*3E
 
$GPGSV,3,1,12,32,19,073,30,03,56,067,43,06,36,303,39,09,36,198,34*72
 
$GPGSV,3,2,12,31,15,041,45,01,30,130,45,17,45,240,36,23,66,154,45*7C
 
$GPGSV,3,3,12,11,11,146,28,19,44,225,35,12,04,325,42,49,33,167,44*70
 
$GPRMC,103138.000,A,4825.1135,N,00428.3938,W,2.90,45.59,060116,,,D*45
 
$GPVTG,45.59,T,,M,2.90,N,5.4,K,D*3F
 
$GPGGA,103139.000,4825.1142,N,00428.3929,W,2,11,0.8,101.5,M,52.0,M,1.8,0000*6B
 
$GPGSA,A,3,03,32,06,09,31,23,17,01,11,12,19,,1.5,0.8,1.3*3E
 
$GPRMC,103139.000,A,4825.1142,N,00428.3929,W,2.76,35.50,060116,,,D*42
 
$GPVTG,35.50,T,,M,2.76,N,5.1,K,D*3C
 
$GPGGA,103140.000,4825.1148,N,00428.3922,W,2,11,0.8,101.4,M,52.0,M,1.8,0000*65
 
$GPGSA,A,3,03,32,06,09,31,23,17,01,11,12,19,,1.5,0.8,1.3*3E
 
$GPRMC,103140.000,A,4825.1148,N,00428.3922,W,2.86,37.69,060116,,,D*4A
 
$GPVTG,37.69,T,,M,2.86,N,5.3,K,D*39
 
$GPGGA,103141.000,4825.1155,N,00428.3915,W,2,11,0.8,101.3,M,52.0,M,2.8,0000*68
 
$GPGSA,A,3,03,32,06,09,31,23,17,01,11,12,19,,1.5,0.8,1.3*3E
 
$GPGSV,3,1,12,32,19,073,29,03,56,067,43,06,36,303,40,09,36,198,35*75
 
$GPGSV,3,2,12,31,15,041,37,01,30,130,47,17,45,240,36,23,66,154,46*78
 
$GPGSV,3,3,12,11,11,146,25,19,44,225,35,12,04,325,37,49,33,167,44*7F
 
$GPRMC,103141.000,A,4825.1155,N,00428.3915,W,2.66,36.92,060116,,,D*48
 
$GPVTG,36.92,T,,M,2.66,N,4.9,K,D*39
 
$GPGGA,103142.000,4825.1162,N,00428.3906,W,2,11,0.8,101.2,M,52.0,M,1.8,0000*6F
 
$GPGSA,A,3,03,32,06,09,31,23,17,01,11,12,19,,1.5,0.8,1.3*3E
 
$GPRMC,103142.000,A,4825.1162,N,00428.3906,W,2.86,42.09,060116,,,D*42
 
$GPVTG,42.09,T,,M,2.86,N,5.3,K,D*3D
 
$GPGGA,103143.000,4825.1168,N,00428.3898,W,2,11,0.8,101.1,M,52.0,M,1.8,0000*61
 
$GPGSA,A,3,03,32,06,09,31,23,17,01,11,12,19,,1.5,0.8,1.3*3E
 
$GPRMC,103143.000,A,4825.1168,N,00428.3898,W,2.80,46.11,060116,,,D*44
 
$GPVTG,46.11,T,,M,2.80,N,5.2,K,D*37
 
$GPGGA,103144.000,4825.1174,N,00428.3890,W,2,11,0.8,101.0,M,52.0,M,1.8,0000*62
 
$GPGSA,A,3,03,32,06,09,31,23,17,01,11,12,19,,1.5,0.8,1.3*3E
 
$GPGSV,3,1,12,32,19,073,45,03,56,067,43,06,36,303,40,09,36,198,35*7F
 
$GPGSV,3,2,12,31,15,041,32,01,30,130,37,17,45,240,35,23,66,154,46*79
 
$GPGSV,3,3,12,11,11,146,22,19,44,225,36,12,04,325,38,49,33,167,44*74
 
$GPRMC,103144.000,A,4825.1174,N,00428.3890,W,2.72,38.73,060116,,,D*46
 
$GPVTG,38.73,T,,M,2.72,N,5.0,K,D*35
 
$GPGGA,103145.000,4825.1180,N,00428.3883,W,2,11,0.8,101.0,M,52.0,M,2.8,0000*69
 
$GPGSA,A,3,03,32,06,09,31,23,17,01,11,12,19,,1.5,0.8,1.3*3E
 
$GPRMC,103145.000,A,4825.1180,N,00428.3883,W,2.67,45.51,060116,,,D*40
 
$GPVTG,45.51,T,,M,2.67,N,4.9,K,D*33
 
$GPGGA,103146.000,4825.1186,N,00428.3874,W,2,11,0.8,100.9,M,52.0,M,1.8,0000*6F
 
$GPGSA,A,3,03,32,06,09,31,23,17,01,11,12,19,,1.5,0.8,1.3*3E
 
$GPRMC,103146.000,A,4825.1186,N,00428.3874,W,2.65,49.06,060116,,,D*41
 
$GPVTG,49.06,T,,M,2.65,N,4.9,K,D*3F
 
$GPGGA,103147.000,4825.1191,N,00428.3865,W,2,11,0.8,100.7,M,52.0,M,1.8,0000*66
 
$GPGSA,A,3,03,32,06,09,31,23,17,01,11,12,19,,1.5,0.8,1.3*3E
 
$GPGSV,3,1,12,32,19,073,44,03,56,067,43,06,36,303,40,09,36,198,40*7C
 
$GPGSV,3,2,12,31,15,041,32,01,30,130,29,17,45,240,36,23,66,154,46*75
 
$GPGSV,3,3,12,11,11,146,22,19,44,225,36,12,04,325,38,49,33,167,45*75
 
$GPRMC,103147.000,A,4825.1191,N,00428.3865,W,2.70,48.97,060116,,,D*4B
 
$GPVTG,48.97,T,,M,2.70,N,5.0,K,D*3A
 
$GPGGA,103148.000,4825.1196,N,00428.3856,W,2,11,0.8,100.6,M,52.0,M,1.8,0000*6F
 
$GPGSA,A,3,03,32,06,09,31,23,17,01,11,12,19,,1.5,0.8,1.3*3E
 
$GPRMC,103148.000,A,4825.1196,N,00428.3856,W,2.63,55.01,060116,,,D*42
 
$GPVTG,55.01,T,,M,2.63,N,4.9,K,D*33
 
$GPGGA,103149.000,4825.1200,N,00428.3847,W,2,11,0.8,100.3,M,52.0,M,2.8,0000*64
 
$GPGSA,A,3,03,32,06,09,31,23,17,01,11,12,19,,1.5,0.8,1.3*3E
 
$GPRMC,103149.000,A,4825.1200,N,00428.3847,W,2.65,62.86,060116,,,D*42
 
$GPVTG,62.86,T,,M,2.65,N,4.9,K,D*3E
 
$GPGGA,103150.000,4825.1203,N,00428.3836,W,2,11,0.8,100.1,M,52.0,M,1.8,0000*68
 
$GPGSA,A,3,03,32,06,09,31,23,17,01,11,12,19,,1.5,0.8,1.3*3E
 
$GPGSV,3,1,12,32,19,073,39,03,56,067,42,06,36,303,40,09,36,198,42*75
 
$GPGSV,3,2,12,31,15,041,32,01,30,130,29,17,45,240,40,23,66,154,46*74
 
$GPGSV,3,3,12,11,11,146,22,19,44,225,42,12,04,325,37,49,33,167,46*7A
 
$GPRMC,103150.000,A,4825.1203,N,00428.3836,W,2.85,69.44,060116,,,D*44
 
$GPVTG,69.44,T,,M,2.85,N,5.3,K,D*3E
 
$GPGGA,103151.000,4825.1204,N,00428.3826,W,2,11,0.8,99.9,M,52.0,M,1.8,0000*56
 
$GPGSA,A,3,03,32,06,09,31,23,17,01,11,12,19,,1.5,0.8,1.3*3E
 
$GPRMC,103151.000,A,4825.1204,N,00428.3826,W,2.11,91.68,060116,,,D*47
 
$GPVTG,91.68,T,,M,2.11,N,3.9,K,D*36
 
$GPGGA,103152.000,4825.1204,N,00428.3816,W,2,11,0.8,99.7,M,52.0,M,1.8,0000*58
 
$GPGSA,A,3,03,32,06,09,31,23,17,01,11,12,19,,1.5,0.8,1.3*3E
 
$GPRMC,103152.000,A,4825.1204,N,00428.3816,W,2.61,71.16,060116,,,D*47
 
$GPVTG,71.16,T,,M,2.61,N,4.8,K,D*30
 
$GPGGA,103153.000,4825.1207,N,00428.3805,W,2,11,0.8,99.3,M,52.0,M,2.8,0000*5F
 
$GPGSA,A,3,03,32,06,09,31,23,17,01,11,12,19,,1.5,0.8,1.3*3E
 
$GPGSV,3,1,12,32,19,073,32,03,56,067,43,06,36,303,31,09,36,198,43*78
 
$GPGSV,3,2,12,31,15,041,32,01,30,130,32,17,45,240,29,23,66,154,45*72
 
$GPGSV,3,3,12,11,11,146,24,19,44,225,33,12,04,325,30,49,33,167,29*74
 
$GPRMC,103153.000,A,4825.1207,N,00428.3805,W,2.81,71.92,060116,,,D*45
 
$GPVTG,71.92,T,,M,2.81,N,5.2,K,D*39
 
$GPGGA,103154.000,4825.1210,N,00428.3796,W,2,11,0.8,99.5,M,52.0,M,3.8,0000*5C
 
$GPGSA,A,3,03,32,06,09,31,23,17,01,11,12,19,,1.5,0.8,1.3*3E
 
$GPRMC,103154.000,A,4825.1210,N,00428.3796,W,2.77,75.68,060116,,,D*49
 
$GPVTG,75.68,T,,M,2.77,N,5.1,K,D*32
 
$GPGGA,103155.000,4825.1213,N,00428.3786,W,2,11,0.8,99.8,M,52.0,M,4.8,0000*55
 
$GPGSA,A,3,03,32,06,09,31,23,17,01,11,12,19,,1.5,0.8,1.3*3E
 
$GPRMC,103155.000,A,4825.1213,N,00428.3786,W,2.85,75.39,060116,,,D*43
 
$GPVTG,75.39,T,,M,2.85,N,5.3,K,D*39
 
$GPGGA,103156.000,4825.1215,N,00428.3776,W,2,11,0.8,100.1,M,52.0,M,5.8,0000*66
 
$GPGSA,A,3,03,32,06,09,31,23,17,01,11,12,19,,1.5,0.8,1.3*3E
 
$GPGSV,3,1,12,32,19,073,32,03,56,067,42,06,36,303,32,09,36,198,34*7A
 
$GPGSV,3,2,12,31,15,041,27,01,30,130,35,17,45,240,39,23,66,154,45*70
 
$GPGSV,3,3,12,11,11,146,24,19,44,225,43,12,04,325,29,49,33,167,29*7B
 
$GPRMC,103156.000,A,4825.1215,N,00428.3776,W,2.89,77.59,060116,,,D*41
 
$GPVTG,77.59,T,,M,2.89,N,5.4,K,D*36
 
$GPGGA,103157.000,4825.1218,N,00428.3766,W,2,11,0.8,100.1,M,52.0,M,6.8,0000*68
 
$GPGSA,A,3,03,32,06,09,31,23,17,01,11,12,19,,1.5,0.8,1.3*3E
 
$GPRMC,103157.000,A,4825.1218,N,00428.3766,W,2.58,68.91,060116,,,D*4A
 
$GPVTG,68.91,T,,M,2.58,N,4.8,K,D*3D
 
$GPGGA,103158.000,4825.1221,N,00428.3756,W,2,11,0.8,100.1,M,52.0,M,7.8,0000*6F
 
$GPGSA,A,3,03,32,06,09,31,23,17,01,11,12,19,,1.5,0.8,1.3*3E
 
$GPRMC,103158.000,A,4825.1221,N,00428.3756,W,2.56,79.52,060116,,,D*4D
 
$GPVTG,79.52,T,,M,2.56,N,4.7,K,D*33
 
$GPGGA,103159.000,4825.1223,N,00428.3745,W,2,10,0.9,99.8,M,52.0,M,8.8,0000*59
 
$GPGSA,A,3,03,32,06,09,31,23,17,01,11,19,,,1.8,0.9,1.6*34
 
$GPGSV,3,1,12,32,19,073,40,03,56,067,42,06,36,303,32,09,36,198,33*78
 
$GPGSV,3,2,12,31,15,041,32,01,30,130,26,17,45,240,38,23,66,154,44*76
 
$GPGSV,3,3,12,11,11,146,25,19,44,225,35,12,04,325,29,49,33,167,28*7A
 
$GPRMC,103159.000,A,4825.1223,N,00428.3745,W,2.18,62.38,060116,,,D*40
 
$GPVTG,62.38,T,,M,2.18,N,4.0,K,D*38
 
$GPGGA,103200.000,4825.1226,N,00428.3737,W,2,10,0.9,99.4,M,52.0,M,9.8,0000*5B
 
$GPGSA,A,3,03,32,06,09,31,23,17,01,11,19,,,1.8,0.9,1.6*34
 
$GPRMC,103200.000,A,4825.1226,N,00428.3737,W,2.07,57.86,060116,,,D*42
 
$GPVTG,57.86,T,,M,2.07,N,3.8,K,D*3A
 
$GPGGA,103201.000,4825.1229,N,00428.3729,W,2,10,0.9,98.9,M,52.0,M,10.8,0000*6E
 
$GPGSA,A,3,03,32,06,09,31,23,17,01,11,19,,,1.8,0.9,1.6*34
 
$GPRMC,103201.000,A,4825.1229,N,00428.3729,W,2.18,67.54,060116,,,D*41
 
$GPVTG,67.54,T,,M,2.18,N,4.0,K,D*37
 
$GPGGA,103202.000,4825.1232,N,00428.3720,W,2,10,0.9,98.4,M,52.0,M,11.8,0000*62
 
$GPGSA,A,3,03,32,06,09,31,23,17,01,11,19,,,1.8,0.9,1.6*34
 
$GPGSV,3,1,11,32,19,073,41,03,56,067,31,06,36,303,32,09,36,198,32*7F
 
$GPGSV,3,2,11,31,15,041,34,01,30,130,33,17,45,240,38,23,66,154,44*77
 
$GPGSV,3,3,11,11,11,146,26,19,44,225,33,12,04,325,27*45
 
$GPRMC,103202.000,A,4825.1232,N,00428.3720,W,2.29,81.95,060116,,,D*46
 
$GPVTG,81.95,T,,M,2.29,N,4.2,K,D*32
 
$GPGGA,103203.000,4825.1234,N,00428.3711,W,2,10,0.9,97.9,M,52.0,M,12.8,0000*66
 
$GPGSA,A,3,03,32,06,09,31,23,17,01,11,19,,,1.8,0.9,1.6*34
 
$GPRMC,103203.000,A,4825.1234,N,00428.3711,W,2.29,75.61,060116,,,D*43
 
$GPVTG,75.61,T,,M,2.29,N,4.2,K,D*32
 
$GPGGA,103204.000,4825.1236,N,00428.3701,W,2,10,0.9,97.7,M,52.0,M,13.8,0000*6D
 
$GPGSA,A,3,03,32,06,09,31,23,17,01,11,19,,,1.8,0.9,1.6*34
 
$GPRMC,103204.000,A,4825.1236,N,00428.3701,W,2.35,78.95,060116,,,D*4C
 
$GPVTG,78.95,T,,M,2.35,N,4.4,K,D*3F
 
$GPGGA,103205.000,4825.1237,N,00428.3691,W,2,10,0.9,97.4,M,52.0,M,14.8,0000*61
 
$GPGSA,A,3,03,32,06,09,31,23,17,01,11,19,,,1.8,0.9,1.6*34
 
$GPGSV,3,1,11,32,19,073,40,03,56,067,41,06,36,303,31,09,36,198,29*70
 
$GPGSV,3,2,11,31,15,041,39,01,30,130,46,17,45,240,33,23,66,154,30*70
 
$GPGSV,3,3,11,11,11,146,27,19,44,225,34,12,04,325,25*41
 
$GPRMC,103205.000,A,4825.1237,N,00428.3691,W,2.28,85.09,060116,,,D*4F
 
$GPVTG,85.09,T,,M,2.28,N,4.2,K,D*32
 
$GPGGA,103206.000,4825.1238,N,00428.3681,W,2,10,0.9,97.2,M,52.0,M,15.8,0000*6B
 
$GPGSA,A,3,03,32,06,09,31,23,17,01,11,19,,,1.8,0.9,1.6*34
 
$GPRMC,103206.000,A,4825.1238,N,00428.3681,W,2.63,92.96,060116,,,D*4D
 
$GPVTG,92.96,T,,M,2.63,N,4.9,K,D*36
 
$GPGGA,103207.000,4825.1238,N,00428.3669,W,2,10,0.9,97.0,M,52.0,M,16.8,0000*6D
 
$GPGSA,A,3,03,32,06,09,31,23,17,01,11,19,,,1.8,0.9,1.6*34
 
$GPRMC,103207.000,A,4825.1238,N,00428.3669,W,2.69,94.52,060116,,,D*4E
 
$GPVTG,94.52,T,,M,2.69,N,5.0,K,D*3A
 
$GPGGA,103208.000,4825.1238,N,00428.3658,W,2,10,0.9,96.8,M,52.0,M,17.8,0000*68
 
$GPGSA,A,3,03,32,06,09,31,23,17,01,11,19,,,1.8,0.9,1.6*34
 
$GPGSV,3,1,11,32,19,073,41,03,56,067,42,06,36,303,28,09,36,198,27*74
 
$GPGSV,3,2,11,31,15,041,39,01,30,130,44,17,45,240,28,23,66,154,40*7F
 
$GPGSV,3,3,11,11,11,146,30,19,44,225,26,12,04,325,22*43
 
$GPRMC,103208.000,A,4825.1238,N,00428.3658,W,2.50,92.58,060116,,,D*45
 
$GPVTG,92.58,T,,M,2.50,N,4.6,K,D*3B
 
$GPGGA,103209.000,4825.1237,N,00428.3645,W,1,10,0.9,96.5,M,52.0,M,,0000*74
 
$GPGSA,A,3,03,32,06,09,31,23,17,01,11,19,,,1.8,0.9,1.6*34
 
$GPRMC,103209.000,A,4825.1237,N,00428.3645,W,2.41,90.44,060116,,,A*4D
 
$GPVTG,90.44,T,,M,2.41,N,4.5,K,A*32
 
$GPGGA,103210.000,4825.1237,N,00428.3634,W,1,10,0.9,96.5,M,52.0,M,,0000*7A
 
$GPGSA,A,3,03,32,06,09,31,23,17,01,11,19,,,1.8,0.9,1.6*34
 
$GPRMC,103210.000,A,4825.1237,N,00428.3634,W,2.66,92.45,060116,,,A*45
 
$GPVTG,92.45,T,,M,2.66,N,4.9,K,A*38
 
$GPGGA,103211.000,4825.1238,N,00428.3621,W,1,10,0.9,96.5,M,52.0,M,,0000*70
 
$GPGSA,A,3,03,32,06,09,31,23,17,01,11,19,,,1.8,0.9,1.6*34
 
$GPGSV,3,1,12,32,19,073,37,03,56,067,42,06,36,303,24,09,36,198,40*7B
 
$GPGSV,3,2,12,31,15,041,34,01,30,130,42,17,45,240,33,23,66,154,41*7C
 
$GPGSV,3,3,12,11,11,146,29,19,44,225,35,12,04,325,22,33,33,194,39*7C
 
$GPRMC,103211.000,A,4825.1238,N,00428.3621,W,2.82,76.98,060116,,,A*4F
 
$GPVTG,76.98,T,,M,2.82,N,5.2,K,A*32
 
$GPGGA,103212.000,4825.1239,N,00428.3608,W,1,10,0.9,96.6,M,52.0,M,,0000*7A
 
$GPGSA,A,3,03,32,06,09,31,23,17,01,11,19,,,1.8,0.9,1.6*34
 
$GPRMC,103212.000,A,4825.1239,N,00428.3608,W,2.93,83.69,060116,,,A*42
 
$GPVTG,83.69,T,,M,2.93,N,5.4,K,A*30
 
$GPGGA,103213.000,4825.1240,N,00428.3594,W,1,10,0.9,96.7,M,52.0,M,,0000*72
 
$GPGSA,A,3,03,32,06,09,31,23,17,01,11,19,,,1.8,0.9,1.6*34
 
$GPRMC,103213.000,A,4825.1240,N,00428.3594,W,2.98,81.90,060116,,,A*44
 
$GPVTG,81.90,T,,M,2.98,N,5.5,K,A*3E
 
$GPGGA,103214.000,4825.1241,N,00428.3581,W,1,10,0.9,96.8,M,52.0,M,,0000*7F
 
$GPGSA,A,3,03,32,06,09,31,23,17,01,11,19,,,1.8,0.9,1.6*34
 
$GPGSV,3,1,11,32,19,073,40,03,56,067,42,06,36,303,31,09,37,198,43*7E
 
$GPGSV,3,2,11,31,15,041,36,01,30,130,43,17,45,240,36,23,67,153,41*7F
 
$GPGSV,3,3,11,11,11,146,29,19,44,225,39,33,33,194,40*4E
 
$GPRMC,103214.000,A,4825.1241,N,00428.3581,W,2.90,79.08,060116,,,A*48
 
$GPVTG,79.08,T,,M,2.90,N,5.4,K,A*31
 
$GPGGA,103215.000,4825.1242,N,00428.3569,W,1,10,0.9,96.6,M,52.0,M,,0000*75
 
$GPGSA,A,3,03,32,06,09,31,23,17,01,11,19,,,1.8,0.9,1.6*34
 
$GPRMC,103215.000,A,4825.1242,N,00428.3569,W,2.96,84.28,060116,,,A*4A
 
$GPVTG,84.28,T,,M,2.96,N,5.5,K,A*36
 
$GPGGA,103216.000,4825.1244,N,00428.3556,W,1,10,0.9,96.6,M,52.0,M,,0000*7C
 
$GPGSA,A,3,03,32,06,09,31,23,17,01,11,19,,,1.8,0.9,1.6*34
 
$GPRMC,103216.000,A,4825.1244,N,00428.3556,W,2.94,79.42,060116,,,A*4F
 
$GPVTG,79.42,T,,M,2.94,N,5.5,K,A*3A
 
$GPGGA,103217.000,4825.1246,N,00428.3544,W,1,10,0.9,96.5,M,52.0,M,,0000*7F
 
$GPGSA,A,3,03,32,06,09,31,23,17,01,11,19,,,1.8,0.9,1.6*34
 
$GPGSV,3,1,11,32,19,073,41,03,56,067,42,06,36,303,33,09,37,198,43*7D
 
$GPGSV,3,2,11,31,15,041,36,01,30,130,42,17,45,240,36,23,67,153,42*7D
 
$GPGSV,3,3,11,11,11,146,29,19,44,225,40,33,33,194,40*40
 
$GPRMC,103217.000,A,4825.1246,N,00428.3544,W,2.86,72.02,060116,,,A*43
 
$GPVTG,72.02,T,,M,2.86,N,5.3,K,A*30
 
$GPGGA,103218.000,4825.1249,N,00428.3533,W,1,10,0.9,96.5,M,52.0,M,,0000*7F
 
$GPGSA,A,3,03,32,06,09,31,23,17,01,11,19,,,1.8,0.9,1.6*34
 
$GPRMC,103218.000,A,4825.1249,N,00428.3533,W,2.71,45.80,060116,,,A*45
 
$GPVTG,45.80,T,,M,2.71,N,5.0,K,A*35
 
$GPGGA,103219.000,4825.1256,N,00428.3529,W,1,10,0.9,96.4,M,52.0,M,,0000*7A
 
$GPGSA,A,3,03,32,06,09,31,23,17,01,11,19,,,1.8,0.9,1.6*34
 
$GPRMC,103219.000,A,4825.1256,N,00428.3529,W,2.55,3.00,060116,,,A*7D
 
$GPVTG,3.00,T,,M,2.55,N,4.7,K,A*0F
 
$GPGGA,103220.000,4825.1263,N,00428.3528,W,1,10,0.9,96.3,M,52.0,M,,0000*70
 
$GPGSA,A,3,03,32,06,09,31,23,17,01,11,19,,,1.8,0.9,1.6*34
 
$GPGSV,3,1,12,32,19,073,41,03,56,067,42,06,36,303,36,09,37,198,26*78
 
$GPGSV,3,2,12,31,15,041,37,01,30,130,44,17,45,240,36,23,67,153,42*79
 
$GPGSV,3,3,12,11,11,146,26,19,44,225,30,12,04,324,22,33,33,194,25*7A
 
$GPRMC,103220.000,A,4825.1263,N,00428.3528,W,2.50,358.99,060116,,,A*78
 
$GPVTG,358.99,T,,M,2.50,N,4.6,K,A*06
 
$GPGGA,103221.000,4825.1271,N,00428.3529,W,1,10,0.9,96.1,M,52.0,M,,0000*71
 
$GPGSA,A,3,03,32,06,09,31,23,17,01,11,19,,,1.8,0.9,1.6*34
 
$GPRMC,103221.000,A,4825.1271,N,00428.3529,W,2.72,357.05,060116,,,A*71
 
$GPVTG,357.05,T,,M,2.72,N,5.0,K,A*0B
 
$GPGGA,103222.000,4825.1279,N,00428.3531,W,1,10,0.9,95.9,M,52.0,M,,0000*78
 
$GPGSA,A,3,03,32,06,09,31,23,17,01,11,19,,,1.8,0.9,1.6*34
 
$GPRMC,103222.000,A,4825.1279,N,00428.3531,W,2.74,353.53,060116,,,A*72
 
$GPVTG,353.53,T,,M,2.74,N,5.1,K,A*0B
 
$GPGGA,103223.000,4825.1286,N,00428.3532,W,1,10,0.9,95.7,M,52.0,M,,0000*74
 
$GPGSA,A,3,03,32,06,09,31,23,17,01,11,19,,,1.8,0.9,1.6*34
 
$GPGSV,3,1,11,32,19,073,43,03,56,067,43,06,36,303,35,09,37,198,26*7B
 
$GPGSV,3,2,11,31,15,041,44,01,30,130,43,17,45,240,36,23,67,153,42*79
 
$GPGSV,3,3,11,11,11,146,28,19,44,225,30,12,04,324,26*48
 
$GPRMC,103223.000,A,4825.1286,N,00428.3532,W,2.68,355.37,060116,,,A*79
 
$GPVTG,355.37,T,,M,2.68,N,5.0,K,A*03
 
$GPGGA,103224.000,4825.1294,N,00428.3533,W,1,10,0.9,95.5,M,52.0,M,,0000*73
 
$GPGSA,A,3,03,32,06,09,31,23,17,01,11,19,,,1.8,0.9,1.6*34
 
$GPRMC,103224.000,A,4825.1294,N,00428.3533,W,2.69,353.01,060116,,,A*7E
 
$GPVTG,353.01,T,,M,2.69,N,5.0,K,A*01
 
$GPGGA,103225.000,4825.1301,N,00428.3534,W,1,10,0.9,95.3,M,52.0,M,,0000*7E
 
$GPGSA,A,3,03,32,06,09,31,23,17,01,11,19,,,1.8,0.9,1.6*34
 
$GPRMC,103225.000,A,4825.1301,N,00428.3534,W,2.58,353.39,060116,,,A*7C
 
$GPVTG,353.39,T,,M,2.58,N,4.8,K,A*01
 
$GPGGA,103226.000,4825.1309,N,00428.3535,W,1,10,0.9,95.1,M,52.0,M,,0000*76
 
$GPGSA,A,3,03,32,06,09,31,23,17,01,11,19,,,1.8,0.9,1.6*34
 
$GPGSV,3,1,11,32,19,073,43,03,56,067,43,06,36,303,36,09,37,198,27*79
 
$GPGSV,3,2,11,31,15,041,45,01,30,130,42,17,45,240,37,23,67,153,42*78
 
$GPGSV,3,3,11,11,11,146,29,19,44,225,34,12,04,324,24*4F
 
$GPRMC,103226.000,A,4825.1309,N,00428.3535,W,2.64,353.61,060116,,,A*74
 
$GPVTG,353.61,T,,M,2.64,N,4.9,K,A*02
 
$GPGGA,103227.000,4825.1317,N,00428.3536,W,1,10,0.9,95.1,M,52.0,M,,0000*7B
 
$GPGSA,A,3,03,32,06,09,31,23,17,01,11,19,,,1.8,0.9,1.6*34
 
$GPRMC,103227.000,A,4825.1317,N,00428.3536,W,2.60,353.30,060116,,,A*79
 
$GPVTG,353.30,T,,M,2.60,N,4.8,K,A*03
 
$GPGGA,103228.000,4825.1324,N,00428.3536,W,1,10,0.9,95.0,M,52.0,M,,0000*75
 
$GPGSA,A,3,03,32,06,09,31,23,17,01,11,19,,,1.8,0.9,1.6*34
 
$GPRMC,103228.000,A,4825.1324,N,00428.3536,W,2.59,349.26,060116,,,A*70
 
$GPVTG,349.26,T,,M,2.59,N,4.8,K,A*05
 
$GPGGA,103229.000,4825.1332,N,00428.3538,W,1,10,0.9,94.8,M,52.0,M,,0000*74
 
$GPGSA,A,3,03,32,06,09,31,23,17,01,11,19,,,1.8,0.9,1.6*34
 
$GPGSV,3,1,11,32,19,073,44,03,56,067,43,06,36,303,40,09,37,198,27*7F
 
$GPGSV,3,2,11,31,15,041,46,01,30,130,42,17,45,240,39,23,67,153,42*75
 
$GPGSV,3,3,11,11,11,146,32,19,44,225,36,12,04,324,25*46
 
$GPRMC,103229.000,A,4825.1332,N,00428.3538,W,2.60,347.94,060116,,,A*75
 
$GPVTG,347.94,T,,M,2.60,N,4.8,K,A*08
 
$GPGGA,103230.000,4825.1339,N,00428.3540,W,1,10,0.9,94.9,M,52.0,M,,0000*79
 
$GPGSA,A,3,03,32,06,09,31,23,17,01,11,19,,,1.8,0.9,1.6*34
 
$GPRMC,103230.000,A,4825.1339,N,00428.3540,W,2.59,351.80,060116,,,A*71
 
$GPVTG,351.80,T,,M,2.59,N,4.8,K,A*00
 
$GPGGA,103231.000,4825.1347,N,00428.3540,W,1,10,0.9,94.7,M,52.0,M,,0000*7F
 
$GPGSA,A,3,03,32,06,09,31,23,17,01,11,19,,,1.8,0.9,1.6*34
 
$GPRMC,103231.000,A,4825.1347,N,00428.3540,W,2.50,355.86,060116,,,A*72
 
$GPVTG,355.86,T,,M,2.50,N,4.6,K,A*05
 
$GPGGA,103232.000,4825.1354,N,00428.3540,W,1,10,0.9,94.5,M,52.0,M,,0000*7C
 
$GPGSA,A,3,03,32,06,09,31,23,17,01,11,19,,,1.8,0.9,1.6*34
 
$GPGSV,3,1,11,32,19,073,44,03,56,067,43,06,36,303,39,09,37,198,28*7E
 
$GPGSV,3,2,11,31,15,041,36,01,30,130,42,17,45,240,39,23,67,153,42*72
 
$GPGSV,3,3,11,11,11,146,42,19,44,225,28,12,04,324,24*4F
 
$GPRMC,103232.000,A,4825.1354,N,00428.3540,W,2.23,9.25,060116,,,A*74
 
$GPVTG,9.25,T,,M,2.23,N,4.1,K,A*05
 
$GPGGA,103233.000,4825.1359,N,00428.3537,W,1,10,0.9,94.5,M,52.0,M,,0000*70
 
$GPGSA,A,3,03,32,06,09,31,23,17,01,11,19,,,1.8,0.9,1.6*34
 
$GPRMC,103233.000,A,4825.1359,N,00428.3537,W,2.16,22.58,060116,,,A*4D
 
$GPVTG,22.58,T,,M,2.16,N,4.0,K,A*31
 
$GPGGA,103234.000,4825.1364,N,00428.3529,W,1,10,0.9,94.6,M,52.0,M,,0000*75
 
$GPGSA,A,3,03,32,06,09,31,23,17,01,11,19,,,1.8,0.9,1.6*34
 
$GPRMC,103234.000,A,4825.1364,N,00428.3529,W,2.51,69.30,060116,,,A*49
 
$GPVTG,69.30,T,,M,2.51,N,4.6,K,A*35
 
$GPGGA,103235.000,4825.1366,N,00428.3518,W,1,10,0.9,94.7,M,52.0,M,,0000*75
 
$GPGSA,A,3,03,32,06,09,31,23,17,01,11,19,,,1.8,0.9,1.6*34
 
$GPGSV,3,1,12,32,19,073,43,03,56,067,43,06,36,303,34,09,37,198,40*79
 
$GPGSV,3,2,12,31,15,041,29,01,30,130,43,17,45,240,33,23,67,153,42*74
 
$GPGSV,3,3,12,11,11,146,47,19,44,225,38,12,04,324,24,33,33,194,40*70
 
$GPRMC,103235.000,A,4825.1366,N,00428.3518,W,2.58,82.36,060116,,,A*42
 
$GPVTG,82.36,T,,M,2.58,N,4.8,K,A*31
 
$GPGGA,103236.000,4825.1367,N,00428.3506,W,1,10,0.9,94.7,M,52.0,M,,0000*78
 
$GPGSA,A,3,03,32,06,09,31,23,17,01,11,19,,,1.8,0.9,1.6*34
 
$GPRMC,103236.000,A,4825.1367,N,00428.3506,W,2.53,81.55,060116,,,A*42
 
$GPVTG,81.55,T,,M,2.53,N,4.7,K,A*33
 
$GPGGA,103237.000,4825.1369,N,00428.3495,W,1,10,0.9,94.8,M,52.0,M,,0000*73
 
$GPGSA,A,3,03,32,06,09,31,23,17,01,11,19,,,1.8,0.9,1.6*34
 
$GPRMC,103237.000,A,4825.1369,N,00428.3495,W,2.58,80.95,060116,,,A*40
 
$GPVTG,80.95,T,,M,2.58,N,4.8,K,A*3A
 
$GPGGA,103238.000,4825.1370,N,00428.3484,W,1,10,0.9,94.9,M,52.0,M,,0000*75
 
$GPGSA,A,3,03,32,06,09,31,23,17,01,11,19,,,1.8,0.9,1.6*34
 
$GPGSV,3,1,12,32,19,073,35,03,56,067,44,06,36,303,28,09,37,198,43*71
 
$GPGSV,3,2,12,31,15,041,27,01,30,130,43,17,45,240,35,23,67,153,42*7C
 
$GPGSV,3,3,12,11,11,146,47,19,44,225,40,12,04,324,25,33,33,194,40*7E
 
$GPRMC,103238.000,A,4825.1370,N,00428.3484,W,2.60,83.30,060116,,,A*40
 
$GPVTG,83.30,T,,M,2.60,N,4.8,K,A*3D
 
$GPGGA,103239.000,4825.1371,N,00428.3474,W,1,10,0.9,94.9,M,52.0,M,,0000*7A
 
$GPGSA,A,3,03,32,06,09,31,23,17,01,11,19,,,1.8,0.9,1.6*34
 
$GPRMC,103239.000,A,4825.1371,N,00428.3474,W,2.35,83.31,060116,,,A*4E
 
$GPVTG,83.31,T,,M,2.35,N,4.3,K,A*37
 
$GPGGA,103240.000,4825.1371,N,00428.3464,W,1,10,0.9,94.9,M,52.0,M,,0000*75
 
$GPGSA,A,3,03,32,06,09,31,23,17,01,11,19,,,1.8,0.9,1.6*34
 
$GPRMC,103240.000,A,4825.1371,N,00428.3464,W,2.08,84.30,060116,,,A*49
 
$GPVTG,84.30,T,,M,2.08,N,3.8,K,A*33
 
$GPGGA,103241.000,4825.1372,N,00428.3455,W,1,10,0.9,94.9,M,52.0,M,,0000*75
 
$GPGSA,A,3,03,32,06,09,31,23,17,01,11,19,,,1.8,0.9,1.6*34
 
$GPGSV,3,1,11,32,19,073,43,03,56,067,42,06,36,303,26,09,37,198,44*7C
 
$GPGSV,3,2,11,31,15,041,27,01,30,130,43,17,45,240,36,23,67,153,42*7C
 
$GPGSV,3,3,11,11,11,146,48,19,44,225,41,33,33,194,40*46
 
$GPRMC,103241.000,A,4825.1372,N,00428.3455,W,2.20,80.47,060116,,,A*47
 
$GPVTG,80.47,T,,M,2.20,N,4.1,K,A*33
 
$GPGGA,103242.000,4825.1373,N,00428.3446,W,1,10,0.9,94.8,M,52.0,M,,0000*74
 
$GPGSA,A,3,03,32,06,09,31,23,17,01,11,19,,,1.8,0.9,1.6*34
 
$GPRMC,103242.000,A,4825.1373,N,00428.3446,W,2.24,83.62,060116,,,A*47
 
$GPVTG,83.62,T,,M,2.24,N,4.1,K,A*33
 
$GPGGA,103243.000,4825.1374,N,00428.3437,W,1,10,0.9,94.8,M,52.0,M,,0000*74
 
$GPGSA,A,3,03,32,06,09,31,23,17,01,11,19,,,1.8,0.9,1.6*34
 
$GPRMC,103243.000,A,4825.1374,N,00428.3437,W,1.71,82.81,060116,,,A*48
 
$GPVTG,82.81,T,,M,1.71,N,3.2,K,A*38
 
$GPGGA,103244.000,4825.1375,N,00428.3430,W,1,10,0.9,94.7,M,52.0,M,,0000*7A
 
$GPGSA,A,3,03,32,06,09,31,23,17,01,11,19,,,1.8,0.9,1.6*34
 
$GPGSV,3,1,12,32,19,073,43,03,56,067,41,06,36,303,28,09,37,198,45*73
 
$GPGSV,3,2,12,31,15,041,27,01,30,130,43,17,45,240,36,23,67,153,42*7F
 
$GPGSV,3,3,12,11,11,146,49,19,44,225,41,12,04,324,27,33,33,194,40*73
 
$GPRMC,103244.000,A,4825.1375,N,00428.3430,W,2.01,77.69,060116,,,A*41
 
$GPVTG,77.69,T,,M,2.01,N,3.7,K,A*35
 
$GPGGA,103245.000,4825.1376,N,00428.3421,W,1,10,0.9,94.6,M,52.0,M,,0000*79
 
$GPGSA,A,3,03,32,06,09,31,23,17,01,11,19,,,1.8,0.9,1.6*34
 
$GPRMC,103245.000,A,4825.1376,N,00428.3421,W,2.11,82.82,060116,,,A*4D
 
$GPVTG,82.82,T,,M,2.11,N,3.9,K,A*35
 
$GPGGA,103246.000,4825.1376,N,00428.3412,W,1,10,0.9,94.6,M,52.0,M,,0000*7A
 
$GPGSA,A,3,03,32,06,09,31,23,17,01,11,19,,,1.8,0.9,1.6*34
 
$GPRMC,103246.000,A,4825.1376,N,00428.3412,W,2.17,86.42,060116,,,A*40
 
$GPVTG,86.42,T,,M,2.17,N,4.0,K,A*35
 
$GPGGA,103247.000,4825.1377,N,00428.3403,W,1,10,0.9,94.6,M,52.0,M,,0000*7A
 
$GPGSA,A,3,03,32,06,09,31,23,17,01,11,19,,,1.8,0.9,1.6*34
 
$GPGSV,3,1,12,32,19,073,44,03,56,067,41,06,36,303,27,09,37,198,46*78
 
$GPGSV,3,2,12,31,15,041,29,01,30,130,43,17,45,240,37,23,67,153,43*71
 
$GPGSV,3,3,12,11,11,146,49,19,44,225,42,12,04,324,32,33,33,194,43*77
 
$GPRMC,103247.000,A,4825.1377,N,00428.3403,W,2.27,82.51,060116,,,A*45
 
$GPVTG,82.51,T,,M,2.27,N,4.2,K,A*32
 
$GPGGA,103248.000,4825.1378,N,00428.3394,W,1,10,0.9,94.5,M,52.0,M,,0000*70
 
$GPGSA,A,3,03,32,06,09,31,23,17,01,11,19,,,1.8,0.9,1.6*34
 
$GPRMC,103248.000,A,4825.1378,N,00428.3394,W,1.99,82.90,060116,,,A*47
 
$GPVTG,82.90,T,,M,1.99,N,3.7,K,A*3B
 
$GPGGA,103249.000,4825.1378,N,00428.3386,W,1,10,0.9,94.5,M,52.0,M,,0000*72
 
$GPGSA,A,3,03,32,06,09,31,23,17,01,11,19,,,1.8,0.9,1.6*34
 
$GPRMC,103249.000,A,4825.1378,N,00428.3386,W,1.81,83.52,060116,,,A*43
 
$GPVTG,83.52,T,,M,1.81,N,3.3,K,A*39
 
$GPGGA,103250.000,4825.1378,N,00428.3378,W,1,09,1.1,94.4,M,52.0,M,,0000*7B
 
$GPGSA,A,3,03,32,09,31,23,17,01,11,19,,,,2.0,1.1,1.7*31
 
$GPGSV,3,1,12,32,19,073,37,03,55,068,40,06,36,303,23,09,37,198,46*75
 
$GPGSV,3,2,12,31,15,041,37,01,29,130,44,17,44,240,40,23,67,153,43*70
 
$GPGSV,3,3,12,11,11,146,49,19,43,224,42,12,04,324,30,33,33,194,43*73
 
$GPRMC,103250.000,A,4825.1378,N,00428.3378,W,1.75,96.07,060116,,,A*45
 
$GPVTG,96.07,T,,M,1.75,N,3.2,K,A*37
 
$GPGGA,103251.000,4825.1376,N,00428.3374,W,1,10,0.9,94.3,M,52.0,M,,0000*7E
 
$GPGSA,A,3,03,32,06,09,31,23,17,01,11,19,,,1.8,0.9,1.6*34
 
$GPRMC,103251.000,A,4825.1376,N,00428.3374,W,0.95,161.14,060116,,,A*72
 
$GPVTG,161.14,T,,M,0.95,N,1.8,K,A*0B
 
$GPGGA,103252.000,4825.1372,N,00428.3374,W,1,10,0.9,94.2,M,52.0,M,,0000*78
 
$GPGSA,A,3,03,32,06,09,31,23,17,01,11,19,,,1.8,0.9,1.6*34
 
$GPRMC,103252.000,A,4825.1372,N,00428.3374,W,2.06,185.11,060116,,,A*72
 
$GPVTG,185.11,T,,M,2.06,N,3.8,K,A*0E
 
$GPGGA,103253.000,4825.1366,N,00428.3375,W,1,10,0.9,94.2,M,52.0,M,,0000*7D
 
$GPGSA,A,3,03,32,06,09,31,23,17,01,11,19,,,1.8,0.9,1.6*34
 
$GPGSV,3,1,12,32,19,073,36,03,55,068,39,06,36,303,44,09,37,198,40*7D
 
$GPGSV,3,2,12,31,15,041,27,01,29,130,37,17,44,240,47,23,67,153,43*72
 
$GPGSV,3,3,12,11,11,146,42,19,43,224,46,12,04,324,25,33,33,194,42*79
 
$GPRMC,103253.000,A,4825.1366,N,00428.3375,W,2.48,178.36,060116,,,A*7A
 
$GPVTG,178.36,T,,M,2.48,N,4.6,K,A*0A
 
$GPGGA,103254.000,4825.1359,N,00428.3375,W,2,10,0.9,94.3,M,52.0,M,1.8,0000*53
 
$GPGSA,A,3,03,32,06,09,31,23,17,01,11,19,,,1.8,0.9,1.6*34
 
$GPRMC,103254.000,A,4825.1359,N,00428.3375,W,2.35,176.92,060116,,,D*7E
 
$GPVTG,176.92,T,,M,2.35,N,4.4,K,D*07
 
$GPGGA,103255.000,4825.1351,N,00428.3375,W,2,10,0.9,94.1,M,52.0,M,1.8,0000*58
 
$GPGSA,A,3,03,32,06,09,31,23,17,01,11,19,,,1.8,0.9,1.6*34
 
$GPRMC,103255.000,A,4825.1351,N,00428.3375,W,2.37,169.12,060116,,,D*73
 
$GPVTG,169.12,T,,M,2.37,N,4.4,K,D*03
 
$GPGGA,103256.000,4825.1344,N,00428.3374,W,2,10,0.9,93.9,M,52.0,M,1.8,0000*51
 
$GPGSA,A,3,03,32,06,09,31,23,17,01,11,19,,,1.8,0.9,1.6*34
 
$GPGSV,3,1,12,32,19,073,31,03,55,068,36,06,36,303,44,09,37,198,42*77
 
$GPGSV,3,2,12,31,15,041,28,01,29,130,29,17,44,240,47,23,67,153,43*72
 
$GPGSV,3,3,12,11,11,146,43,19,43,224,46,12,04,324,25,33,33,194,43*79
 
$GPRMC,103256.000,A,4825.1344,N,00428.3374,W,2.22,171.75,060116,,,D*79
 
$GPVTG,171.75,T,,M,2.22,N,4.1,K,D*0A
 
$GPGGA,103257.000,4825.1337,N,00428.3374,W,2,10,0.9,93.7,M,52.0,M,2.8,0000*59
 
$GPGSA,A,3,03,32,06,09,31,23,17,01,11,19,,,1.8,0.9,1.6*34
 
$GPRMC,103257.000,A,4825.1337,N,00428.3374,W,2.16,169.87,060116,,,D*7F
 
$GPVTG,169.87,T,,M,2.16,N,4.0,K,D*08
 
$GPGGA,103258.000,4825.1331,N,00428.3375,W,2,10,0.9,93.4,M,52.0,M,1.8,0000*51
 
$GPGSA,A,3,03,32,06,09,31,23,17,01,11,19,,,1.8,0.9,1.6*34
 
$GPRMC,103258.000,A,4825.1331,N,00428.3375,W,2.27,174.78,060116,,,D*79
 
$GPVTG,174.78,T,,M,2.27,N,4.2,K,D*04
 
$GPGGA,103259.000,4825.1324,N,00428.3375,W,2,10,0.9,93.3,M,52.0,M,1.8,0000*53
 
$GPGSA,A,3,03,32,06,09,31,23,17,01,11,19,,,1.8,0.9,1.6*34
 
$GPGSV,3,1,12,32,19,073,32,03,55,068,36,06,36,303,44,09,37,198,43*75
 
$GPGSV,3,2,12,31,15,041,28,01,29,130,32,17,44,240,47,23,67,153,44*7F
 
$GPGSV,3,3,12,11,11,146,43,19,43,224,46,12,04,324,27,33,33,194,42*7A
 
$GPRMC,103259.000,A,4825.1324,N,00428.3375,W,2.31,175.75,060116,,,D*77
 
$GPVTG,175.75,T,,M,2.31,N,4.3,K,D*0E
 
$GPGGA,103300.000,4825.1318,N,00428.3374,W,2,10,0.9,93.4,M,52.0,M,1.8,0000*57
 
$GPGSA,A,3,03,32,06,09,31,23,17,01,11,19,,,1.8,0.9,1.6*34
 
$GPRMC,103300.000,A,4825.1318,N,00428.3374,W,2.07,175.31,060116,,,D*71
 
$GPVTG,175.31,T,,M,2.07,N,3.8,K,D*07
 
$GPGGA,103301.000,4825.1312,N,00428.3372,W,2,10,0.9,93.5,M,52.0,M,2.8,0000*58
 
$GPGSA,A,3,03,32,06,09,31,23,17,01,11,19,,,1.8,0.9,1.6*34
 
$GPRMC,103301.000,A,4825.1312,N,00428.3372,W,2.07,171.38,060116,,,D*71
 
$GPVTG,171.38,T,,M,2.07,N,3.8,K,D*0A
 
$GPGGA,103302.000,4825.1306,N,00428.3371,W,2,10,0.9,93.6,M,52.0,M,1.8,0000*5D
 
$GPGSA,A,3,03,32,06,09,31,23,17,01,11,19,,,1.8,0.9,1.6*34
 
$GPGSV,3,1,12,32,19,073,24,03,55,068,36,06,36,303,44,09,37,198,44*75
 
$GPGSV,3,2,12,31,15,041,29,01,29,130,32,17,44,240,47,23,67,153,44*7E
 
$GPGSV,3,3,12,11,11,146,42,19,43,224,46,12,04,324,26,33,33,194,40*78
 
$GPRMC,103302.000,A,4825.1306,N,00428.3371,W,2.11,172.48,060116,,,D*77
 
$GPVTG,172.48,T,,M,2.11,N,3.9,K,D*08
 
$GPGGA,103303.000,4825.1300,N,00428.3370,W,2,10,0.9,93.6,M,52.0,M,1.8,0000*5B
 
$GPGSA,A,3,03,32,06,09,31,23,17,01,11,19,,,1.8,0.9,1.6*34
 
$GPRMC,103303.000,A,4825.1300,N,00428.3370,W,2.09,176.27,060116,,,D*75
 
$GPVTG,176.27,T,,M,2.09,N,3.9,K,D*0C
 
$GPGGA,103304.000,4825.1294,N,00428.3370,W,2,10,0.9,93.7,M,52.0,M,1.8,0000*51
 
$GPGSA,A,3,03,32,06,09,31,23,17,01,11,19,,,1.8,0.9,1.6*34
 
$GPRMC,103304.000,A,4825.1294,N,00428.3370,W,2.22,177.63,060116,,,D*76
 
$GPVTG,177.63,T,,M,2.22,N,4.1,K,D*0B
 
$GPGGA,103305.000,4825.1288,N,00428.3369,W,2,10,0.9,93.7,M,52.0,M,2.8,0000*56
 
$GPGSA,A,3,03,32,06,09,31,23,17,01,11,19,,,1.8,0.9,1.6*34
 
$GPGSV,3,1,12,32,19,073,34,03,55,068,36,06,36,303,44,09,37,198,45*75
 
$GPGSV,3,2,12,31,15,041,33,01,29,130,37,17,44,240,46,23,67,153,44*71
 
$GPGSV,3,3,12,11,11,146,42,19,43,224,46,12,04,324,27,33,33,194,40*79
 
$GPRMC,103305.000,A,4825.1288,N,00428.3369,W,2.23,172.68,060116,,,D*7D
 
$GPVTG,172.68,T,,M,2.23,N,4.1,K,D*04
 
$GPGGA,103306.000,4825.1282,N,00428.3368,W,2,10,0.9,93.7,M,52.0,M,1.8,0000*5D
 
$GPGSA,A,3,03,32,06,09,31,23,17,01,11,19,,,1.8,0.9,1.6*34
 
$GPRMC,103306.000,A,4825.1282,N,00428.3368,W,2.23,169.84,060116,,,D*7D
 
$GPVTG,169.84,T,,M,2.23,N,4.1,K,D*0C
 
$GPGGA,103307.000,4825.1276,N,00428.3366,W,2,10,0.9,93.8,M,52.0,M,1.8,0000*56
 
$GPGSA,A,3,03,32,06,09,31,23,17,01,11,19,,,1.8,0.9,1.6*34
 
$GPRMC,103307.000,A,4825.1276,N,00428.3366,W,2.21,169.29,060116,,,D*7C
 
$GPVTG,169.29,T,,M,2.21,N,4.1,K,D*09
 
$GPGGA,103308.000,4825.1270,N,00428.3365,W,2,10,0.9,93.8,M,52.0,M,1.8,0000*5C
 
$GPGSA,A,3,03,32,06,09,31,23,17,01,11,19,,,1.8,0.9,1.6*34
 
$GPGSV,3,1,12,32,19,073,33,03,55,068,36,06,37,303,43,09,37,198,46*77
 
$GPGSV,3,2,12,31,15,041,32,01,29,130,37,17,44,240,46,23,67,153,44*70
 
$GPGSV,3,3,12,11,11,146,41,19,43,224,46,12,04,324,27,33,33,194,36*7B
 
$GPRMC,103308.000,A,4825.1270,N,00428.3365,W,2.00,173.93,060116,,,D*7F
 
$GPVTG,173.93,T,,M,2.00,N,3.7,K,D*01
 
$GPGGA,103309.000,4825.1265,N,00428.3364,W,2,10,0.9,93.8,M,52.0,M,2.8,0000*5B
 
$GPGSA,A,3,03,32,06,09,31,23,17,01,11,19,,,1.8,0.9,1.6*34
 
$GPRMC,103309.000,A,4825.1265,N,00428.3364,W,1.81,168.75,060116,,,D*73
 
$GPVTG,168.75,T,,M,1.81,N,3.4,K,D*0A
 
$GPGGA,103310.000,4825.1261,N,00428.3361,W,2,10,0.9,93.8,M,52.0,M,1.8,0000*51
 
$GPGSA,A,3,03,32,06,09,31,23,17,01,11,19,,,1.8,0.9,1.6*34
 
$GPRMC,103310.000,A,4825.1261,N,00428.3361,W,1.64,127.83,060116,,,D*73
 
$GPVTG,127.83,T,,M,1.64,N,3.0,K,D*07
 
$GPGGA,103311.000,4825.1258,N,00428.3354,W,2,10,0.9,93.9,M,52.0,M,1.8,0000*5D
 
$GPGSA,A,3,03,32,06,09,31,23,17,01,11,19,,,1.8,0.9,1.6*34
 
$GPGSV,3,1,11,32,19,073,35,03,55,068,42,06,37,303,31,09,37,198,46*74
 
$GPGSV,3,2,11,31,15,041,37,01,29,130,42,17,44,240,46,23,67,153,45*75
 
$GPGSV,3,3,11,11,11,146,41,19,43,224,46,33,33,194,42*4C
 
$GPRMC,103311.000,A,4825.1258,N,00428.3354,W,2.01,101.68,060116,,,D*7F
 
$GPVTG,101.68,T,,M,2.01,N,3.7,K,D*01
 
$GPGGA,103312.000,4825.1255,N,00428.3347,W,2,10,0.9,94.7,M,52.0,M,1.8,0000*58
 
$GPGSA,A,3,03,32,06,09,31,23,17,01,11,19,,,1.8,0.9,1.6*34
 
$GPRMC,103312.000,A,4825.1255,N,00428.3347,W,2.23,93.10,060116,,,D*46
 
$GPVTG,93.10,T,,M,2.23,N,4.1,K,D*35
 
$GPGGA,103313.000,4825.1253,N,00428.3338,W,2,10,0.9,95.6,M,52.0,M,2.8,0000*54
 
$GPGSA,A,3,03,32,06,09,31,23,17,01,11,19,,,1.8,0.9,1.6*34
 
$GPRMC,103313.000,A,4825.1253,N,00428.3338,W,2.43,87.75,060116,,,D*49
 
$GPVTG,87.75,T,,M,2.43,N,4.5,K,D*31
 
$GPGGA,103314.000,4825.1251,N,00428.3329,W,2,10,0.9,96.2,M,52.0,M,1.8,0000*55
 
$GPGSA,A,3,03,32,06,09,31,23,17,01,11,19,,,1.8,0.9,1.6*34
 
$GPGSV,3,1,12,32,19,073,42,03,55,068,42,06,37,303,30,09,37,198,46*76
 
$GPGSV,3,2,12,31,15,041,36,01,29,130,43,17,44,240,38,23,67,153,44*7E
 
$GPGSV,3,3,12,11,11,146,41,19,43,224,45,12,04,324,27,33,33,194,42*7B
 
$GPRMC,103314.000,A,4825.1251,N,00428.3329,W,2.32,86.23,060116,,,D*48
 
$GPVTG,86.23,T,,M,2.32,N,4.3,K,D*33
 
$GPGGA,103315.000,4825.1250,N,00428.3320,W,2,10,0.9,96.8,M,52.0,M,1.8,0000*56
 
$GPGSA,A,3,03,32,06,09,31,23,17,01,11,19,,,1.8,0.9,1.6*34
 
$GPRMC,103315.000,A,4825.1250,N,00428.3320,W,2.24,82.75,060116,,,D*41
 
$GPVTG,82.75,T,,M,2.24,N,4.1,K,D*31
 
$GPGGA,103316.000,4825.1250,N,00428.3311,W,2,10,0.9,97.3,M,52.0,M,1.8,0000*5D
 
$GPGSA,A,3,03,32,06,09,31,23,17,01,11,19,,,1.8,0.9,1.6*34
 
$GPRMC,103316.000,A,4825.1250,N,00428.3311,W,2.43,81.78,060116,,,D*4F
 
$GPVTG,81.78,T,,M,2.43,N,4.5,K,D*3A
 
$GPGGA,183340.36,4824.6000,N,00429.9997,W,0,,100.000,164.174,M,,M,0,*54
 
$GNGSA,A,1,,,,,,,,,,,,,,,,,,,,,100.000,100.000,100.000*2F
 
$GPGSA,A,1,,,,,,,,,,,,,,,,,,,,,100.000,100.000,100.000*31
 
$GLGSA,A,1,,,,,,,,,,,,,,,,,,,,,100.000,100.000,100.000*2D
 
$BDGSA,A,1,,,,,,,,,,,,,,,,,,,,,100.000,100.000,100.000*20
 
$QZGSA,A,1,,,,,,,,,,,,,,,,,,,,,100.000,100.000,100.000*2D
 
$GPGSV,5,1,20,2,26,63,,3,5,,,6,7,28,,12,32,75,*41
 
$GPGSV,5,2,20,14,40,260,,22,5,,,24,8,137,,25,74,46,*71
 
$GPGSV,5,3,20,26,10,270,,29,62,185,,31,47,303,,32,31,229,*75
 
$GLGSV,5,4,20,68,16,290,,69,12,340,,76,30,109,,77,74,19,*5E
 
$GLGSV,5,5,20,78,26,309,,86,39,39,,87,63,146,,88,21,187,*5C
 
$GPRMC,183340.36,V,4824.6000,N,00429.9997,W,0.000,0.000,260217,,E,N*14
 
$GPGGA,183349.79,4825.0033,N,00428.2403,W,1,10,1.291,151.151,M,,M,0,*50
 
$GNGSA,A,3,2,12,14,25,26,29,31,32,69,86,,,,,,,,,,,1.991,1.291,1.516*1A
 
$GPGSA,A,3,2,12,14,25,26,29,31,32,,,,,,,,,,,,,1.991,1.291,1.516*05
 
$GLGSA,A,3,69,86,,,,,,,,,,,,,,,,,,,1.991,1.291,1.516*27
 
$BDGSA,A,3,,,,,,,,,,,,,,,,,,,,,1.991,1.291,1.516*2B
 
$QZGSA,A,3,,,,,,,,,,,,,,,,,,,,,1.991,1.291,1.516*26
 
$GPGSV,6,1,23,2,27,63,31,4,5,,,6,7,28,,12,32,75,34*42
 
$GPGSV,6,2,23,14,40,260,24,24,8,137,19,25,74,46,26,26,10,270,19*76
 
$GPGSV,6,3,23,29,63,185,23,31,47,303,30,32,31,229,24*40
 
$GLGSV,6,4,23,68,16,290,27,69,12,340,27,76,30,109,34,77,74,19,*59
 
$GLGSV,6,5,23,78,26,309,20,86,38,39,24,87,63,146,21,88,21,187,*5A
 
$BDGSV,6,6,23,205,10,109,,211,5,,,212,9,205,,213,12,35,*6A
 
$GPRMC,183349.79,A,4825.0033,N,00428.2403,W,1.928,0.000,260217,,E,A*01
 
$GPGGA,183350.79,4825.0015,N,00428.2377,W,1,13,0.898,148.046,M,,M,0,*56
 
$GNGSA,A,3,2,12,14,25,26,29,31,32,68,69,76,78,86,,,,,,,,1.708,0.898,1.453*16
 
$GPGSA,A,3,2,12,14,25,26,29,31,32,,,,,,,,,,,,,1.708,0.898,1.453*09
 
$GLGSA,A,3,68,69,76,78,86,,,,,,,,,,,,,,,,1.708,0.898,1.453*2B
 
$BDGSA,A,3,,,,,,,,,,,,,,,,,,,,,1.708,0.898,1.453*27
 
$QZGSA,A,3,,,,,,,,,,,,,,,,,,,,,1.708,0.898,1.453*2A
 
$GPGSV,6,1,23,2,27,63,28,4,5,,,6,7,28,,12,32,75,37*49
 
$GPGSV,6,2,23,14,40,260,28,24,8,137,17,25,74,46,30,26,10,270,18*72
 
$GPGSV,6,3,23,29,63,185,29,31,47,303,30,32,31,229,28*46
 
$GLGSV,6,4,23,68,16,290,25,69,12,340,23,76,30,109,35,77,74,19,*5E
 
$GLGSV,6,5,23,78,26,309,20,86,38,39,22,87,63,146,22,88,21,187,*5F
 
$BDGSV,6,6,23,205,10,109,,211,5,,,212,9,205,,213,12,35,*6A
 
$GPRMC,183350.79,A,4825.0015,N,00428.2377,W,1.559,0.000,260217,,E,A*03
 
$GPGGA,183352.00,4825.0036,N,00428.2384,W,1,13,0.898,145.034,M,,M,0,*5F
 
$GNGSA,A,3,2,12,14,25,26,29,31,32,68,69,76,78,86,,,,,,,,1.708,0.898,1.453*16
 
$GPGSA,A,3,2,12,14,25,26,29,31,32,,,,,,,,,,,,,1.708,0.898,1.453*09
 
$GLGSA,A,3,68,69,76,78,86,,,,,,,,,,,,,,,,1.708,0.898,1.453*2B
 
$BDGSA,A,3,,,,,,,,,,,,,,,,,,,,,1.708,0.898,1.453*27
 
$QZGSA,A,3,,,,,,,,,,,,,,,,,,,,,1.708,0.898,1.453*2A
 
$GPGSV,6,1,23,2,27,63,28,4,5,,,6,7,28,,12,32,75,35*4B
 
$GPGSV,6,2,23,14,40,260,28,24,8,137,17,25,74,46,29,26,10,270,18*7A
 
$GPGSV,6,3,23,29,63,185,25,31,47,303,33,32,31,229,29*48
 
$GLGSV,6,4,23,68,16,290,27,69,12,339,25,76,30,109,31,77,74,19,*50
 
$GLGSV,6,5,23,78,26,309,21,86,38,39,26,87,63,146,18,88,21,187,24*55
 
$BDGSV,6,6,23,205,10,109,,211,5,,,212,9,205,,213,12,35,*6A
 
$GPRMC,183352.00,A,4825.0036,N,00428.2384,W,1.362,0.000,260217,,E,A*0C
 
$GPGGA,183353.00,4825.0065,N,00428.2377,W,1,11,0.932,177.790,M,,M,0,*5F
 
$GNGSA,A,3,2,12,14,25,26,29,31,32,68,69,76,,,,,,,,,,1.673,0.932,1.390*13
 
$GPGSA,A,3,2,12,14,25,26,29,31,32,,,,,,,,,,,,,1.673,0.932,1.390*0D
 
$GLGSA,A,3,68,69,76,,,,,,,,,,,,,,,,,,1.673,0.932,1.390*2E
 
$BDGSA,A,3,,,,,,,,,,,,,,,,,,,,,1.673,0.932,1.390*23
 
$QZGSA,A,3,,,,,,,,,,,,,,,,,,,,,1.673,0.932,1.390*2E
 
$GPGSV,6,1,23,2,27,63,22,4,5,,,6,7,28,,12,32,75,34*40
 
$GPGSV,6,2,23,14,40,260,30,24,8,137,,25,74,46,24,26,10,270,18*78
 
$GPGSV,6,3,23,29,63,185,26,31,47,303,30,32,31,229,26*47
 
$GLGSV,6,4,23,68,16,290,29,69,12,339,20,76,30,109,29,77,74,19,*52
 
$GLGSV,6,5,23,78,26,309,20,86,38,39,30,87,63,146,22,88,21,187,24*5A
 
$BDGSV,6,6,23,205,10,109,,211,5,,,212,9,205,,213,12,35,*6A
 
$GPRMC,183353.00,A,4825.0065,N,00428.2377,W,1.299,321.081,260217,,E,A*0B
 
$GPGGA,183354.00,4825.0046,N,00428.2382,W,1,12,0.887,173.946,M,,M,0,*5E
 
$GNGSA,A,3,2,12,14,25,26,29,31,32,68,69,76,78,,,,,,,,,1.644,0.887,1.384*12
 
$GPGSA,A,3,2,12,14,25,26,29,31,32,,,,,,,,,,,,,1.644,0.887,1.384*03
 
$GLGSA,A,3,68,69,76,78,,,,,,,,,,,,,,,,,1.644,0.887,1.384*2F
 
$BDGSA,A,3,,,,,,,,,,,,,,,,,,,,,1.644,0.887,1.384*2D
 
$QZGSA,A,3,,,,,,,,,,,,,,,,,,,,,1.644,0.887,1.384*20
 
$GPGSV,6,1,23,2,27,63,27,4,5,,,6,7,28,,12,32,75,28*48
 
$GPGSV,6,2,23,14,40,260,30,24,8,137,,25,74,46,25,26,10,270,17*76
 
$GPGSV,6,3,23,29,63,185,23,31,47,303,30,32,31,229,29*4D
 
$GLGSV,6,4,23,68,16,290,29,69,12,339,25,76,30,109,26,77,74,19,*58
 
$GLGSV,6,5,23,78,26,309,24,86,38,39,31,87,63,146,24,88,21,187,22*5F
 
$BDGSV,6,6,23,205,10,109,,211,5,,,212,9,205,,213,12,35,*6A
 
$GPRMC,183354.00,A,4825.0046,N,00428.2382,W,1.662,330.240,260217,,E,A*08
 
$GPGGA,183355.00,4825.0044,N,00428.2383,W,1,12,0.887,171.180,M,,M,0,*5C
 
$GNGSA,A,3,2,12,14,25,26,29,31,32,68,69,76,78,,,,,,,,,1.644,0.887,1.384*12
 
$GPGSA,A,3,2,12,14,25,26,29,31,32,,,,,,,,,,,,,1.644,0.887,1.384*03
 
$GLGSA,A,3,68,69,76,78,,,,,,,,,,,,,,,,,1.644,0.887,1.384*2F
 
$BDGSA,A,3,,,,,,,,,,,,,,,,,,,,,1.644,0.887,1.384*2D
 
$QZGSA,A,3,,,,,,,,,,,,,,,,,,,,,1.644,0.887,1.384*20
 
$GPGSV,6,1,23,2,27,63,26,4,5,,,6,7,28,21,12,32,75,26*44
 
$GPGSV,6,2,23,14,40,260,31,24,8,137,12,25,74,46,27,26,10,270,17*76
 
$GPGSV,6,3,23,29,63,185,21,31,47,303,30,32,31,229,26*40
 
$GLGSV,6,4,23,68,16,290,30,69,12,339,24,76,30,109,27,77,74,19,*50
 
$GLGSV,6,5,23,78,26,309,23,86,38,39,30,87,63,146,24,88,21,187,18*50
 
$BDGSV,6,6,23,205,10,109,,211,5,,,212,9,205,,213,12,35,*6A
 
$GPRMC,183355.00,A,4825.0044,N,00428.2383,W,1.986,332.715,260217,,E,A*08
 
$GPGGA,183356.00,4825.0050,N,00428.2384,W,1,13,0.750,171.507,M,,M,0,*52
 
$GNGSA,A,3,2,12,14,24,25,26,29,31,32,68,69,76,78,,,,,,,,1.352,0.750,1.125*1A
 
$GPGSA,A,3,2,12,14,24,25,26,29,31,32,,,,,,,,,,,,1.352,0.750,1.125*0B
 
$GLGSA,A,3,68,69,76,78,,,,,,,,,,,,,,,,,1.352,0.750,1.125*21
 
$BDGSA,A,3,,,,,,,,,,,,,,,,,,,,,1.352,0.750,1.125*23
 
$QZGSA,A,3,,,,,,,,,,,,,,,,,,,,,1.352,0.750,1.125*2E
 
$GPGSV,6,1,23,2,27,63,28,4,5,,,6,7,28,14,12,32,75,32*49
 
$GPGSV,6,2,23,14,40,260,27,24,8,137,17,25,74,46,24,26,10,270,17*77
 
$GPGSV,6,3,23,29,63,185,23,31,47,303,34,32,31,229,26*46
 
$GLGSV,6,4,23,68,16,290,29,69,12,339,20,76,30,109,19,77,74,19,26*55
 
$GLGSV,6,5,23,78,26,309,21,86,38,39,32,87,63,146,26,88,21,187,20*59
 
$BDGSV,6,6,23,205,10,109,,211,5,,,212,9,205,,213,12,35,*6A
 
$GPRMC,183356.00,A,4825.0050,N,00428.2384,W,2.342,339.577,260217,,E,A*05
 
$GPGGA,183357.00,4825.0046,N,00428.2384,W,1,15,0.687,166.635,M,,M,0,*5D
 
$GNGSA,A,3,2,6,12,14,24,25,26,29,31,32,68,69,76,77,78,,,,,,1.172,0.687,0.949*24
 
$GPGSA,A,3,2,6,12,14,24,25,26,29,31,32,,,,,,,,,,,1.172,0.687,0.949*35
 
$GLGSA,A,3,68,69,76,77,78,,,,,,,,,,,,,,,,1.172,0.687,0.949*29
 
$BDGSA,A,3,,,,,,,,,,,,,,,,,,,,,1.172,0.687,0.949*2B
 
$QZGSA,A,3,,,,,,,,,,,,,,,,,,,,,1.172,0.687,0.949*26
 
$GPGSV,6,1,23,2,26,63,28,4,5,,,6,7,28,15,12,32,75,30*4B
 
$GPGSV,6,2,23,14,40,260,29,24,8,137,22,25,74,46,28,26,10,270,22*75
 
$GPGSV,6,3,23,29,63,185,22,31,47,303,31,32,31,229,29*4D
 
$GLGSV,6,4,23,68,16,290,27,69,12,339,20,76,30,109,24,77,74,19,27*54
 
$GLGSV,6,5,23,78,26,309,23,86,38,39,33,87,64,146,25,88,21,187,20*5E
 
$BDGSV,6,6,23,205,10,109,,211,5,,,212,9,205,,213,12,35,*6A
 
$GPRMC,183357.00,A,4825.0046,N,00428.2384,W,2.414,344.119,260217,,E,A*01
 
$GPGGA,183358.00,4825.0053,N,00428.2383,W,1,15,0.687,165.429,M,,M,0,*5D
 
$GNGSA,A,3,2,6,12,14,24,25,26,29,31,32,68,69,76,77,78,,,,,,1.172,0.687,0.949*24
 
$GPGSA,A,3,2,6,12,14,24,25,26,29,31,32,,,,,,,,,,,1.172,0.687,0.949*35
 
$GLGSA,A,3,68,69,76,77,78,,,,,,,,,,,,,,,,1.172,0.687,0.949*29
 
$BDGSA,A,3,,,,,,,,,,,,,,,,,,,,,1.172,0.687,0.949*2B
 
$QZGSA,A,3,,,,,,,,,,,,,,,,,,,,,1.172,0.687,0.949*26
 
$GPGSV,6,1,23,2,26,63,29,4,5,,,6,7,28,16,12,32,75,30*49
 
$GPGSV,6,2,23,14,40,260,28,24,8,137,24,25,74,46,34,26,10,270,18*76
 
$GPGSV,6,3,23,29,63,185,20,31,47,303,32,32,31,229,26*43
 
$GLGSV,6,4,23,68,16,290,26,69,12,339,23,76,30,109,31,77,74,19,29*5C
 
$GLGSV,6,5,23,78,26,309,24,86,38,39,33,87,64,146,26,88,21,187,20*5A
 
$BDGSV,6,6,23,205,10,109,,211,5,,,212,9,205,,213,12,35,*6A
 
$GPRMC,183358.00,A,4825.0053,N,00428.2383,W,2.622,343.094,260217,,E,A*09
 
$GPGGA,183359.00,4825.0061,N,00428.2386,W,1,15,0.687,163.423,M,,M,0,*54
 
$GNGSA,A,3,2,6,12,14,24,25,26,29,31,32,68,69,76,77,78,,,,,,1.172,0.687,0.949*24
 
$GPGSA,A,3,2,6,12,14,24,25,26,29,31,32,,,,,,,,,,,1.172,0.687,0.949*35
 
$GLGSA,A,3,68,69,76,77,78,,,,,,,,,,,,,,,,1.172,0.687,0.949*29
 
$BDGSA,A,3,,,,,,,,,,,,,,,,,,,,,1.172,0.687,0.949*2B
 
$QZGSA,A,3,,,,,,,,,,,,,,,,,,,,,1.172,0.687,0.949*26
 
$GPGSV,6,1,23,2,26,63,28,4,5,,,6,7,28,18,12,32,75,32*44
 
$GPGSV,6,2,23,14,40,260,25,24,8,137,25,25,74,46,34,26,10,270,22*73
 
$GPGSV,6,3,23,29,63,185,23,31,47,303,35,32,31,229,29*48
 
$GLGSV,6,4,23,68,16,290,28,69,12,339,27,76,30,109,32,77,74,19,28*54
 
$GLGSV,6,5,23,78,26,309,22,86,38,39,34,87,64,146,26,88,21,187,22*59
 
$BDGSV,6,6,23,205,10,109,,211,5,,,212,9,205,,213,12,35,*6A
 
$GPRMC,183359.00,A,4825.0061,N,00428.2386,W,2.845,342.811,260217,,E,A*07
 
$GPGGA,183400.00,4825.0066,N,00428.2393,W,1,15,0.687,161.789,M,,M,0,*5D
 
$GNGSA,A,3,2,6,12,14,24,25,26,29,31,32,68,69,76,77,78,,,,,,1.171,0.687,0.949*27
 
$GPGSA,A,3,2,6,12,14,24,25,26,29,31,32,,,,,,,,,,,1.171,0.687,0.949*36
 
$GLGSA,A,3,68,69,76,77,78,,,,,,,,,,,,,,,,1.171,0.687,0.949*2A
 
$BDGSA,A,3,,,,,,,,,,,,,,,,,,,,,1.171,0.687,0.949*28
 
$QZGSA,A,3,,,,,,,,,,,,,,,,,,,,,1.171,0.687,0.949*25
 
$GPGSV,6,1,23,2,26,63,24,4,5,,,6,7,28,18,12,32,75,32*48
 
$GPGSV,6,2,23,14,40,260,29,24,8,137,20,25,74,46,31,26,10,270,25*78
 
$GPGSV,6,3,23,29,63,185,24,31,47,303,32,32,31,229,31*41
 
$GLGSV,6,4,23,68,16,290,30,69,12,339,29,76,30,109,30,77,74,19,24*5D
 
$GLGSV,6,5,23,78,26,309,22,86,38,39,32,87,64,146,23,88,21,187,19*52
 
$BDGSV,6,6,23,205,10,109,,211,5,,,212,9,205,,213,12,35,23*6B
 
$GPRMC,183400.00,A,4825.0066,N,00428.2393,W,2.728,345.999,260217,,E,A*0D
 
$GPGGA,183401.00,4825.0072,N,00428.2398,W,1,15,0.687,162.048,M,,M,0,*5B
 
$GNGSA,A,3,2,6,12,14,24,25,26,29,31,32,68,69,76,77,78,,,,,,1.171,0.687,0.949*27
 
$GPGSA,A,3,2,6,12,14,24,25,26,29,31,32,,,,,,,,,,,1.171,0.687,0.949*36
 
$GLGSA,A,3,68,69,76,77,78,,,,,,,,,,,,,,,,1.171,0.687,0.949*2A
 
$BDGSA,A,3,,,,,,,,,,,,,,,,,,,,,1.171,0.687,0.949*28
 
$QZGSA,A,3,,,,,,,,,,,,,,,,,,,,,1.171,0.687,0.949*25
 
$GPGSV,6,1,23,2,26,63,22,4,5,,,6,7,28,19,12,32,75,34*49
 
$GPGSV,6,2,23,14,40,260,29,24,8,137,20,25,74,46,29,26,10,270,29*7D
 
$GPGSV,6,3,23,29,63,185,24,31,47,303,34,32,31,229,30*46
 
$GLGSV,6,4,23,68,16,290,27,69,12,339,27,76,30,109,28,77,74,19,23*5B
 
$GLGSV,6,5,23,78,26,309,20,86,38,39,34,87,64,146,26,88,21,187,23*5A
 
$BDGSV,6,6,23,205,10,109,,211,5,,,212,9,205,,213,12,35,11*6A
 
$GPRMC,183401.00,A,4825.0072,N,00428.2398,W,2.731,344.867,260217,,E,A*0B
 
$GPGGA,183402.00,4825.0081,N,00428.2401,W,1,15,0.687,161.083,M,,M,0,*57
 
$GNGSA,A,3,2,6,12,14,24,25,26,29,31,32,68,69,76,77,78,,,,,,1.171,0.687,0.949*27
 
$GPGSA,A,3,2,6,12,14,24,25,26,29,31,32,,,,,,,,,,,1.171,0.687,0.949*36
 
$GLGSA,A,3,68,69,76,77,78,,,,,,,,,,,,,,,,1.171,0.687,0.949*2A
 
$BDGSA,A,3,,,,,,,,,,,,,,,,,,,,,1.171,0.687,0.949*28
 
$QZGSA,A,3,,,,,,,,,,,,,,,,,,,,,1.171,0.687,0.949*25
 
$GPGSV,6,1,23,2,26,63,24,4,5,,,6,7,28,19,12,32,75,31*4A
 
$GPGSV,6,2,23,14,40,260,29,24,8,137,18,25,74,46,30,26,10,270,29*7E
 
$GPGSV,6,3,23,29,63,185,26,31,47,303,32,32,31,229,28*4B
 
$GLGSV,6,4,23,68,16,290,28,69,12,339,28,76,30,109,31,77,74,19,26*56
 
$GLGSV,6,5,23,78,26,309,22,86,38,39,33,87,64,146,24,88,21,187,24*5A
 
$BDGSV,6,6,23,205,10,109,,211,5,,,212,9,205,,213,12,35,11*6A
 
$GPRMC,183402.00,A,4825.0081,N,00428.2401,W,2.951,347.315,260217,,E,A*06
 
$GPGGA,183403.00,4825.0092,N,00428.2405,W,1,15,0.687,160.587,M,,M,0,*50
 
$GNGSA,A,3,2,6,12,14,24,25,26,29,31,32,68,69,76,77,78,,,,,,1.171,0.687,0.949*27
 
$GPGSA,A,3,2,6,12,14,24,25,26,29,31,32,,,,,,,,,,,1.171,0.687,0.949*36
 
$GLGSA,A,3,68,69,76,77,78,,,,,,,,,,,,,,,,1.171,0.687,0.949*2A
 
$BDGSA,A,3,,,,,,,,,,,,,,,,,,,,,1.171,0.687,0.949*28
 
$QZGSA,A,3,,,,,,,,,,,,,,,,,,,,,1.171,0.687,0.949*25
 
$GPGSV,6,1,22,2,26,63,27,4,5,,,6,7,28,19,12,32,75,32*4B
 
$GPGSV,6,2,22,14,40,260,29,24,8,137,21,25,74,46,30,26,10,270,28*74
 
$GPGSV,6,3,22,29,63,185,27,31,47,303,32,32,31,229,29*4A
 
$GLGSV,6,4,22,68,16,290,26,69,12,339,27,76,30,109,32,77,74,19,27*54
 
