$GPGGA,160737.94,4825.1574,N,00428.2333,W,0,,100.000,117.720,M,,M,0,*58
 
$GNGSA,A,1,,,,,,,,,,,,,,,,,,,,,100.000,100.000,100.000*2F
 
$GPGSA,A,1,,,,,,,,,,,,,,,,,,,,,100.000,100.000,100.000*31
 
$GLGSA,A,1,,,,,,,,,,,,,,,,,,,,,100.000,100.000,100.000*2D
 
$BDGSA,A,1,,,,,,,,,,,,,,,,,,,,,100.000,100.000,100.000*20
 
$QZGSA,A,1,,,,,,,,,,,,,,,,,,,,,100.000,100.000,100.000*2D
 
$GPGSV,6,1,22,6,9,75,,10,12,257,,12,85,28,,14,21,315,*74
 
$GPGSV,6,2,22,15,12,166,,17,9,33,,19,24,45,,24,59,105,*45
 
$GPGSV,6,3,22,25,47,245,,29,5,187,,32,41,299,*7D
 
$GLGSV,6,4,22,65,36,293,,66,7,345,,72,29,233,,74,67,2,*50
 
$GLGSV,6,5,22,75,31,287,,83,36,53,,84,34,124,*6F
 
$BDGSV,6,6,22,205,6,112,,208,17,29,,212,8,176,,214,19,241,*5D
 
$GPRMC,160737.94,V,4825.1574,N,00428.2333,W,0.000,0.000,040317,,E,N*1A
 
$GPGGA,160738.13,4825.1574,N,00428.2333,W,0,,100.000,117.720,M,,M,0,*58
 
$GNGSA,A,1,,,,,,,,,,,,,,,,,,,,,100.000,100.000,100.000*2F
 
$GPGSA,A,1,,,,,,,,,,,,,,,,,,,,,100.000,100.000,100.000*31
 
$GLGSA,A,1,,,,,,,,,,,,,,,,,,,,,100.000,100.000,100.000*2D
 
$BDGSA,A,1,,,,,,,,,,,,,,,,,,,,,100.000,100.000,100.000*20
 
$QZGSA,A,1,,,,,,,,,,,,,,,,,,,,,100.000,100.000,100.000*2D
 
$GPGSV,6,1,22,6,9,75,,10,12,257,20,12,85,28,20,14,21,315,*74
 
$GPGSV,6,2,22,15,12,166,20,17,9,33,,19,24,45,,24,59,105,20*45
 
$GPGSV,6,3,22,25,47,245,,29,5,187,,32,41,299,20*7F
 
$GLGSV,6,4,22,65,36,293,,66,7,345,,72,29,233,,74,67,2,*50
 
$GLGSV,6,5,22,75,31,287,,83,36,53,,84,34,124,*6F
 
$BDGSV,6,6,22,205,6,112,,208,17,29,,212,8,176,,214,19,241,*5D
 
$GPRMC,160738.13,V,4825.1574,N,00428.2333,W,0.000,0.000,040317,,E,N*1A
 
$GPGGA,160738.33,4825.1574,N,00428.2333,W,0,,100.000,117.720,M,,M,0,*5A
 
$GNGSA,A,1,,,,,,,,,,,,,,,,,,,,,100.000,100.000,100.000*2F
 
$GPGSA,A,1,,,,,,,,,,,,,,,,,,,,,100.000,100.000,100.000*31
 
$GLGSA,A,1,,,,,,,,,,,,,,,,,,,,,100.000,100.000,100.000*2D
 
$BDGSA,A,1,,,,,,,,,,,,,,,,,,,,,100.000,100.000,100.000*20
 
$QZGSA,A,1,,,,,,,,,,,,,,,,,,,,,100.000,100.000,100.000*2D
 
$GPGSV,6,1,22,6,9,75,,10,12,257,20,12,85,28,20,14,21,315,*74
 
$GPGSV,6,2,22,15,12,166,20,17,9,33,,19,24,45,,24,59,105,20*45
 
$GPGSV,6,3,22,25,47,245,,29,5,187,,32,41,299,20*7F
 
$GLGSV,6,4,22,65,36,293,24,66,7,345,,72,29,233,,74,67,2,24*50
 
$GLGSV,6,5,22,75,31,287,24,83,36,53,,84,34,124,24*6F
 
$BDGSV,6,6,22,205,6,112,,208,17,29,,212,8,176,,214,19,241,*5D
 
$GPRMC,160738.33,V,4825.1574,N,00428.2333,W,0.000,0.000,040317,,E,N*18
 
$GPGGA,160738.53,4825.1574,N,00428.2333,W,0,,100.000,117.720,M,,M,0,*5C
 
$GNGSA,A,1,,,,,,,,,,,,,,,,,,,,,100.000,100.000,100.000*2F
 
$GPGSA,A,1,,,,,,,,,,,,,,,,,,,,,100.000,100.000,100.000*31
 
$GLGSA,A,1,,,,,,,,,,,,,,,,,,,,,100.000,100.000,100.000*2D
 
$BDGSA,A,1,,,,,,,,,,,,,,,,,,,,,100.000,100.000,100.000*20
 
$QZGSA,A,1,,,,,,,,,,,,,,,,,,,,,100.000,100.000,100.000*2D
 
$GPGSV,6,1,22,6,9,75,,10,12,257,31,12,85,28,22,14,21,315,*76
 
$GPGSV,6,2,22,15,12,166,27,17,9,33,,19,24,45,,24,59,105,32*41
 
$GPGSV,6,3,22,25,47,245,,29,5,187,,32,41,299,31*7F
 
$GLGSV,6,4,22,65,36,293,24,66,7,345,,72,29,233,,74,67,2,24*50
 
$GLGSV,6,5,22,75,31,287,24,83,36,53,,84,34,124,24*6F
 
$BDGSV,6,6,22,205,6,112,,208,17,29,,212,8,176,,214,19,241,*5D
 
$GPRMC,160738.53,V,4825.1574,N,00428.2333,W,0.000,0.000,040317,,E,N*1E
 
$GPGGA,160738.74,4825.1574,N,00428.2333,W,0,,100.000,117.720,M,,M,0,*59
 
$GNGSA,A,1,,,,,,,,,,,,,,,,,,,,,100.000,100.000,100.000*2F
 
$GPGSA,A,1,,,,,,,,,,,,,,,,,,,,,100.000,100.000,100.000*31
 
$GLGSA,A,1,,,,,,,,,,,,,,,,,,,,,100.000,100.000,100.000*2D
 
$BDGSA,A,1,,,,,,,,,,,,,,,,,,,,,100.000,100.000,100.000*20
 
$QZGSA,A,1,,,,,,,,,,,,,,,,,,,,,100.000,100.000,100.000*2D
 
$GPGSV,6,1,22,6,9,75,,10,12,257,30,12,85,28,22,14,21,315,20*75
 
$GPGSV,6,2,22,15,12,166,27,17,9,33,,19,24,45,,24,59,105,32*41
 
$GPGSV,6,3,22,25,47,245,20,29,5,187,,32,41,299,28*75
 
$GLGSV,6,4,22,65,36,293,18,66,7,345,,72,29,233,,74,67,2,24*5F
 
$GLGSV,6,5,22,75,31,287,21,83,36,53,,84,34,124,29*67
 
$BDGSV,6,6,22,205,6,112,,208,17,29,,212,8,176,,214,19,241,*5D
 
$GPRMC,160738.74,V,4825.1574,N,00428.2333,W,0.000,0.000,040317,,E,N*1B
 
$GPGGA,160738.94,4825.1574,N,00428.2333,W,0,,100.000,117.720,M,,M,0,*57
 
$GNGSA,A,1,,,,,,,,,,,,,,,,,,,,,100.000,100.000,100.000*2F
 
$GPGSA,A,1,,,,,,,,,,,,,,,,,,,,,100.000,100.000,100.000*31
 
$GLGSA,A,1,,,,,,,,,,,,,,,,,,,,,100.000,100.000,100.000*2D
 
$BDGSA,A,1,,,,,,,,,,,,,,,,,,,,,100.000,100.000,100.000*20
 
$QZGSA,A,1,,,,,,,,,,,,,,,,,,,,,100.000,100.000,100.000*2D
 
$GPGSV,6,1,22,6,9,75,20,10,12,257,30,12,85,28,22,14,21,315,20*77
 
$GPGSV,6,2,22,15,12,166,27,17,9,33,,19,24,45,,24,59,105,32*41
 
$GPGSV,6,3,22,25,47,245,20,29,5,187,,32,41,299,28*75
 
$GLGSV,6,4,22,65,36,293,18,66,7,345,,72,29,233,,74,67,2,21*5A
 
$GLGSV,6,5,22,75,31,287,21,83,36,53,,84,34,124,28*66
 
$BDGSV,6,6,22,205,6,112,,208,17,29,,212,8,176,,214,19,241,*5D
 
$GPRMC,160738.94,V,4825.1574,N,00428.2333,W,0.000,0.000,040317,,E,N*15
 
$GPGGA,160739.14,4825.1574,N,00428.2333,W,0,,100.000,117.720,M,,M,0,*5E
 
$GNGSA,A,1,,,,,,,,,,,,,,,,,,,,,100.000,100.000,100.000*2F
 
$GPGSA,A,1,,,,,,,,,,,,,,,,,,,,,100.000,100.000,100.000*31
 
$GLGSA,A,1,,,,,,,,,,,,,,,,,,,,,100.000,100.000,100.000*2D
 
$BDGSA,A,1,,,,,,,,,,,,,,,,,,,,,100.000,100.000,100.000*20
 
$QZGSA,A,1,,,,,,,,,,,,,,,,,,,,,100.000,100.000,100.000*2D
 
$GPGSV,6,1,22,6,9,75,20,10,12,257,30,12,85,28,19,14,21,315,20*7F
 
$GPGSV,6,2,22,15,12,166,27,17,9,33,,19,24,45,20,24,59,105,32*43
 
$GPGSV,6,3,22,25,47,245,20,29,5,187,,32,41,299,28*75
 
$GLGSV,6,4,22,65,36,293,18,66,7,345,,72,29,233,,74,67,2,21*5A
 
$GLGSV,6,5,22,75,31,287,21,83,36,53,,84,34,124,28*66
 
$BDGSV,6,6,22,205,6,112,,208,17,29,,212,8,176,,214,19,241,*5D
 
$GPRMC,160739.14,V,4825.1574,N,00428.2333,W,0.000,0.000,040317,,E,N*1C
 
$GPGGA,160739.34,4825.1574,N,00428.2333,W,0,,100.000,117.720,M,,M,0,*5C
 
$GNGSA,A,1,,,,,,,,,,,,,,,,,,,,,100.000,100.000,100.000*2F
 
$GPGSA,A,1,,,,,,,,,,,,,,,,,,,,,100.000,100.000,100.000*31
 
$GLGSA,A,1,,,,,,,,,,,,,,,,,,,,,100.000,100.000,100.000*2D
 
$BDGSA,A,1,,,,,,,,,,,,,,,,,,,,,100.000,100.000,100.000*20
 
$QZGSA,A,1,,,,,,,,,,,,,,,,,,,,,100.000,100.000,100.000*2D
 
$GPGSV,6,1,22,6,9,75,20,10,12,257,30,12,85,28,19,14,21,315,30*7E
 
$GPGSV,6,2,22,15,12,166,27,17,9,33,,19,24,45,20,24,59,105,32*43
 
$GPGSV,6,3,22,25,47,245,33,29,5,187,,32,41,299,28*77
 
$GLGSV,6,4,22,65,36,293,19,66,7,345,,72,29,233,,74,67,2,21*5B
 
$GLGSV,6,5,22,75,31,287,24,83,36,53,,84,34,124,28*63
 
$BDGSV,6,6,22,205,6,112,,208,17,29,,212,8,176,,214,19,241,*5D
 
$GPRMC,160739.34,V,4825.1574,N,00428.2333,W,0.000,0.000,040317,,E,N*1E
 
$GPGGA,160739.54,4825.1574,N,00428.2333,W,0,1,100.000,117.720,M,,M,0,*6B
 
$GNGSA,A,1,10,,,,,,,,,,,,,,,,,,,,100.000,100.000,100.000*2E
 
$GPGSA,A,1,10,,,,,,,,,,,,,,,,,,,,100.000,100.000,100.000*30
 
$GLGSA,A,1,,,,,,,,,,,,,,,,,,,,,100.000,100.000,100.000*2D
 
$BDGSA,A,1,,,,,,,,,,,,,,,,,,,,,100.000,100.000,100.000*20
 
$QZGSA,A,1,,,,,,,,,,,,,,,,,,,,,100.000,100.000,100.000*2D
 
$GPGSV,6,1,22,6,9,75,14,10,12,257,31,12,85,28,19,14,21,315,26*7F
 
$GPGSV,6,2,22,15,12,166,30,17,9,33,,19,24,45,20,24,59,105,34*43
 
$GPGSV,6,3,22,25,47,245,30,29,5,187,,32,41,299,30*7D
 
$GLGSV,6,4,22,65,36,293,19,66,7,345,,72,29,233,,74,67,2,21*5B
 
$GLGSV,6,5,22,75,31,287,20,83,36,53,,84,34,124,28*67
 
$BDGSV,6,6,22,205,6,112,,208,17,29,,212,8,176,,214,19,241,*5D
 
$GPRMC,160739.54,V,4825.1574,N,00428.2333,W,0.000,0.000,040317,,E,N*18
 
$GPGGA,160739.75,4825.1645,N,00428.2778,W,0,4,22.540,59.610,M,,M,0,*6E
 
$GNGSA,A,1,10,15,24,32,,,,,,,,,,,,,,,,,37.452,22.540,29.910*19
 
$GPGSA,A,1,10,15,24,32,,,,,,,,,,,,,,,,,37.452,22.540,29.910*07
 
$GLGSA,A,1,,,,,,,,,,,,,,,,,,,,,37.452,22.540,29.910*19
 
$BDGSA,A,1,,,,,,,,,,,,,,,,,,,,,37.452,22.540,29.910*14
 
$QZGSA,A,1,,,,,,,,,,,,,,,,,,,,,37.452,22.540,29.910*19
 
$GPGSV,6,1,22,6,9,75,14,10,12,257,31,12,85,28,19,14,21,315,26*7F
 
$GPGSV,6,2,22,15,12,166,30,17,9,33,,19,24,45,15,24,59,105,34*45
 
$GPGSV,6,3,22,25,47,245,30,29,5,187,,32,41,299,30*7D
 
$GLGSV,6,4,22,65,36,293,19,66,7,345,,72,29,233,,74,67,2,21*5B
 
$GLGSV,6,5,22,75,31,287,20,83,36,53,,84,34,124,29*66
 
$BDGSV,6,6,22,205,10,109,,208,17,29,,212,8,176,,214,19,241,23*61
 
$GPRMC,160739.75,V,4825.1645,N,00428.2778,W,0.972,0.000,040317,,E,N*1D
 
$GPGGA,160740.04,4825.1638,N,00428.2768,W,0,4,22.549,59.759,M,,M,0,*68
 
$GNGSA,A,1,10,15,24,32,,,,,,,,,,,,,,,,,37.467,22.549,29.922*17
 
$GPGSA,A,1,10,15,24,32,,,,,,,,,,,,,,,,,37.467,22.549,29.922*09
 
$GLGSA,A,1,,,,,,,,,,,,,,,,,,,,,37.467,22.549,29.922*17
 
$BDGSA,A,1,,,,,,,,,,,,,,,,,,,,,37.467,22.549,29.922*1A
 
$QZGSA,A,1,,,,,,,,,,,,,,,,,,,,,37.467,22.549,29.922*17
 
$GPGSV,6,1,22,6,9,75,13,10,12,257,31,12,85,28,19,14,21,315,26*78
 
$GPGSV,6,2,22,15,12,166,30,17,9,33,,19,24,45,15,24,59,105,34*45
 
$GPGSV,6,3,22,25,47,245,30,29,5,187,,32,41,299,30*7D
 
$GLGSV,6,4,22,65,36,293,19,66,7,345,,72,29,233,,74,67,2,21*5B
 
$GLGSV,6,5,22,75,31,287,20,83,36,53,,84,34,124,29*66
 
$BDGSV,6,6,22,205,10,109,,208,17,29,,212,8,176,,214,19,241,23*61
 
$GPRMC,160740.04,V,4825.1638,N,00428.2768,W,7.725,0.000,040317,,E,N*15
 
$GPGGA,160740.24,4825.1605,N,00428.2768,W,0,4,22.558,59.865,M,,M,0,*64
 
$GNGSA,A,1,10,15,24,32,,,,,,,,,,,,,,,,,37.482,22.558,29.933*1C
 
$GPGSA,A,1,10,15,24,32,,,,,,,,,,,,,,,,,37.482,22.558,29.933*02
 
$GLGSA,A,1,,,,,,,,,,,,,,,,,,,,,37.482,22.558,29.933*1C
 
$BDGSA,A,1,,,,,,,,,,,,,,,,,,,,,37.482,22.558,29.933*11
 
$QZGSA,A,1,,,,,,,,,,,,,,,,,,,,,37.482,22.558,29.933*1C
 
$GPGSV,6,1,22,6,9,75,13,10,12,257,31,12,85,28,19,14,21,315,26*78
 
$GPGSV,6,2,22,15,12,166,30,17,9,33,,19,24,45,14,24,59,105,34*44
 
$GPGSV,6,3,22,25,47,245,30,29,5,187,,32,41,299,30*7D
 
$GLGSV,6,4,22,65,36,293,19,66,7,345,,72,29,233,,74,67,2,21*5B
 
$GLGSV,6,5,22,75,31,287,20,83,36,53,,84,34,124,29*66
 
$BDGSV,6,6,22,205,10,109,,208,17,29,,212,8,176,,214,19,241,23*61
 
$GPRMC,160740.24,V,4825.1605,N,00428.2768,W,1.697,0.000,040317,,E,N*17
 
$GPGGA,160740.44,4825.1288,N,00428.3002,W,1,7,1.316,106.807,M,,M,0,*69
 
$GNGSA,A,3,10,14,15,24,25,32,84,,,,,,,,,,,,,,2.267,1.316,1.846*2F
 
$GPGSA,A,3,10,14,15,24,25,32,,,,,,,,,,,,,,,2.267,1.316,1.846*3D
 
$GLGSA,A,3,84,,,,,,,,,,,,,,,,,,,,2.267,1.316,1.846*2D
 
$BDGSA,A,3,,,,,,,,,,,,,,,,,,,,,2.267,1.316,1.846*2C
 
$QZGSA,A,3,,,,,,,,,,,,,,,,,,,,,2.267,1.316,1.846*21
 
$GPGSV,6,1,22,6,9,75,13,10,12,257,31,12,85,28,19,14,21,315,30*7F
 
$GPGSV,6,2,22,15,12,166,30,17,9,33,,19,24,45,14,24,59,105,34*44
 
$GPGSV,6,3,22,25,47,245,29,29,5,187,,32,41,299,30*75
 
$GLGSV,6,4,22,65,36,293,27,66,7,345,,72,29,233,,74,67,2,25*52
 
$GLGSV,6,5,22,75,31,287,24,83,36,53,,84,34,124,29*62
 
$BDGSV,6,6,22,205,10,109,,208,17,29,,212,8,176,,214,19,241,20*62
 
$GPRMC,160740.44,A,4825.1288,N,00428.3002,W,1.581,0.000,040317,,E,A*06
 
$GPGGA,160740.64,4825.1308,N,00428.2994,W,1,7,1.316,104.508,M,,M,0,*65
 
$GNGSA,A,3,10,14,15,24,25,32,84,,,,,,,,,,,,,,2.267,1.316,1.846*2F
 
$GPGSA,A,3,10,14,15,24,25,32,,,,,,,,,,,,,,,2.267,1.316,1.846*3D
 
$GLGSA,A,3,84,,,,,,,,,,,,,,,,,,,,2.267,1.316,1.846*2D
 
$BDGSA,A,3,,,,,,,,,,,,,,,,,,,,,2.267,1.316,1.846*2C
 
$QZGSA,A,3,,,,,,,,,,,,,,,,,,,,,2.267,1.316,1.846*21
 
$GPGSV,6,1,22,6,9,75,13,10,12,257,30,12,85,28,19,14,21,315,30*7E
 
$GPGSV,6,2,22,15,12,166,31,17,9,33,,19,24,45,14,24,59,105,36*47
 
$GPGSV,6,3,22,25,47,245,29,29,5,187,,32,41,299,34*71
 
$GLGSV,6,4,22,65,36,293,29,66,7,345,,72,29,233,,74,67,2,30*58
 
$GLGSV,6,5,22,75,31,287,24,83,36,53,,84,34,124,29*62
 
$BDGSV,6,6,22,205,10,109,,208,17,29,,212,8,176,,214,19,241,20*62
 
$GPRMC,160740.64,A,4825.1308,N,00428.2994,W,1.687,0.000,040317,,E,A*0F
 
$GPGGA,160741.64,4825.1363,N,00428.3000,W,1,9,1.292,88.001,M,,M,0,*56
 
$GNGSA,A,3,10,14,15,24,25,32,65,75,84,,,,,,,,,,,,2.241,1.292,1.832*24
 
$GPGSA,A,3,10,14,15,24,25,32,,,,,,,,,,,,,,,2.241,1.292,1.832*37
 
$GLGSA,A,3,65,75,84,,,,,,,,,,,,,,,,,,2.241,1.292,1.832*26
 
$BDGSA,A,3,,,,,,,,,,,,,,,,,,,,,2.241,1.292,1.832*26
 
$QZGSA,A,3,,,,,,,,,,,,,,,,,,,,,2.241,1.292,1.832*2B
 
$GPGSV,6,1,22,6,9,75,23,10,12,257,31,12,85,28,19,14,21,315,26*7B
 
$GPGSV,6,2,22,15,12,166,32,17,9,33,,19,24,44,22,24,59,105,36*40
 
$GPGSV,6,3,22,25,47,245,30,29,5,187,,32,41,299,33*7E
 
$GLGSV,6,4,22,65,36,293,31,66,7,345,,72,29,233,,74,67,2,28*58
 
$GLGSV,6,5,22,75,31,287,20,83,36,53,,84,34,124,29*66
 
$BDGSV,6,6,22,205,10,109,,208,17,29,,212,8,176,,214,19,241,21*63
 
$GPRMC,160741.64,A,4825.1363,N,00428.3000,W,1.807,0.000,040317,,E,A*00
 
$GPGGA,160742.64,4825.1372,N,00428.2994,W,1,11,0.790,89.683,M,,M,0,*62
 
$GNGSA,A,3,6,10,14,15,19,24,25,32,65,74,84,,,,,,,,,,1.442,0.790,1.206*16
 
$GPGSA,A,3,6,10,14,15,19,24,25,32,,,,,,,,,,,,,1.442,0.790,1.206*04
 
$GLGSA,A,3,65,74,84,,,,,,,,,,,,,,,,,,1.442,0.790,1.206*2A
 
$BDGSA,A,3,,,,,,,,,,,,,,,,,,,,,1.442,0.790,1.206*2B
 
$QZGSA,A,3,,,,,,,,,,,,,,,,,,,,,1.442,0.790,1.206*26
 
$GPGSV,6,1,22,6,9,75,22,10,12,257,34,12,85,29,31,14,21,315,26*74
 
$GPGSV,6,2,22,15,12,166,28,17,9,33,,19,24,44,19,24,59,105,34*41
 
$GPGSV,6,3,22,25,47,245,27,29,5,187,,32,41,299,33*78
 
$GLGSV,6,4,22,65,36,293,28,66,7,345,,72,29,233,,74,67,2,26*5E
 
$GLGSV,6,5,22,75,31,287,18,83,36,52,,84,34,124,28*6D
 
$BDGSV,6,6,22,205,10,109,,208,17,29,,212,8,176,,214,19,241,18*69
 
$GPRMC,160742.64,A,4825.1372,N,00428.2994,W,2.723,0.000,040317,,E,A*0C
 
$GPGGA,160744.00,4825.1335,N,00428.3050,W,1,12,0.789,103.584,M,,M,0,*59
 
$GNGSA,A,3,6,10,12,14,15,19,24,25,32,65,74,84,,,,,,,,,1.317,0.789,1.055*1E
 
$GPGSA,A,3,6,10,12,14,15,19,24,25,32,,,,,,,,,,,,1.317,0.789,1.055*0C
 
$GLGSA,A,3,65,74,84,,,,,,,,,,,,,,,,,,1.317,0.789,1.055*21
 
$BDGSA,A,3,,,,,,,,,,,,,,,,,,,,,1.317,0.789,1.055*20
 
$QZGSA,A,3,,,,,,,,,,,,,,,,,,,,,1.317,0.789,1.055*2D
 
$GPGSV,6,1,22,6,9,75,21,10,12,257,33,12,85,29,30,14,21,315,28*7F
 
$GPGSV,6,2,22,15,12,166,31,17,9,33,,19,24,44,16,24,59,105,35*47
 
$GPGSV,6,3,22,25,47,245,24,29,5,187,,32,41,299,31*79
 
$GLGSV,6,4,22,65,36,293,28,66,7,345,,72,29,233,,74,67,2,21*59
 
$GLGSV,6,5,22,75,31,287,14,83,36,52,,84,34,124,27*6E
 
$BDGSV,6,6,22,205,10,109,,208,17,29,,212,9,176,,214,19,241,*61
 
$GPRMC,160744.00,A,4825.1335,N,00428.3050,W,2.201,0.000,040317,,E,A*0E
 
$GPGGA,160745.00,4825.1491,N,00428.2955,W,1,10,1.261,105.774,M,,M,0,*57
 
$GNGSA,A,3,10,12,14,15,24,25,32,65,74,84,,,,,,,,,,,1.999,1.261,1.551*2F
 
$GPGSA,A,3,10,12,14,15,24,25,32,,,,,,,,,,,,,,1.999,1.261,1.551*3D
 
$GLGSA,A,3,65,74,84,,,,,,,,,,,,,,,,,,1.999,1.261,1.551*2E
 
$BDGSA,A,3,,,,,,,,,,,,,,,,,,,,,1.999,1.261,1.551*2F
 
$QZGSA,A,3,,,,,,,,,,,,,,,,,,,,,1.999,1.261,1.551*22
 
$GPGSV,6,1,22,6,9,75,20,10,12,257,28,12,85,29,27,14,21,315,28*72
 
$GPGSV,6,2,22,15,12,166,33,17,9,33,,19,24,44,14,24,59,105,34*46
 
$GPGSV,6,3,22,25,47,245,28,29,5,187,,32,41,299,28*7D
 
$GLGSV,6,4,22,65,36,293,21,66,7,345,,72,29,233,26,74,67,2,27*52
 
$GLGSV,6,5,22,75,31,287,20,83,36,52,24,84,34,124,29*61
 
$BDGSV,6,6,22,205,10,109,,208,17,29,,212,9,176,,214,19,241,23*60
 
$GPRMC,160745.00,A,4825.1491,N,00428.2955,W,1.584,0.000,040317,,E,A*02
 
$GPGGA,160746.00,4825.1366,N,00428.3075,W,1,10,1.261,137.303,M,,M,0,*54
 
$GNGSA,A,3,10,12,14,15,24,25,32,65,74,84,,,,,,,,,,,1.999,1.261,1.551*2F
 
$GPGSA,A,3,10,12,14,15,24,25,32,,,,,,,,,,,,,,1.999,1.261,1.551*3D
 
$GLGSA,A,3,65,74,84,,,,,,,,,,,,,,,,,,1.999,1.261,1.551*2E
 
$BDGSA,A,3,,,,,,,,,,,,,,,,,,,,,1.999,1.261,1.551*2F
 
$QZGSA,A,3,,,,,,,,,,,,,,,,,,,,,1.999,1.261,1.551*22
 
$GPGSV,7,1,27,4,5,,,6,9,75,19,10,12,257,28,12,85,29,36*46
 
$GPGSV,7,2,27,14,21,315,30,15,12,166,33,17,9,33,17,19,24,44,12*49
 
$GPGSV,7,3,27,24,59,105,31,25,47,245,36,29,5,187,,32,41,299,30*43
 
$GLGSV,7,4,27,65,36,293,26,66,7,345,,72,29,233,25,73,24,78,*6A
 
$GLGSV,7,5,27,74,67,2,32,75,31,287,19,83,36,52,21,84,34,124,28*5A
 
$BDGSV,7,6,27,205,10,109,,207,5,,,208,17,29,,211,5,,*52
 
$BDGSV,7,7,27,212,9,176,,213,5,,,214,19,241,21*5B
 
$GPRMC,160746.00,A,4825.1366,N,00428.3075,W,1.992,244.113,040317,,E,A*0E
 
$GPGGA,160747.00,4825.1352,N,00428.3096,W,1,15,0.675,140.193,M,,M,0,*51
 
$GNGSA,A,3,6,10,12,14,15,17,19,24,25,32,65,72,74,83,84,,,,,,1.187,0.675,0.976*16
 
$GPGSA,A,3,6,10,12,14,15,17,19,24,25,32,,,,,,,,,,,1.187,0.675,0.976*0A
 
$GLGSA,A,3,65,72,74,83,84,,,,,,,,,,,,,,,,1.187,0.675,0.976*2F
 
$BDGSA,A,3,,,,,,,,,,,,,,,,,,,,,1.187,0.675,0.976*20
 
$QZGSA,A,3,,,,,,,,,,,,,,,,,,,,,1.187,0.675,0.976*2D
 
$GPGSV,7,1,27,4,5,,,6,9,75,21,10,12,257,23,12,85,29,33*43
 
$GPGSV,7,2,27,14,21,315,26,15,12,166,29,17,9,33,18,19,24,44,22*49
 
$GPGSV,7,3,27,24,59,105,32,25,47,245,35,29,5,187,,32,41,299,25*47
 
$GLGSV,7,4,27,65,36,293,25,66,7,345,,72,29,233,20,73,24,78,*6C
 
$GLGSV,7,5,27,74,67,2,28,75,31,287,18,83,36,52,23,84,34,124,29*53
 
$BDGSV,7,6,27,205,10,109,,207,5,,,208,17,29,,211,5,,*52
 
$BDGSV,7,7,27,212,9,176,,213,5,,,214,19,241,18*51
 
$GPRMC,160747.00,A,4825.1352,N,00428.3096,W,2.086,251.127,040317,,E,A*09
 
$GPGGA,160748.00,4825.1351,N,00428.3103,W,1,16,0.631,140.839,M,,M,0,*5A
 
$GNGSA,A,3,6,10,12,14,15,17,19,24,25,29,32,65,72,74,83,84,,,,,1.114,0.631,0.918*1F
 
$GPGSA,A,3,6,10,12,14,15,17,19,24,25,29,32,,,,,,,,,,1.114,0.631,0.918*03
 
$GLGSA,A,3,65,72,74,83,84,,,,,,,,,,,,,,,,1.114,0.631,0.918*2D
 
$BDGSA,A,3,,,,,,,,,,,,,,,,,,,,,1.114,0.631,0.918*22
 
$QZGSA,A,3,,,,,,,,,,,,,,,,,,,,,1.114,0.631,0.918*2F
 
$GPGSV,7,1,27,4,5,,,6,9,75,20,10,12,257,30,12,85,29,30*43
 
$GPGSV,7,2,27,14,21,315,19,15,12,166,24,17,9,33,20,19,24,44,19*4B
 
$GPGSV,7,3,27,24,59,106,32,25,47,245,35,29,5,187,21,32,41,299,26*44
 
$GLGSV,7,4,27,65,36,293,27,66,7,345,,72,29,233,22,73,24,78,*6C
 
$GLGSV,7,5,27,74,67,2,28,75,31,287,19,83,36,52,21,84,34,124,29*50
 
$BDGSV,7,6,27,205,10,109,22,207,5,,,208,17,29,,211,5,,*52
 
$BDGSV,7,7,27,212,9,176,,213,5,,,214,19,241,18*51
 
$GPRMC,160748.00,A,4825.1351,N,00428.3103,W,2.251,258.125,040317,,E,A*0B
 
$GPGGA,160749.00,4825.1336,N,00428.3118,W,1,17,0.611,143.680,M,,M,0,*5C
 
$GNGSA,A,3,6,10,12,14,15,17,19,24,25,29,32,205,65,72,74,83,84,,,,1.088,0.611,0.901*26
 
$GPGSA,A,3,6,10,12,14,15,17,19,24,25,29,32,,,,,,,,,,1.088,0.611,0.901*0D
 
$GLGSA,A,3,65,72,74,83,84,,,,,,,,,,,,,,,,1.088,0.611,0.901*23
 
$BDGSA,A,3,205,,,,,,,,,,,,,,,,,,,,1.088,0.611,0.901*1B
 
$QZGSA,A,3,,,,,,,,,,,,,,,,,,,,,1.088,0.611,0.901*21
 
$GPGSV,7,1,27,4,5,,,6,9,75,21,10,12,257,28,12,85,29,28*42
 
$GPGSV,7,2,27,14,21,315,19,15,12,166,26,17,9,33,19,19,24,44,22*4B
 
$GPGSV,7,3,27,24,59,106,29,25,47,245,34,29,5,187,18,32,41,299,28*4B
 
$GLGSV,7,4,27,65,36,293,28,66,7,345,,72,29,233,21,73,24,78,*60
 
$GLGSV,7,5,27,74,67,2,20,75,31,287,24,83,36,52,25,84,34,124,26*5D
 
$BDGSV,7,6,27,205,10,109,22,207,5,,,208,17,29,,211,5,,*52
 
$BDGSV,7,7,27,212,9,176,,213,5,,,214,19,241,*58
 
$GPRMC,160749.00,A,4825.1336,N,00428.3118,W,2.429,249.057,040317,,E,A*0C
 
$GPGGA,160750.00,4825.1324,N,00428.3132,W,1,16,0.649,144.267,M,,M,0,*59
 
$GNGSA,A,3,6,10,12,14,15,17,19,24,25,32,205,65,72,74,83,84,,,,,1.145,0.649,0.944*21
 
$GPGSA,A,3,6,10,12,14,15,17,19,24,25,32,,,,,,,,,,,1.145,0.649,0.944*0A
 
$GLGSA,A,3,65,72,74,83,84,,,,,,,,,,,,,,,,1.145,0.649,0.944*2F
 
$BDGSA,A,3,205,,,,,,,,,,,,,,,,,,,,1.145,0.649,0.944*17
 
$QZGSA,A,3,,,,,,,,,,,,,,,,,,,,,1.145,0.649,0.944*2D
 
$GPGSV,7,1,27,4,5,,,6,9,75,22,10,12,257,30,12,85,29,27*47
 
$GPGSV,7,2,27,14,21,315,23,15,12,166,32,17,9,33,25,19,24,44,27*4D
 
$GPGSV,7,3,27,24,59,106,35,25,47,245,33,29,5,187,16,32,41,299,30*46
 
$GLGSV,7,4,27,65,36,293,27,66,7,345,,72,29,233,24,73,24,78,16*6D
 
$GLGSV,7,5,27,74,67,2,27,75,31,287,23,83,36,52,26,84,34,124,27*5F
 
$BDGSV,7,6,27,205,10,109,25,207,5,,,208,17,29,,211,5,,*55
 
$BDGSV,7,7,27,212,9,176,,213,5,,28,214,19,241,*52
 
$GPRMC,160750.00,A,4825.1324,N,00428.3132,W,2.423,239.618,040317,,E,A*0F
 
$GPGGA,160751.00,4825.1312,N,00428.3147,W,1,16,0.649,145.317,M,,M,0,*58
 
$GNGSA,A,3,6,10,12,14,15,17,19,24,25,32,205,65,72,74,83,84,,,,,1.145,0.649,0.944*21
 
$GPGSA,A,3,6,10,12,14,15,17,19,24,25,32,,,,,,,,,,,1.145,0.649,0.944*0A
 
$GLGSA,A,3,65,72,74,83,84,,,,,,,,,,,,,,,,1.145,0.649,0.944*2F
 
$BDGSA,A,3,205,,,,,,,,,,,,,,,,,,,,1.145,0.649,0.944*17
 
$QZGSA,A,3,,,,,,,,,,,,,,,,,,,,,1.145,0.649,0.944*2D
 
$GPGSV,7,1,27,4,5,,,6,9,75,28,10,12,257,33,12,85,29,32*4A
 
$GPGSV,7,2,27,14,21,315,24,15,12,166,38,17,9,33,24,19,24,44,28*4E
 
$GPGSV,7,3,27,24,59,106,29,25,47,245,37,29,5,187,17,32,41,299,31*4F
 
$GLGSV,7,4,27,65,36,293,30,66,7,345,,72,29,233,24,73,24,78,25*6B
 
$GLGSV,7,5,27,74,67,2,26,75,31,287,25,83,36,52,29,84,34,124,22*52
 
$BDGSV,7,6,27,205,10,109,25,207,5,,,208,17,29,,211,5,,*55
 
$BDGSV,7,7,27,212,9,176,,213,5,,15,214,19,241,*5C
 
$GPRMC,160751.00,A,4825.1312,N,00428.3147,W,2.033,246.324,040317,,E,A*0E
 
$GPGGA,160752.00,4825.1309,N,00428.3159,W,1,17,0.639,144.647,M,,M,0,*59
 
$GNGSA,A,3,6,10,12,14,15,17,19,24,25,32,205,65,72,73,74,83,84,,,,1.139,0.639,0.943*2E
 
$GPGSA,A,3,6,10,12,14,15,17,19,24,25,32,,,,,,,,,,,1.139,0.639,0.943*01
 
$GLGSA,A,3,65,72,73,74,83,84,,,,,,,,,,,,,,,1.139,0.639,0.943*20
 
$BDGSA,A,3,205,,,,,,,,,,,,,,,,,,,,1.139,0.639,0.943*1C
 
$QZGSA,A,3,,,,,,,,,,,,,,,,,,,,,1.139,0.639,0.943*26
 
$GPGSV,7,1,27,4,5,,,6,9,75,27,10,12,257,33,12,85,29,31*46
 
$GPGSV,7,2,27,14,21,315,23,15,12,166,34,17,9,33,24,19,24,44,28*45
 
$GPGSV,7,3,27,24,59,106,25,25,47,245,35,29,5,187,18,32,41,299,34*4B
 
$GLGSV,7,4,27,65,36,293,33,66,7,345,,72,29,233,25,73,24,78,27*6B
 
$GLGSV,7,5,27,74,67,2,28,75,31,287,27,83,36,52,27,84,34,124,21*53
 
$BDGSV,7,6,27,205,10,109,24,207,5,,,208,17,29,23,211,5,,*55
 
$BDGSV,7,7,27,212,9,176,,213,5,,12,214,19,241,*5B
 
$GPRMC,160752.00,A,4825.1309,N,00428.3159,W,1.927,254.702,040317,,E,A*04
 
$GPGGA,160753.00,4825.1306,N,00428.3170,W,1,18,0.600,144.456,M,,M,0,*5B
 
$GNGSA,A,3,6,10,12,14,15,17,19,24,25,29,32,205,65,72,73,74,83,84,,,1.082,0.600,0.900*29
 
$GPGSA,A,3,6,10,12,14,15,17,19,24,25,29,32,,,,,,,,,,1.082,0.600,0.900*06
 
$GLGSA,A,3,65,72,73,74,83,84,,,,,,,,,,,,,,,1.082,0.600,0.900*2C
 
$BDGSA,A,3,205,,,,,,,,,,,,,,,,,,,,1.082,0.600,0.900*10
 
$QZGSA,A,3,,,,,,,,,,,,,,,,,,,,,1.082,0.600,0.900*2A
 
$GPGSV,7,1,27,4,5,,,6,9,75,27,10,12,257,27,12,85,29,27*44
 
$GPGSV,7,2,27,14,21,315,23,15,12,166,30,17,9,33,23,19,24,44,21*4F
 
$GPGSV,7,3,27,24,59,106,22,25,47,245,31,29,5,187,18,32,41,299,29*44
 
$GLGSV,7,4,27,65,36,293,30,66,7,345,,72,29,233,17,73,24,78,23*6D
 
$GLGSV,7,5,27,74,67,2,21,75,31,287,27,83,36,52,23,84,34,124,17*5B
 
$BDGSV,7,6,27,205,10,109,24,207,5,,,208,17,29,8,211,5,,*6C
 
$BDGSV,7,7,27,212,9,176,,213,5,,12,214,19,241,*5B
 
$GPRMC,160753.00,A,4825.1306,N,00428.3170,W,1.890,252.553,040317,,E,A*0C
 
$GPGGA,160754.00,4825.1305,N,00428.3178,W,1,18,0.600,144.201,M,,M,0,*53
 
$GNGSA,A,3,6,10,12,14,15,17,19,24,25,29,32,205,65,72,73,74,83,84,,,1.082,0.600,0.900*29
 
$GPGSA,A,3,6,10,12,14,15,17,19,24,25,29,32,,,,,,,,,,1.082,0.600,0.900*06
 
$GLGSA,A,3,65,72,73,74,83,84,,,,,,,,,,,,,,,1.082,0.600,0.900*2C
 
$BDGSA,A,3,205,,,,,,,,,,,,,,,,,,,,1.082,0.600,0.900*10
 
$QZGSA,A,3,,,,,,,,,,,,,,,,,,,,,1.082,0.600,0.900*2A
 
$GPGSV,7,1,27,4,5,,,6,9,75,21,10,12,257,20,12,85,29,25*47
 
$GPGSV,7,2,27,14,21,315,20,15,12,166,23,17,9,33,19,19,24,44,21*47
 
$GPGSV,7,3,27,24,59,106,19,25,47,245,25,29,5,187,17,32,41,299,25*4A
 
$GLGSV,7,4,27,65,36,293,22,66,7,345,,72,29,233,19,73,24,78,19*69
 
$GLGSV,7,5,27,74,67,2,18,75,31,287,20,83,36,52,21,84,34,124,14*57
 
$BDGSV,7,6,27,205,10,109,20,207,5,,,208,17,29,8,211,5,,*68
 
$BDGSV,7,7,27,212,9,176,,213,5,,,214,19,241,*58
 
$GPRMC,160754.00,A,4825.1305,N,00428.3178,W,1.633,254.564,040317,,E,A*05
 
$GPGGA,160755.00,4825.1305,N,00428.3187,W,1,17,0.617,143.463,M,,M,0,*5E
 
$GNGSA,A,3,6,10,12,14,15,17,19,24,25,29,32,65,72,73,74,83,84,,,,1.105,0.617,0.917*10
 
$GPGSA,A,3,6,10,12,14,15,17,19,24,25,29,32,,,,,,,,,,1.105,0.617,0.917*08
 
$GLGSA,A,3,65,72,73,74,83,84,,,,,,,,,,,,,,,1.105,0.617,0.917*22
 
$BDGSA,A,3,,,,,,,,,,,,,,,,,,,,,1.105,0.617,0.917*29
 
$QZGSA,A,3,,,,,,,,,,,,,,,,,,,,,1.105,0.617,0.917*24
 
$GPGSV,7,1,27,4,5,,,6,9,75,20,10,12,257,25,12,85,29,26*40
 
$GPGSV,7,2,27,14,21,315,24,15,12,166,24,17,9,33,18,19,24,44,19*4E
 
$GPGSV,7,3,27,24,59,106,18,25,47,245,27,29,5,187,17,32,41,299,25*49
 
$GLGSV,7,4,27,65,36,293,28,66,7,345,,72,29,233,21,73,24,78,20*62
 
$GLGSV,7,5,27,74,67,2,20,75,31,287,23,83,36,52,20,84,34,123,17*5A
 
$BDGSV,7,6,27,205,10,109,20,207,5,,,208,17,29,8,211,5,,*68
 
$BDGSV,7,7,27,212,9,176,,213,5,,,214,19,241,*58
 
$GPRMC,160755.00,A,4825.1305,N,00428.3187,W,1.744,265.741,040317,,E,A*02
 
$GPGGA,160756.00,4825.1306,N,00428.3194,W,1,15,0.676,142.842,M,,M,0,*57
 
$GNGSA,A,3,10,12,14,15,17,19,24,25,32,65,72,73,74,83,84,,,,,,1.235,0.676,1.034*23
 
$GPGSA,A,3,10,12,14,15,17,19,24,25,32,,,,,,,,,,,,1.235,0.676,1.034*3B
 
$GLGSA,A,3,65,72,73,74,83,84,,,,,,,,,,,,,,,1.235,0.676,1.034*2C
 
$BDGSA,A,3,,,,,,,,,,,,,,,,,,,,,1.235,0.676,1.034*27
 
$QZGSA,A,3,,,,,,,,,,,,,,,,,,,,,1.235,0.676,1.034*2A
 
$GPGSV,7,1,27,4,5,,,6,9,75,20,10,12,257,21,12,85,29,25*47
 
$GPGSV,7,2,27,14,21,315,22,15,12,166,21,17,9,33,16,19,24,44,18*42
 
$GPGSV,7,3,27,24,59,106,19,25,47,245,28,29,5,187,16,32,41,299,23*40
 
$GLGSV,7,4,27,65,36,293,20,66,7,345,,72,29,233,20,73,24,78,19*61
 
$GLGSV,7,5,27,74,67,2,18,75,31,287,17,83,36,52,17,84,34,123,13*56
 
$BDGSV,7,6,27,205,10,109,17,207,5,,,208,17,29,,211,5,,*54
 
$BDGSV,7,7,27,212,9,176,,213,5,,,214,19,241,*58
 
$GPRMC,160756.00,A,4825.1306,N,00428.3194,W,1.789,268.513,040317,,E,A*09
 
$GPGGA,160757.00,4825.1308,N,00428.3201,W,1,17,0.617,142.574,M,,M,0,*5A
 
$GNGSA,A,3,6,10,12,14,15,17,19,24,25,29,32,65,72,73,74,83,84,,,,1.105,0.617,0.917*10
 
$GPGSA,A,3,6,10,12,14,15,17,19,24,25,29,32,,,,,,,,,,1.105,0.617,0.917*08
 
$GLGSA,A,3,65,72,73,74,83,84,,,,,,,,,,,,,,,1.105,0.617,0.917*22
 
$BDGSA,A,3,,,,,,,,,,,,,,,,,,,,,1.105,0.617,0.917*29
 
$QZGSA,A,3,,,,,,,,,,,,,,,,,,,,,1.105,0.617,0.917*24
 
$GPGSV,7,1,27,4,5,,,6,9,75,22,10,12,257,26,12,85,29,24*43
 
$GPGSV,7,2,27,14,21,315,18,15,12,166,20,17,9,33,19,19,24,44,17*4A
 
$GPGSV,7,3,27,24,59,106,18,25,47,245,27,29,5,187,15,32,41,299,23*4D
 
$GLGSV,7,4,27,65,36,293,21,66,7,345,,72,29,233,18,73,24,78,19*6B
 
$GLGSV,7,5,27,74,67,2,18,75,31,287,17,83,36,52,18,84,34,123,10*5A
 
$BDGSV,7,6,27,205,10,109,17,207,5,,,208,17,29,,211,5,,*54
 
$BDGSV,7,7,27,212,9,176,,213,5,,,214,19,241,*58
 
$GPRMC,160757.00,A,4825.1308,N,00428.3201,W,1.799,272.388,040317,,E,A*07
 
$GPGGA,160758.00,4825.1311,N,00428.3216,W,1,17,0.617,141.338,M,,M,0,*56
 
$GNGSA,A,3,6,10,12,14,15,17,19,24,25,29,32,65,72,73,74,83,84,,,,1.105,0.617,0.917*10
 
$GPGSA,A,3,6,10,12,14,15,17,19,24,25,29,32,,,,,,,,,,1.105,0.617,0.917*08
 
$GLGSA,A,3,65,72,73,74,83,84,,,,,,,,,,,,,,,1.105,0.617,0.917*22
 
$BDGSA,A,3,,,,,,,,,,,,,,,,,,,,,1.105,0.617,0.917*29
 
$QZGSA,A,3,,,,,,,,,,,,,,,,,,,,,1.105,0.617,0.917*24
 
$GPGSV,7,1,27,4,5,,,6,9,75,20,10,12,257,28,12,85,29,25*4E
 
$GPGSV,7,2,27,14,21,315,20,15,12,166,18,17,9,33,16,19,24,44,15*47
 
$GPGSV,7,3,27,24,59,106,19,25,47,245,29,29,5,187,14,32,41,299,25*45
 
$GLGSV,7,4,27,65,36,293,21,66,8,345,,72,29,233,19,73,24,78,17*6B
 
$GLGSV,7,5,27,74,67,2,16,75,31,287,17,83,36,52,16,84,34,123,10*5A
 
$BDGSV,7,6,27,205,10,109,18,207,5,,,208,17,29,,211,5,,*5B
 
$BDGSV,7,7,27,212,9,176,,213,5,,,214,19,241,*58
 
$GPRMC,160758.00,A,4825.1311,N,00428.3216,W,2.159,274.203,040317,,E,A*0B
 
$GPGGA,160759.00,4825.1310,N,00428.3230,W,1,16,0.634,140.159,M,,M,0,*56
 
$GNGSA,A,3,10,12,14,15,17,19,24,25,29,32,65,72,73,74,83,84,,,,,1.154,0.634,0.964*27
 
$GPGSA,A,3,10,12,14,15,17,19,24,25,29,32,,,,,,,,,,,1.154,0.634,0.964*3F
 
$GLGSA,A,3,65,72,73,74,83,84,,,,,,,,,,,,,,,1.154,0.634,0.964*23
 
$BDGSA,A,3,,,,,,,,,,,,,,,,,,,,,1.154,0.634,0.964*28
 
$QZGSA,A,3,,,,,,,,,,,,,,,,,,,,,1.154,0.634,0.964*25
 
$GPGSV,7,1,27,4,5,,,6,9,75,20,10,12,257,27,12,85,29,25*41
 
$GPGSV,7,2,27,14,21,315,20,15,12,166,19,17,9,33,16,19,24,44,15*46
 
$GPGSV,7,3,27,24,59,106,22,25,47,245,28,29,5,187,15,32,41,299,25*4D
 
$GLGSV,7,4,27,65,36,293,21,66,8,345,,72,29,233,19,73,24,78,16*6A
 
$GLGSV,7,5,27,74,67,2,15,75,31,287,17,83,36,52,15,84,34,123,10*5A
 
$BDGSV,7,6,27,205,10,109,18,207,5,,,208,17,29,,211,5,,*5B
 
$BDGSV,7,7,27,212,9,176,,213,5,,,214,19,241,*58
 
$GPRMC,160759.00,A,4825.1310,N,00428.3230,W,2.340,267.534,040317,,E,A*04
 
$GPGGA,160800.00,4825.1313,N,00428.3243,W,1,15,0.676,139.260,M,,M,0,*50
 
$GNGSA,A,3,10,12,14,15,17,19,24,25,32,65,72,73,74,83,84,,,,,,1.235,0.676,1.034*23
 
$GPGSA,A,3,10,12,14,15,17,19,24,25,32,,,,,,,,,,,,1.235,0.676,1.034*3B
 
$GLGSA,A,3,65,72,73,74,83,84,,,,,,,,,,,,,,,1.235,0.676,1.034*2C
 
$BDGSA,A,3,,,,,,,,,,,,,,,,,,,,,1.235,0.676,1.034*27
 
$QZGSA,A,3,,,,,,,,,,,,,,,,,,,,,1.235,0.676,1.034*2A
 
$GPGSV,7,1,27,4,5,,,6,9,75,20,10,12,257,19,12,85,29,25*4C
 
$GPGSV,7,2,27,14,21,315,19,15,11,166,16,17,9,33,16,19,24,44,14*41
 
$GPGSV,7,3,27,24,59,106,24,25,47,245,28,29,5,187,15,32,41,299,24*4A
 
$GLGSV,7,4,27,65,36,293,18,66,8,345,,72,28,233,18,73,24,78,17*61
 
$GLGSV,7,5,27,74,67,2,13,75,31,287,12,83,36,52,15,84,34,123,10*59
 
$BDGSV,7,6,27,205,10,109,18,207,5,,,208,17,29,,211,5,,*5B
 
$BDGSV,7,7,27,212,9,176,,213,5,,,214,19,241,*58
 
$GPRMC,160800.00,A,4825.1313,N,00428.3243,W,2.443,272.321,040317,,E,A*02
 
$GPGGA,160801.00,4825.1316,N,00428.3251,W,1,15,0.676,138.786,M,,M,0,*5B
 
$GNGSA,A,3,10,12,14,15,17,19,24,25,32,65,72,73,74,83,84,,,,,,1.235,0.676,1.033*24
 
$GPGSA,A,3,10,12,14,15,17,19,24,25,32,,,,,,,,,,,,1.235,0.676,1.033*3C
 
$GLGSA,A,3,65,72,73,74,83,84,,,,,,,,,,,,,,,1.235,0.676,1.033*2B
 
$BDGSA,A,3,,,,,,,,,,,,,,,,,,,,,1.235,0.676,1.033*20
 
$QZGSA,A,3,,,,,,,,,,,,,,,,,,,,,1.235,0.676,1.033*2D
 
$GPGSV,7,1,27,4,5,,,6,9,75,20,10,12,257,18,12,85,29,23*4B
 
$GPGSV,7,2,27,14,21,315,18,15,11,166,17,17,9,33,18,19,24,44,16*4D
 
$GPGSV,7,3,27,24,59,106,26,25,47,245,25,29,5,187,15,32,41,299,18*4A
 
$GLGSV,7,4,27,65,36,293,20,66,8,345,24,72,28,233,19,73,24,78,18*62
 
$GLGSV,7,5,27,74,67,2,14,75,31,287,12,83,36,52,16,84,34,123,9*65
 
$BDGSV,7,6,27,205,10,109,18,207,5,,,208,17,29,,211,5,,*5B
 
$BDGSV,7,7,27,212,9,176,,213,5,,,214,19,241,*58
 
$GPRMC,160801.00,A,4825.1316,N,00428.3251,W,2.117,276.906,040317,,E,A*0A
 
$GPGGA,160802.00,4825.1320,N,00428.3267,W,1,15,0.676,138.534,M,,M,0,*53
 
$GNGSA,A,3,10,12,14,15,17,19,24,25,32,65,72,73,74,83,84,,,,,,1.235,0.676,1.033*24
 
$GPGSA,A,3,10,12,14,15,17,19,24,25,32,,,,,,,,,,,,1.235,0.676,1.033*3C
 
$GLGSA,A,3,65,72,73,74,83,84,,,,,,,,,,,,,,,1.235,0.676,1.033*2B
 
$BDGSA,A,3,,,,,,,,,,,,,,,,,,,,,1.235,0.676,1.033*20
 
$QZGSA,A,3,,,,,,,,,,,,,,,,,,,,,1.235,0.676,1.033*2D
 
$GPGSV,7,1,27,4,5,,,6,9,75,20,10,12,257,19,12,85,29,20*49
 
$GPGSV,7,2,27,14,21,315,18,15,11,166,18,17,9,33,24,19,24,44,17*4C
 
$GPGSV,7,3,27,24,59,106,27,25,47,245,25,29,5,187,14,32,41,299,18*4A
 
$GLGSV,7,4,27,65,36,293,19,66,8,345,32,72,28,233,19,73,24,78,18*6F
 
$GLGSV,7,5,27,74,67,2,15,75,31,287,11,83,36,52,17,84,34,123,13*5D
 
$BDGSV,7,6,27,205,10,109,14,207,5,,,208,17,29,,211,5,,*57
 
$BDGSV,7,7,27,212,9,176,,213,5,,,214,19,241,21*5B
 
$GPRMC,160802.00,A,4825.1320,N,00428.3267,W,2.114,282.401,040317,,E,A*0B
 
$GPGGA,160803.00,4825.1319,N,00428.3273,W,1,15,0.676,137.975,M,,M,0,*5B
 
$GNGSA,A,3,10,12,14,15,17,19,24,25,32,65,72,73,74,83,84,,,,,,1.234,0.676,1.033*25
 
$GPGSA,A,3,10,12,14,15,17,19,24,25,32,,,,,,,,,,,,1.234,0.676,1.033*3D
 
$GLGSA,A,3,65,72,73,74,83,84,,,,,,,,,,,,,,,1.234,0.676,1.033*2A
 
$BDGSA,A,3,,,,,,,,,,,,,,,,,,,,,1.234,0.676,1.033*21
 
$QZGSA,A,3,,,,,,,,,,,,,,,,,,,,,1.234,0.676,1.033*2C
 
$GPGSV,7,1,27,4,5,,,6,9,75,21,10,12,257,19,12,85,29,19*42
 
$GPGSV,7,2,27,14,21,315,18,15,11,166,19,17,9,33,18,19,24,44,18*4D
 
$GPGSV,7,3,27,24,59,106,27,25,47,245,25,29,5,187,14,32,41,299,18*4A
 
$GLGSV,7,4,27,65,36,293,18,66,8,345,33,72,28,233,19,73,24,78,17*60
 
$GLGSV,7,5,27,74,67,2,15,75,31,287,11,83,36,52,17,84,34,123,15*5B
 
$BDGSV,7,6,27,205,10,109,14,207,5,,,208,17,29,,211,5,,*57
 
$BDGSV,7,7,27,212,9,176,,213,5,,,214,19,241,18*51
 
$GPRMC,160803.00,A,4825.1319,N,00428.3273,W,1.598,281.464,040317,,E,A*06
 
$GPGGA,160804.00,4825.1321,N,00428.3282,W,1,15,0.676,137.369,M,,M,0,*5E
 
$GNGSA,A,3,10,12,14,15,17,19,24,25,32,65,72,73,74,83,84,,,,,,1.234,0.676,1.033*25
 
$GPGSA,A,3,10,12,14,15,17,19,24,25,32,,,,,,,,,,,,1.234,0.676,1.033*3D
 
$GLGSA,A,3,65,72,73,74,83,84,,,,,,,,,,,,,,,1.234,0.676,1.033*2A
 
$BDGSA,A,3,,,,,,,,,,,,,,,,,,,,,1.234,0.676,1.033*21
 
$QZGSA,A,3,,,,,,,,,,,,,,,,,,,,,1.234,0.676,1.033*2C
 
$GPGSV,7,1,27,4,5,,,6,9,75,20,10,12,257,18,12,85,29,22*4A
 
$GPGSV,7,2,27,14,21,315,17,15,11,166,19,17,9,33,22,19,24,44,18*4B
 
$GPGSV,7,3,27,24,59,106,30,25,47,245,25,29,5,187,13,32,41,299,19*4A
 
$GLGSV,7,4,27,65,36,293,16,66,8,345,32,72,28,233,19,73,24,78,17*6F
 
$GLGSV,7,5,27,74,67,2,16,75,31,287,9,83,36,52,17,84,34,123,22*65
 
$BDGSV,7,6,27,205,10,109,13,207,5,,,208,17,29,,211,5,,*50
 
$BDGSV,7,7,27,212,9,176,,213,5,,,214,19,241,15*5C
 
$GPRMC,160804.00,A,4825.1321,N,00428.3282,W,1.363,283.000,040317,,E,A*02
 
$GPGGA,160805.00,4825.1314,N,00428.3285,W,1,15,0.676,138.256,M,,M,0,*5C
 
$GNGSA,A,3,10,12,14,15,17,19,24,25,32,65,72,73,74,83,84,,,,,,1.234,0.676,1.033*25
 
$GPGSA,A,3,10,12,14,15,17,19,24,25,32,,,,,,,,,,,,1.234,0.676,1.033*3D
 
$GLGSA,A,3,65,72,73,74,83,84,,,,,,,,,,,,,,,1.234,0.676,1.033*2A
 
$BDGSA,A,3,,,,,,,,,,,,,,,,,,,,,1.234,0.676,1.033*21
 
$QZGSA,A,3,,,,,,,,,,,,,,,,,,,,,1.234,0.676,1.033*2C
 
$GPGSV,7,1,27,4,5,,,6,9,75,19,10,12,257,18,12,85,29,22*40
 
$GPGSV,7,2,27,14,21,315,15,15,11,166,20,17,9,33,23,19,24,44,18*42
 
$GPGSV,7,3,27,24,59,106,30,25,47,245,26,29,5,187,12,32,41,299,18*49
 
$GLGSV,7,4,27,65,36,293,16,66,8,345,31,72,28,233,19,73,24,78,18*63
 
$GLGSV,7,5,27,74,67,2,16,75,31,287,8,83,36,52,17,84,34,123,22*64
 
$BDGSV,7,6,27,205,10,109,13,207,5,,,208,17,29,,211,5,,*50
 
$BDGSV,7,7,27,212,9,176,,213,5,,,214,19,241,14*5D
 
$GPRMC,160805.00,A,4825.1314,N,00428.3285,W,0.900,264.109,040317,,E,A*0D
 
$GPGGA,160806.00,4825.1309,N,00428.3286,W,1,16,0.661,137.985,M,,M,0,*5F
 
$GNGSA,A,3,6,10,12,14,15,17,19,24,25,32,65,72,73,74,83,84,,,,,1.176,0.661,0.973*1C
 
$GPGSA,A,3,6,10,12,14,15,17,19,24,25,32,,,,,,,,,,,1.176,0.661,0.973*04
 
$GLGSA,A,3,65,72,73,74,83,84,,,,,,,,,,,,,,,1.176,0.661,0.973*25
 
$BDGSA,A,3,,,,,,,,,,,,,,,,,,,,,1.176,0.661,0.973*2E
 
$QZGSA,A,3,,,,,,,,,,,,,,,,,,,,,1.176,0.661,0.973*23
 
$GPGSV,7,1,27,4,5,,,6,9,75,20,10,12,257,19,12,85,29,23*4A
 
$GPGSV,7,2,27,14,21,315,15,15,11,166,20,17,9,33,19,19,24,44,18*4B
 
$GPGSV,7,3,27,24,59,106,30,25,47,245,27,29,5,187,12,32,41,299,18*48
 
$GLGSV,7,4,27,65,36,293,14,66,8,345,31,72,28,233,19,73,24,78,24*6E
 
$GLGSV,7,5,27,74,67,2,15,75,31,287,,83,36,52,16,84,34,123,24*58
 
$BDGSV,7,6,27,205,10,109,13,207,5,,,208,17,29,,211,5,,*50
 
$BDGSV,7,7,27,212,9,176,,213,5,,,214,19,241,*58
 
$GPRMC,160806.00,A,4825.1309,N,00428.3286,W,0.847,237.491,040317,,E,A*01
 
$GPGGA,160807.00,4825.1314,N,00428.3295,W,1,16,0.661,137.848,M,,M,0,*50
 
$GNGSA,A,3,6,10,12,14,15,17,19,24,25,32,65,72,73,74,83,84,,,,,1.176,0.661,0.973*1C
 
$GPGSA,A,3,6,10,12,14,15,17,19,24,25,32,,,,,,,,,,,1.176,0.661,0.973*04
 
$GLGSA,A,3,65,72,73,74,83,84,,,,,,,,,,,,,,,1.176,0.661,0.973*25
 
$BDGSA,A,3,,,,,,,,,,,,,,,,,,,,,1.176,0.661,0.973*2E
 
$QZGSA,A,3,,,,,,,,,,,,,,,,,,,,,1.176,0.661,0.973*23
 
$GPGSV,7,1,27,4,5,,,6,9,75,25,10,12,257,19,12,85,29,22*4E
 
$GPGSV,7,2,27,14,21,315,14,15,11,166,20,17,9,33,20,19,24,44,16*4E
 
$GPGSV,7,3,27,24,58,106,27,25,47,245,28,29,5,187,9,32,41,299,23*72
 
$GLGSV,7,4,27,65,36,293,15,66,8,345,25,72,28,233,23,73,24,78,22*65
 
$GLGSV,7,5,27,74,67,2,15,75,31,287,,83,36,52,15,84,34,123,23*5C
 
$BDGSV,7,6,27,205,10,109,13,207,5,,,208,17,29,,211,5,,*50
 
$BDGSV,7,7,27,212,9,176,,213,5,,,214,19,241,*58
 
$GPRMC,160807.00,A,4825.1314,N,00428.3295,W,1.299,260.699,040317,,E,A*0E
 
$GPGGA,160808.00,4825.1297,N,00428.3293,W,1,16,0.661,137.850,M,,M,0,*5A
 
$GNGSA,A,3,6,10,12,14,15,17,19,24,25,32,65,72,73,74,83,84,,,,,1.176,0.661,0.973*1C
 
$GPGSA,A,3,6,10,12,14,15,17,19,24,25,32,,,,,,,,,,,1.176,0.661,0.973*04
 
$GLGSA,A,3,65,72,73,74,83,84,,,,,,,,,,,,,,,1.176,0.661,0.973*25
 
$BDGSA,A,3,,,,,,,,,,,,,,,,,,,,,1.176,0.661,0.973*2E
 
$QZGSA,A,3,,,,,,,,,,,,,,,,,,,,,1.176,0.661,0.973*23
 
$GPGSV,7,1,27,4,5,,,6,9,75,25,10,12,257,19,12,85,29,23*4F
 
$GPGSV,7,2,27,14,21,315,22,15,11,166,22,17,9,33,18,19,24,44,15*41
 
$GPGSV,7,3,27,24,58,106,24,25,47,245,27,29,5,187,11,32,41,299,26*42
 
$GLGSV,7,4,27,65,36,293,23,66,8,345,18,72,28,233,21,73,24,78,18*65
 
$GLGSV,7,5,27,74,67,2,15,75,31,287,,83,36,52,14,84,34,123,21*5F
 
$BDGSV,7,6,27,205,10,109,12,207,5,,,208,17,29,,211,5,,*51
 
$BDGSV,7,7,27,212,9,176,,213,5,,,214,19,241,*58
 
$GPRMC,160808.00,A,4825.1297,N,00428.3293,W,1.483,234.329,040317,,E,A*0F
 
$GPGGA,160809.00,4825.1298,N,00428.3301,W,1,16,0.661,138.296,M,,M,0,*51
 
$GNGSA,A,3,6,10,12,14,15,17,19,24,25,32,65,72,73,74,83,84,,,,,1.176,0.661,0.972*1D
 
$GPGSA,A,3,6,10,12,14,15,17,19,24,25,32,,,,,,,,,,,1.176,0.661,0.972*05
 
$GLGSA,A,3,65,72,73,74,83,84,,,,,,,,,,,,,,,1.176,0.661,0.972*24
 
$BDGSA,A,3,,,,,,,,,,,,,,,,,,,,,1.176,0.661,0.972*2F
 
$QZGSA,A,3,,,,,,,,,,,,,,,,,,,,,1.176,0.661,0.972*22
 
$GPGSV,7,1,27,4,5,,,6,9,75,22,10,12,257,19,12,85,29,24*4F
 
$GPGSV,7,2,27,14,21,315,18,15,11,166,22,17,9,33,19,19,24,44,15*49
 
$GPGSV,7,3,27,24,58,106,23,25,47,245,30,29,5,187,10,32,41,299,27*43
 
$GLGSV,7,4,27,65,36,293,20,66,8,345,19,72,28,233,22,73,24,78,21*6E
 
$GLGSV,7,5,27,74,67,2,15,75,31,287,,83,36,52,13,84,34,123,19*53
 
$BDGSV,7,6,27,205,10,109,12,207,5,,,208,17,29,,211,5,,*51
 
$BDGSV,7,7,27,212,9,176,,213,5,,,214,19,241,*58
 
$GPRMC,160809.00,A,4825.1298,N,00428.3301,W,1.571,248.504,040317,,E,A*05
 
$GPGGA,160810.00,4825.1299,N,00428.3313,W,1,16,0.661,139.096,M,,M,0,*58
 
$GNGSA,A,3,6,10,12,14,15,17,19,24,25,32,65,72,73,74,83,84,,,,,1.176,0.661,0.972*1D
 
$GPGSA,A,3,6,10,12,14,15,17,19,24,25,32,,,,,,,,,,,1.176,0.661,0.972*05
 
$GLGSA,A,3,65,72,73,74,83,84,,,,,,,,,,,,,,,1.176,0.661,0.972*24
 
$BDGSA,A,3,,,,,,,,,,,,,,,,,,,,,1.176,0.661,0.972*2F
 
$QZGSA,A,3,,,,,,,,,,,,,,,,,,,,,1.176,0.661,0.972*22
 
$GPGSV,7,1,27,4,5,,,6,9,75,21,10,12,257,18,12,85,29,23*4A
 
$GPGSV,7,2,27,14,21,315,19,15,11,166,23,17,9,33,16,19,24,44,17*44
 
$GPGSV,7,3,27,24,58,106,23,25,47,245,27,29,5,187,10,32,41,299,23*41
 
$GLGSV,7,4,27,65,36,293,19,66,8,345,18,72,28,233,18,73,24,78,20*6D
 
$GLGSV,7,5,27,74,67,2,15,75,31,287,,83,36,52,12,84,34,123,16*5D
 
$BDGSV,7,6,27,205,10,109,13,207,5,,,208,17,29,,211,5,,*50
 
$BDGSV,7,7,27,212,9,176,,213,5,,,214,19,241,*58
 
$GPRMC,160810.00,A,4825.1299,N,00428.3313,W,1.718,255.378,040317,,E,A*03
 
$GPGGA,160811.00,4825.1297,N,00428.3319,W,1,16,0.661,139.255,M,,M,0,*50
 
$GNGSA,A,3,6,10,12,14,15,17,19,24,25,32,65,72,73,74,83,84,,,,,1.176,0.661,0.972*1D
 
$GPGSA,A,3,6,10,12,14,15,17,19,24,25,32,,,,,,,,,,,1.176,0.661,0.972*05
 
$GLGSA,A,3,65,72,73,74,83,84,,,,,,,,,,,,,,,1.176,0.661,0.972*24
 
$BDGSA,A,3,,,,,,,,,,,,,,,,,,,,,1.176,0.661,0.972*2F
 
$QZGSA,A,3,,,,,,,,,,,,,,,,,,,,,1.176,0.661,0.972*22
 
$GPGSV,7,1,27,4,5,,,6,9,75,21,10,12,257,16,12,85,29,24*43
 
$GPGSV,7,2,27,14,21,315,19,15,11,166,24,17,9,33,16,19,24,44,17*43
 
$GPGSV,7,3,27,24,58,106,21,25,47,245,27,29,5,187,10,32,41,299,22*42
 
$GLGSV,7,4,27,65,36,293,19,66,8,345,18,72,28,233,20,73,24,78,19*6C
 
$GLGSV,7,5,27,74,67,2,15,75,31,287,10,83,36,52,11,84,34,123,19*50
 
$BDGSV,7,6,27,205,10,109,13,207,5,,,208,17,29,,211,5,,*50
 
$BDGSV,7,7,27,212,9,176,,213,5,,,214,19,241,*58
 
$GPRMC,160811.00,A,4825.1297,N,00428.3319,W,1.586,258.115,040317,,E,A*07
 
$GPGGA,160812.00,4825.1293,N,00428.3327,W,1,17,0.646,139.655,M,,M,0,*5A
 
$GNGSA,A,3,6,10,12,14,15,17,19,24,25,32,65,72,73,74,75,83,84,,,,1.166,0.646,0.971*18
 
$GPGSA,A,3,6,10,12,14,15,17,19,24,25,32,,,,,,,,,,,1.166,0.646,0.971*02
 
$GLGSA,A,3,65,72,73,74,75,83,84,,,,,,,,,,,,,,1.166,0.646,0.971*21
 
$BDGSA,A,3,,,,,,,,,,,,,,,,,,,,,1.166,0.646,0.971*28
 
$QZGSA,A,3,,,,,,,,,,,,,,,,,,,,,1.166,0.646,0.971*25
 
$GPGSV,7,1,27,4,5,,,6,9,75,22,10,12,257,14,12,85,29,23*45
 
$GPGSV,7,2,27,14,21,315,21,15,11,166,20,17,9,33,16,19,24,44,17*4C
 
$GPGSV,7,3,27,24,58,106,20,25,47,245,26,29,5,187,9,32,41,299,23*7B
 
$GLGSV,7,4,27,65,36,293,20,66,8,345,18,72,28,233,20,73,24,78,17*68
 
$GLGSV,7,5,27,74,67,2,14,75,31,287,15,83,36,52,10,84,34,123,18*54
 
$BDGSV,7,6,27,205,10,109,13,207,5,,,208,17,29,,211,5,,*50
 
$BDGSV,7,7,27,212,9,176,,213,5,,,214,19,241,*58
 
$GPRMC,160812.00,A,4825.1293,N,00428.3327,W,1.538,257.699,040317,,E,A*04
 
$GPGGA,160813.00,4825.1288,N,00428.3334,W,1,17,0.646,140.527,M,,M,0,*5B
 
$GNGSA,A,3,6,10,12,14,15,17,19,24,25,32,65,72,73,74,75,83,84,,,,1.166,0.646,0.971*18
 
$GPGSA,A,3,6,10,12,14,15,17,19,24,25,32,,,,,,,,,,,1.166,0.646,0.971*02
 
$GLGSA,A,3,65,72,73,74,75,83,84,,,,,,,,,,,,,,1.166,0.646,0.971*21
 
$BDGSA,A,3,,,,,,,,,,,,,,,,,,,,,1.166,0.646,0.971*28
 
$QZGSA,A,3,,,,,,,,,,,,,,,,,,,,,1.166,0.646,0.971*25
 
$GPGSV,7,1,27,4,5,,,6,9,75,22,10,12,257,14,12,85,29,23*45
 
$GPGSV,7,2,27,14,21,315,19,15,11,166,18,17,9,33,15,19,24,44,17*4F
 
$GPGSV,7,3,27,24,58,106,21,25,47,245,26,29,5,187,8,32,41,299,23*7B
 
$GLGSV,7,4,27,65,36,293,19,66,8,345,18,72,28,233,18,73,24,78,18*66
 
$GLGSV,7,5,27,74,67,2,14,75,31,287,19,83,36,52,12,84,34,123,16*54
 
$BDGSV,7,6,27,205,10,109,13,207,5,,,208,17,29,,211,5,,*50
 
$BDGSV,7,7,27,212,9,176,,213,5,,,214,19,241,*58
 
$GPRMC,160813.00,A,4825.1288,N,00428.3334,W,1.409,253.698,040317,,E,A*0B
 
$GPGGA,160814.00,4825.1286,N,00428.3346,W,1,17,0.646,140.647,M,,M,0,*52
 
$GNGSA,A,3,6,10,12,14,15,17,19,24,25,32,65,72,73,74,75,83,84,,,,1.166,0.646,0.971*18
 
$GPGSA,A,3,6,10,12,14,15,17,19,24,25,32,,,,,,,,,,,1.166,0.646,0.971*02
 
$GLGSA,A,3,65,72,73,74,75,83,84,,,,,,,,,,,,,,1.166,0.646,0.971*21
 
$BDGSA,A,3,,,,,,,,,,,,,,,,,,,,,1.166,0.646,0.971*28
 
$QZGSA,A,3,,,,,,,,,,,,,,,,,,,,,1.166,0.646,0.971*25
 
$GPGSV,7,1,27,4,5,,,6,9,75,17,10,12,257,15,12,85,29,23*42
 
$GPGSV,7,2,27,14,21,315,21,15,11,166,24,17,9,33,16,19,24,44,17*48
 
$GPGSV,7,3,27,24,58,106,20,25,47,245,26,29,5,187,8,32,41,299,23*7A
 
$GLGSV,7,4,27,65,36,293,19,66,8,345,18,72,28,233,19,73,24,78,19*66
 
$GLGSV,7,5,27,74,67,2,15,75,31,287,21,83,36,52,15,84,34,123,15*5A
 
$BDGSV,7,6,27,205,10,109,12,207,5,,,208,17,29,,211,5,,*51
 
$BDGSV,7,7,27,212,9,176,,213,5,,,214,19,241,*58
 
$GPRMC,160814.00,A,4825.1286,N,00428.3346,W,1.687,260.137,040317,,E,A*01
 
$GPGGA,160815.00,4825.1284,N,00428.3366,W,1,17,0.646,141.003,M,,M,0,*54
 
$GNGSA,A,3,6,10,12,14,15,17,19,24,25,32,65,72,73,74,75,83,84,,,,1.166,0.646,0.971*18
 
$GPGSA,A,3,6,10,12,14,15,17,19,24,25,32,,,,,,,,,,,1.166,0.646,0.971*02
 
$GLGSA,A,3,65,72,73,74,75,83,84,,,,,,,,,,,,,,1.166,0.646,0.971*21
 
$BDGSA,A,3,,,,,,,,,,,,,,,,,,,,,1.166,0.646,0.971*28
 
$QZGSA,A,3,,,,,,,,,,,,,,,,,,,,,1.166,0.646,0.971*25
 
$GPGSV,7,1,27,4,5,,,6,9,75,17,10,12,257,15,12,85,30,22*4B
 
$GPGSV,7,2,27,14,21,315,23,15,11,166,19,17,9,33,16,19,24,44,16*45
 
$GPGSV,7,3,27,24,58,106,19,25,47,245,25,29,5,187,9,32,41,299,24*75
 
$GLGSV,7,4,27,65,36,293,19,66,8,345,18,72,28,233,19,73,24,78,21*6D
 
$GLGSV,7,5,27,74,67,2,15,75,31,287,19,83,36,52,16,84,34,123,15*52
 
$BDGSV,7,6,27,205,10,109,12,207,5,,,208,17,29,,211,5,,*51
 
$BDGSV,7,7,27,212,9,176,,213,5,,,214,19,241,*58
 
$GPRMC,160815.00,A,4825.1284,N,00428.3366,W,2.289,260.328,040317,,E,A*05
 
$GPGGA,160816.00,4825.1282,N,00428.3383,W,1,17,0.646,141.637,M,,M,0,*5B
 
$GNGSA,A,3,6,10,12,14,15,17,19,24,25,32,65,72,73,74,75,83,84,,,,1.166,0.646,0.971*18
 
$GPGSA,A,3,6,10,12,14,15,17,19,24,25,32,,,,,,,,,,,1.166,0.646,0.971*02
 
$GLGSA,A,3,65,72,73,74,75,83,84,,,,,,,,,,,,,,1.166,0.646,0.971*21
 
$BDGSA,A,3,,,,,,,,,,,,,,,,,,,,,1.166,0.646,0.971*28
 
$QZGSA,A,3,,,,,,,,,,,,,,,,,,,,,1.166,0.646,0.971*25
 
$GPGSV,7,1,27,4,5,,,6,9,75,18,10,12,257,15,12,85,30,23*45
 
$GPGSV,7,2,27,14,21,315,16,15,11,166,18,17,9,33,15,19,24,44,16*41
 
$GPGSV,7,3,27,24,58,106,18,25,47,245,27,29,5,187,9,32,41,299,23*71
 
$GLGSV,7,4,27,65,36,293,19,66,8,345,18,72,28,233,18,73,24,78,20*6D
 
$GLGSV,7,5,27,74,67,2,15,75,31,287,18,83,36,52,18,84,34,123,14*5C
 
$BDGSV,7,6,27,205,10,109,10,207,5,,,208,17,29,,211,5,,*53
 
$BDGSV,7,7,27,212,9,176,,213,5,,,214,19,241,*58
 
$GPRMC,160816.00,A,4825.1282,N,00428.3383,W,2.445,260.388,040317,,E,A*07
 
$GPGGA,160817.00,4825.1279,N,00428.3407,W,1,17,0.646,141.814,M,,M,0,*5A
 
$GNGSA,A,3,6,10,12,14,15,17,19,24,25,32,65,72,73,74,75,83,84,,,,1.166,0.646,0.971*18
 
$GPGSA,A,3,6,10,12,14,15,17,19,24,25,32,,,,,,,,,,,1.166,0.646,0.971*02
 
$GLGSA,A,3,65,72,73,74,75,83,84,,,,,,,,,,,,,,1.166,0.646,0.971*21
 
$BDGSA,A,3,,,,,,,,,,,,,,,,,,,,,1.166,0.646,0.971*28
 
$QZGSA,A,3,,,,,,,,,,,,,,,,,,,,,1.166,0.646,0.971*25
 
$GPGSV,7,1,27,4,5,,,6,9,75,17,10,12,257,14,12,85,30,23*4B
 
$GPGSV,7,2,27,14,21,315,19,15,11,166,19,17,9,33,16,19,24,44,16*4C
 
$GPGSV,7,3,27,24,58,106,19,25,47,245,27,29,5,187,10,32,41,299,23*48
 
$GLGSV,7,4,27,65,36,293,19,66,8,345,19,72,28,233,17,73,24,78,21*62
 
$GLGSV,7,5,27,74,67,2,15,75,31,287,19,83,36,52,18,84,34,123,13*5A
 
$BDGSV,7,6,27,205,10,109,10,207,5,,,208,17,29,,211,5,,*53
 
$BDGSV,7,7,27,212,9,176,,213,5,,,214,19,241,*58
 
$GPRMC,160817.00,A,4825.1279,N,00428.3407,W,2.726,260.484,040317,,E,A*04
 
$GPGGA,160818.00,4825.1276,N,00428.3431,W,1,17,0.646,142.061,M,,M,0,*56
 
$GNGSA,A,3,6,10,12,14,15,17,19,24,25,32,65,72,73,74,75,83,84,,,,1.166,0.646,0.971*18
 
$GPGSA,A,3,6,10,12,14,15,17,19,24,25,32,,,,,,,,,,,1.166,0.646,0.971*02
 
$GLGSA,A,3,65,72,73,74,75,83,84,,,,,,,,,,,,,,1.166,0.646,0.971*21
 
$BDGSA,A,3,,,,,,,,,,,,,,,,,,,,,1.166,0.646,0.971*28
 
$QZGSA,A,3,,,,,,,,,,,,,,,,,,,,,1.166,0.646,0.971*25
 
$GPGSV,7,1,27,4,5,,,6,9,75,15,10,12,257,13,12,85,30,22*4F
 
$GPGSV,7,2,27,14,21,315,18,15,11,166,20,17,9,33,17,19,24,44,18*48
 
$GPGSV,7,3,27,24,58,106,19,25,47,245,29,29,5,187,11,32,41,299,25*41
 
$GLGSV,7,4,27,65,36,293,19,66,8,345,19,72,28,233,17,73,24,78,21*62
 
$GLGSV,7,5,27,74,67,3,16,75,31,287,19,83,36,52,18,84,34,123,14*5F
 
$BDGSV,7,6,27,205,10,109,11,207,5,,,208,17,29,,211,5,,*52
 
$BDGSV,7,7,27,212,9,176,,213,5,,,214,19,241,*58
 
$GPRMC,160818.00,A,4825.1276,N,00428.3431,W,2.808,261.634,040317,,E,A*0A
 
$GPGGA,160819.00,4825.1266,N,00428.3446,W,1,17,0.646,142.724,M,,M,0,*50
 
$GNGSA,A,3,6,10,12,14,15,17,19,24,25,32,65,72,73,74,75,83,84,,,,1.166,0.646,0.971*18
 
$GPGSA,A,3,6,10,12,14,15,17,19,24,25,32,,,,,,,,,,,1.166,0.646,0.971*02
 
$GLGSA,A,3,65,72,73,74,75,83,84,,,,,,,,,,,,,,1.166,0.646,0.971*21
 
$BDGSA,A,3,,,,,,,,,,,,,,,,,,,,,1.166,0.646,0.971*28
 
$QZGSA,A,3,,,,,,,,,,,,,,,,,,,,,1.166,0.646,0.971*25
 
$GPGSV,7,1,27,4,5,,,6,9,75,17,10,12,257,11,12,85,30,25*48
 
$GPGSV,7,2,27,14,21,315,17,15,11,166,19,17,9,33,17,19,24,44,18*4D
 
$GPGSV,7,3,27,24,58,106,20,25,47,245,28,29,5,187,12,32,41,299,23*4F
 
$GLGSV,7,4,27,65,36,293,19,66,8,345,19,72,28,233,17,73,24,78,21*62
 
$GLGSV,7,5,27,74,67,3,15,75,31,287,18,83,36,52,18,84,34,123,14*5D
 
$BDGSV,7,6,27,205,10,109,11,207,5,,,208,17,29,,211,5,,*52
 
$BDGSV,7,7,27,212,9,176,,213,5,,,214,19,241,*58
 
$GPRMC,160819.00,A,4825.1266,N,00428.3446,W,2.779,254.096,040317,,E,A*0B
 
$GPGGA,160820.00,4825.1265,N,00428.3465,W,1,17,0.646,142.862,M,,M,0,*55
 
$GNGSA,A,3,6,10,12,14,15,17,19,24,25,32,65,72,73,74,75,83,84,,,,1.166,0.646,0.971*18
 
$GPGSA,A,3,6,10,12,14,15,17,19,24,25,32,,,,,,,,,,,1.166,0.646,0.971*02
 
$GLGSA,A,3,65,72,73,74,75,83,84,,,,,,,,,,,,,,1.166,0.646,0.971*21
 
$BDGSA,A,3,,,,,,,,,,,,,,,,,,,,,1.166,0.646,0.971*28
 
$QZGSA,A,3,,,,,,,,,,,,,,,,,,,,,1.166,0.646,0.971*25
 
$GPGSV,7,1,27,4,5,,,6,9,75,18,10,12,257,11,12,85,30,22*40
 
$GPGSV,7,2,27,14,21,315,12,15,11,166,19,17,9,33,18,19,24,44,19*46
 
$GPGSV,7,3,27,24,58,106,20,25,47,245,26,29,5,187,11,32,41,299,22*43
 
$GLGSV,7,4,27,65,36,293,19,66,8,345,19,72,28,233,17,73,24,78,20*63
 
$GLGSV,7,5,27,74,67,3,16,75,31,287,18,83,36,52,17,84,34,123,16*53
 
$BDGSV,7,6,27,205,10,109,9,207,5,,,208,17,29,,211,5,,*6B
 
$BDGSV,7,7,27,212,9,176,,213,5,,,214,19,241,*58
 
$GPRMC,160820.00,A,4825.1265,N,00428.3465,W,2.710,256.882,040317,,E,A*03
 
$GPGGA,160821.00,4825.1276,N,00428.3488,W,1,17,0.646,143.828,M,,M,0,*5A
 
$GNGSA,A,3,6,10,12,14,15,17,19,24,25,32,65,72,73,74,75,83,84,,,,1.166,0.646,0.970*19
 
$GPGSA,A,3,6,10,12,14,15,17,19,24,25,32,,,,,,,,,,,1.166,0.646,0.970*03
 
$GLGSA,A,3,65,72,73,74,75,83,84,,,,,,,,,,,,,,1.166,0.646,0.970*20
 
$BDGSA,A,3,,,,,,,,,,,,,,,,,,,,,1.166,0.646,0.970*29
 
$QZGSA,A,3,,,,,,,,,,,,,,,,,,,,,1.166,0.646,0.970*24
 
$GPGSV,7,1,27,4,5,,,6,9,75,22,10,12,257,11,12,85,30,23*48
 
$GPGSV,7,2,27,14,21,315,12,15,11,166,21,17,9,33,19,19,24,44,19*4C
 
$GPGSV,7,3,27,24,58,106,20,25,47,245,27,29,5,187,12,32,41,299,23*40
 
$GLGSV,7,4,27,65,36,293,19,66,8,345,19,72,28,233,17,73,24,78,19*69
 
$GLGSV,7,5,27,74,67,3,15,75,31,287,18,83,36,52,17,84,34,123,17*51
 
$BDGSV,7,6,27,205,10,109,9,207,5,,,208,17,29,,211,5,,*6B
 
$BDGSV,7,7,27,212,9,176,16,213,5,,,214,19,241,16*58
 
$GPRMC,160821.00,A,4825.1276,N,00428.3488,W,2.789,269.640,040317,,E,A*0F
 
$GPGGA,160822.00,4825.1281,N,00428.3508,W,1,18,0.596,145.944,M,,M,0,*54
 
$GNGSA,A,3,6,10,12,14,15,17,19,24,25,32,212,65,72,73,74,75,83,84,,,1.106,0.596,0.932*26
 
$GPGSA,A,3,6,10,12,14,15,17,19,24,25,32,,,,,,,,,,,1.106,0.596,0.932*0D
 
$GLGSA,A,3,65,72,73,74,75,83,84,,,,,,,,,,,,,,1.106,0.596,0.932*2E
 
$BDGSA,A,3,212,,,,,,,,,,,,,,,,,,,,1.106,0.596,0.932*16
 
$QZGSA,A,3,,,,,,,,,,,,,,,,,,,,,1.106,0.596,0.932*2A
 
$GPGSV,7,1,27,4,5,,,6,9,75,20,10,12,257,12,12,85,30,24*4E
 
$GPGSV,7,2,27,14,21,315,11,15,11,166,20,17,9,33,20,19,24,44,18*45
 
$GPGSV,7,3,27,24,58,106,20,25,47,245,27,29,5,187,15,32,41,299,24*40
 
$GLGSV,7,4,27,65,36,293,18,66,8,345,18,72,28,233,16,73,24,78,18*69
 
$GLGSV,7,5,27,74,67,3,16,75,31,287,17,83,36,52,17,84,34,123,18*52
 
$BDGSV,7,6,27,205,10,109,8,207,5,,,208,17,29,,211,5,,*6A
 
$BDGSV,7,7,27,212,9,176,19,213,5,,,214,19,241,11*50
 
$GPRMC,160822.00,A,4825.1281,N,00428.3508,W,2.828,275.517,040317,,E,A*05
 
$GPGGA,160823.00,4825.1282,N,00428.3531,W,1,17,0.646,147.571,M,,M,0,*55
 
$GNGSA,A,3,6,10,12,14,15,17,19,24,25,32,65,72,73,74,75,83,84,,,,1.165,0.646,0.970*1A
 
$GPGSA,A,3,6,10,12,14,15,17,19,24,25,32,,,,,,,,,,,1.165,0.646,0.970*00
 
$GLGSA,A,3,65,72,73,74,75,83,84,,,,,,,,,,,,,,1.165,0.646,0.970*23
 
$BDGSA,A,3,,,,,,,,,,,,,,,,,,,,,1.165,0.646,0.970*2A
 
$QZGSA,A,3,,,,,,,,,,,,,,,,,,,,,1.165,0.646,0.970*27
 
$GPGSV,7,1,27,4,5,,,6,9,75,19,10,12,257,12,12,85,30,24*44
 
$GPGSV,7,2,27,14,21,315,11,15,11,166,20,17,9,33,20,19,24,44,18*45
 
$GPGSV,7,3,27,24,58,106,20,25,47,245,27,29,5,187,15,32,41,299,22*46
 
$GLGSV,7,4,27,65,36,293,17,66,8,345,25,72,28,233,17,73,24,78,17*66
 
$GLGSV,7,5,27,74,67,3,15,75,31,287,17,83,36,52,17,84,34,123,18*51
 
$BDGSV,7,6,27,205,10,109,8,207,5,,,208,17,29,,211,5,,*6A
 
$BDGSV,7,7,27,212,9,176,18,213,5,,,214,19,241,9*68
 
$GPRMC,160823.00,A,4825.1282,N,00428.3531,W,2.905,275.951,040317,,E,A*0D
 
$GPGGA,160824.00,4825.1278,N,00428.3542,W,1,17,0.646,148.670,M,,M,0,*5E
 
$GNGSA,A,3,6,10,12,14,15,17,19,24,25,32,65,72,73,74,75,83,84,,,,1.165,0.646,0.970*1A
 
$GPGSA,A,3,6,10,12,14,15,17,19,24,25,32,,,,,,,,,,,1.165,0.646,0.970*00
 
$GLGSA,A,3,65,72,73,74,75,83,84,,,,,,,,,,,,,,1.165,0.646,0.970*23
 
$BDGSA,A,3,,,,,,,,,,,,,,,,,,,,,1.165,0.646,0.970*2A
 
$QZGSA,A,3,,,,,,,,,,,,,,,,,,,,,1.165,0.646,0.970*27
 
$GPGSV,7,1,27,4,5,,,6,9,75,20,10,12,257,12,12,85,30,24*4E
 
$GPGSV,7,2,27,14,21,315,11,15,11,166,19,17,9,33,21,19,24,44,18*4E
 
$GPGSV,7,3,27,24,58,106,19,25,47,245,26,29,5,187,15,32,41,299,21*4E
 
$GLGSV,7,4,27,65,36,293,17,66,8,345,21,72,28,233,16,73,24,78,17*63
 
$GLGSV,7,5,27,74,67,3,15,75,31,287,16,83,36,52,17,84,34,123,18*50
 
$BDGSV,7,6,27,205,10,109,9,207,5,,,208,17,29,,211,5,,*6B
 
$BDGSV,7,7,27,212,9,176,18,213,5,,,214,19,241,11*51
 
$GPRMC,160824.00,A,4825.1278,N,00428.3542,W,2.426,275.090,040317,,E,A*03
 
$GPGGA,160825.00,4825.1262,N,00428.3569,W,1,17,0.646,152.150,M,,M,0,*53
 
$GNGSA,A,3,6,10,12,14,15,17,19,24,25,32,65,72,73,74,75,83,84,,,,1.165,0.646,0.970*1A
 
$GPGSA,A,3,6,10,12,14,15,17,19,24,25,32,,,,,,,,,,,1.165,0.646,0.970*00
 
$GLGSA,A,3,65,72,73,74,75,83,84,,,,,,,,,,,,,,1.165,0.646,0.970*23
 
$BDGSA,A,3,,,,,,,,,,,,,,,,,,,,,1.165,0.646,0.970*2A
 
$QZGSA,A,3,,,,,,,,,,,,,,,,,,,,,1.165,0.646,0.970*27
 
$GPGSV,7,1,27,4,5,,,6,9,75,21,10,12,257,10,12,85,30,26*4F
 
$GPGSV,7,2,27,14,21,315,11,15,11,166,17,17,9,33,24,19,24,44,18*45
 
$GPGSV,7,3,27,24,58,106,18,25,47,245,27,29,5,187,16,32,41,299,21*4D
 
$GLGSV,7,4,27,65,36,293,16,66,8,345,20,72,28,233,15,73,24,78,17*60
 
$GLGSV,7,5,27,74,67,3,15,75,31,287,16,83,36,52,18,84,34,123,17*50
 
$BDGSV,7,6,27,205,10,109,9,207,5,,,208,17,29,,211,5,,*6B
 
$BDGSV,7,7,27,212,9,176,17,213,5,,,214,19,241,11*5E
 
$GPRMC,160825.00,A,4825.1262,N,00428.3569,W,2.500,263.086,040317,,E,A*05
 
$GPGGA,160826.00,4825.1264,N,00428.3584,W,1,17,0.646,153.091,M,,M,0,*58
 
$GNGSA,A,3,6,10,12,14,15,17,19,24,25,32,65,72,73,74,75,83,84,,,,1.165,0.646,0.970*1A
 
$GPGSA,A,3,6,10,12,14,15,17,19,24,25,32,,,,,,,,,,,1.165,0.646,0.970*00
 
$GLGSA,A,3,65,72,73,74,75,83,84,,,,,,,,,,,,,,1.165,0.646,0.970*23
 
$BDGSA,A,3,,,,,,,,,,,,,,,,,,,,,1.165,0.646,0.970*2A
 
$QZGSA,A,3,,,,,,,,,,,,,,,,,,,,,1.165,0.646,0.970*27
 
$GPGSV,6,1,24,4,5,,,6,9,75,21,10,12,257,10,12,85,30,25*4E
 
$GPGSV,6,2,24,14,21,315,12,15,11,166,16,17,9,33,22,19,24,44,18*43
 
$GPGSV,6,3,24,24,58,106,18,25,47,245,26,29,5,187,16,32,41,299,20*4F
 
$GLGSV,6,4,24,65,36,293,15,66,8,345,18,72,28,233,15,73,24,78,18*65
 
$GLGSV,6,5,24,74,67,3,16,75,31,287,14,83,36,52,18,84,34,123,17*53
 
$BDGSV,6,6,24,205,10,109,12,208,17,29,,212,9,176,17,214,19,241,10*63
 
$GPRMC,160826.00,A,4825.1264,N,00428.3584,W,2.267,269.377,040317,,E,A*02
 
$GPGGA,160827.00,4825.1250,N,00428.3593,W,1,17,0.646,154.571,M,,M,0,*54
 
$GNGSA,A,3,6,10,12,14,15,17,19,24,25,32,65,72,73,74,75,83,84,,,,1.165,0.646,0.970*1A
 
$GPGSA,A,3,6,10,12,14,15,17,19,24,25,32,,,,,,,,,,,1.165,0.646,0.970*00
 
$GLGSA,A,3,65,72,73,74,75,83,84,,,,,,,,,,,,,,1.165,0.646,0.970*23
 
$BDGSA,A,3,,,,,,,,,,,,,,,,,,,,,1.165,0.646,0.970*2A
 
$QZGSA,A,3,,,,,,,,,,,,,,,,,,,,,1.165,0.646,0.970*27
 
$GPGSV,6,1,24,4,5,,,6,9,75,23,10,11,257,11,12,85,30,22*49
 
$GPGSV,6,2,24,14,21,315,13,15,11,166,16,17,9,33,23,19,24,44,18*43
 
$GPGSV,6,3,24,24,58,106,18,25,47,245,27,29,5,187,15,32,41,299,21*4C
 
$GLGSV,6,4,24,65,36,293,15,66,8,345,21,72,28,233,16,73,24,78,18*6C
 
$GLGSV,6,5,24,74,67,3,16,75,31,287,14,83,36,52,18,84,34,123,17*53
 
$BDGSV,6,6,24,205,10,109,12,208,17,29,,212,9,176,16,214,19,241,9*5A
 
$GPRMC,160827.00,A,4825.1250,N,00428.3593,W,1.853,256.187,040317,,E,A*0D
 
$GPGGA,160828.00,4825.1243,N,00428.3613,W,1,17,0.646,156.547,M,,M,0,*55
 
$GNGSA,A,3,6,10,12,14,15,17,19,24,25,32,65,72,73,74,75,83,84,,,,1.165,0.646,0.970*1A
 
$GPGSA,A,3,6,10,12,14,15,17,19,24,25,32,,,,,,,,,,,1.165,0.646,0.970*00
 
$GLGSA,A,3,65,72,73,74,75,83,84,,,,,,,,,,,,,,1.165,0.646,0.970*23
 
$BDGSA,A,3,,,,,,,,,,,,,,,,,,,,,1.165,0.646,0.970*2A
 
$QZGSA,A,3,,,,,,,,,,,,,,,,,,,,,1.165,0.646,0.970*27
 
$GPGSV,6,1,24,4,5,,,6,9,75,23,10,11,257,10,12,85,30,23*49
 
$GPGSV,6,2,24,14,21,315,15,15,11,166,16,17,9,33,21,19,24,44,18*47
 
$GPGSV,6,3,24,24,58,106,18,25,47,245,27,29,5,187,16,32,41,299,23*4D
 
$GLGSV,6,4,24,65,36,293,14,66,8,345,19,72,28,233,16,73,24,78,19*67
 
$GLGSV,6,5,24,74,67,3,16,75,31,287,14,83,36,52,19,84,34,123,17*52
 
$BDGSV,6,6,24,205,10,109,10,208,17,29,,212,9,176,16,214,19,241,10*60
 
$GPRMC,160828.00,A,4825.1243,N,00428.3613,W,1.883,252.618,040317,,E,A*03
 
$GPGGA,160829.00,4825.1245,N,00428.3630,W,1,17,0.646,157.862,M,,M,0,*58
 
$GNGSA,A,3,6,10,12,14,15,17,19,24,25,32,65,72,73,74,75,83,84,,,,1.165,0.646,0.970*1A
 
$GPGSA,A,3,6,10,12,14,15,17,19,24,25,32,,,,,,,,,,,1.165,0.646,0.970*00
 
$GLGSA,A,3,65,72,73,74,75,83,84,,,,,,,,,,,,,,1.165,0.646,0.970*23
 
$BDGSA,A,3,,,,,,,,,,,,,,,,,,,,,1.165,0.646,0.970*2A
 
$QZGSA,A,3,,,,,,,,,,,,,,,,,,,,,1.165,0.646,0.970*27
 
$GPGSV,6,1,24,4,5,,,6,9,75,18,10,11,257,11,12,85,30,22*41
 
$GPGSV,6,2,24,14,21,315,15,15,11,166,16,17,9,33,23,19,24,44,18*45
 
$GPGSV,6,3,24,24,58,106,18,25,47,245,27,29,5,187,15,32,41,299,20*4D
 
$GLGSV,6,4,24,65,36,293,14,66,8,345,18,72,28,233,18,73,24,78,19*68
 
$GLGSV,6,5,24,74,67,3,16,75,31,287,14,83,36,52,18,84,34,123,18*5C
 
$BDGSV,6,6,24,205,10,109,10,208,17,29,,212,9,176,16,214,19,241,9*58
 
$GPRMC,160829.00,A,4825.1245,N,00428.3630,W,1.942,261.945,040317,,E,A*0E
 
$GPGGA,160830.00,4825.1233,N,00428.3638,W,1,17,0.646,159.546,M,,M,0,*5C
 
$GNGSA,A,3,6,10,12,14,15,17,19,24,25,32,65,72,73,74,75,83,84,,,,1.165,0.646,0.970*1A
 
$GPGSA,A,3,6,10,12,14,15,17,19,24,25,32,,,,,,,,,,,1.165,0.646,0.970*00
 
$GLGSA,A,3,65,72,73,74,75,83,84,,,,,,,,,,,,,,1.165,0.646,0.970*23
 
$BDGSA,A,3,,,,,,,,,,,,,,,,,,,,,1.165,0.646,0.970*2A
 
$QZGSA,A,3,,,,,,,,,,,,,,,,,,,,,1.165,0.646,0.970*27
 
$GPGSV,6,1,24,4,5,,,6,9,75,21,10,11,257,13,12,85,30,24*4F
 
$GPGSV,6,2,24,14,21,315,15,15,11,166,15,17,9,33,23,19,24,44,18*46
 
$GPGSV,6,3,24,24,58,106,19,25,47,245,26,29,5,187,15,32,42,299,23*4D
 
$GLGSV,6,4,24,65,36,293,15,66,8,345,17,72,28,233,19,73,24,78,19*67
 
$GLGSV,6,5,24,74,67,3,16,75,31,287,15,83,36,52,18,84,34,123,18*5D
 
$BDGSV,6,6,24,205,10,109,9,208,17,29,,212,9,176,15,214,19,241,9*63
 
$GPRMC,160830.00,A,4825.1233,N,00428.3638,W,1.739,250.683,040317,,E,A*0A
 
$GPGGA,160831.00,4825.1239,N,00428.3653,W,1,17,0.645,161.464,M,,M,0,*53
 
$GNGSA,A,3,6,10,12,14,15,17,19,24,25,32,65,72,73,74,75,83,84,,,,1.165,0.645,0.970*19
 
$GPGSA,A,3,6,10,12,14,15,17,19,24,25,32,,,,,,,,,,,1.165,0.645,0.970*03
 
$GLGSA,A,3,65,72,73,74,75,83,84,,,,,,,,,,,,,,1.165,0.645,0.970*20
 
$BDGSA,A,3,,,,,,,,,,,,,,,,,,,,,1.165,0.645,0.970*29
 
$QZGSA,A,3,,,,,,,,,,,,,,,,,,,,,1.165,0.645,0.970*24
 
$GPGSV,7,1,27,4,5,,,6,9,75,23,10,11,257,15,12,85,30,24*49
 
$GPGSV,7,2,27,14,21,315,16,15,11,166,14,17,9,33,23,19,24,44,17*49
 
$GPGSV,7,3,27,24,58,106,18,25,47,245,28,29,5,187,14,32,42,299,23*41
 
$GLGSV,7,4,27,65,36,293,16,66,8,345,17,72,28,233,19,73,24,78,18*67
 
$GLGSV,7,5,27,74,67,3,16,75,31,287,16,83,36,52,17,84,34,123,17*5C
 
$BDGSV,7,6,27,205,10,109,9,207,5,,,208,17,29,,211,5,,*6B
 
$BDGSV,7,7,27,212,9,176,16,213,5,,,214,19,241,10*5E
 
$GPRMC,160831.00,A,4825.1239,N,00428.3653,W,1.526,270.188,040317,,E,A*0E
 
$GPGGA,160832.00,4825.1245,N,00428.3666,W,1,17,0.645,162.703,M,,M,0,*5C
 
$GNGSA,A,3,6,10,12,14,15,17,19,24,25,32,65,72,73,74,75,83,84,,,,1.165,0.645,0.970*19
 
$GPGSA,A,3,6,10,12,14,15,17,19,24,25,32,,,,,,,,,,,1.165,0.645,0.970*03
 
$GLGSA,A,3,65,72,73,74,75,83,84,,,,,,,,,,,,,,1.165,0.645,0.970*20
 
$BDGSA,A,3,,,,,,,,,,,,,,,,,,,,,1.165,0.645,0.970*29
 
$QZGSA,A,3,,,,,,,,,,,,,,,,,,,,,1.165,0.645,0.970*24
 
$GPGSV,7,1,27,4,5,,,6,9,75,19,10,11,257,15,12,84,30,22*47
 
$GPGSV,7,2,27,14,21,315,17,15,11,166,13,17,9,33,22,19,24,44,17*4E
 
$GPGSV,7,3,27,24,58,106,18,25,47,245,26,29,5,187,12,32,42,299,23*49
 
$GLGSV,7,4,27,65,36,293,16,66,8,345,17,72,28,233,19,73,24,78,19*66
 
$GLGSV,7,5,27,74,67,3,16,75,31,287,16,83,36,52,17,84,34,123,16*5D
 
$BDGSV,7,6,27,205,10,109,8,207,5,,,208,17,29,,211,5,,*6A
 
$BDGSV,7,7,27,212,9,176,17,213,5,,,214,19,241,10*5F
 
$GPRMC,160832.00,A,4825.1245,N,00428.3666,W,1.681,283.033,040317,,E,A*03
 
$GPGGA,160833.00,4825.1251,N,00428.3679,W,1,17,0.645,163.208,M,,M,0,*59
 
$GNGSA,A,3,6,10,12,14,15,17,19,24,25,32,65,72,73,74,75,83,84,,,,1.165,0.645,0.970*19
 
$GPGSA,A,3,6,10,12,14,15,17,19,24,25,32,,,,,,,,,,,1.165,0.645,0.970*03
 
$GLGSA,A,3,65,72,73,74,75,83,84,,,,,,,,,,,,,,1.165,0.645,0.970*20
 
$BDGSA,A,3,,,,,,,,,,,,,,,,,,,,,1.165,0.645,0.970*29
 
$QZGSA,A,3,,,,,,,,,,,,,,,,,,,,,1.165,0.645,0.970*24
 
$GPGSV,7,1,27,4,5,,,6,9,75,20,10,11,256,15,12,84,30,21*4F
 
$GPGSV,7,2,27,14,21,315,16,15,11,166,13,17,9,33,26,19,24,44,18*44
 
$GPGSV,7,3,27,24,58,106,18,25,47,245,26,29,5,187,11,32,42,299,21*48
 
$GLGSV,7,4,27,65,36,293,17,66,8,345,22,72,28,233,18,73,24,78,23*69
 
$GLGSV,7,5,27,74,67,3,16,75,31,287,17,83,36,52,17,84,34,123,15*5F
 
$BDGSV,7,6,27,205,10,109,8,207,5,,,208,17,29,,211,5,,*6A
 
$BDGSV,7,7,27,212,9,176,16,213,5,,,214,19,241,8*67
 
$GPRMC,160833.00,A,4825.1251,N,00428.3679,W,1.710,300.382,040317,,E,A*03
 
$GPGGA,160834.00,4825.1258,N,00428.3697,W,1,18,0.596,163.897,M,,M,0,*59
 
$GNGSA,A,3,6,10,12,14,15,17,19,24,25,32,212,65,72,73,74,75,83,84,,,1.106,0.596,0.931*25
 
$GPGSA,A,3,6,10,12,14,15,17,19,24,25,32,,,,,,,,,,,1.106,0.596,0.931*0E
 
$GLGSA,A,3,65,72,73,74,75,83,84,,,,,,,,,,,,,,1.106,0.596,0.931*2D
 
$BDGSA,A,3,212,,,,,,,,,,,,,,,,,,,,1.106,0.596,0.931*15
 
$QZGSA,A,3,,,,,,,,,,,,,,,,,,,,,1.106,0.596,0.931*29
 
$GPGSV,7,1,27,4,5,,,6,9,75,22,10,11,256,15,12,84,30,23*4F
 
$GPGSV,7,2,27,14,21,315,16,15,11,166,14,17,9,33,22,19,24,44,18*47
 
$GPGSV,7,3,27,24,58,106,18,25,47,245,26,29,5,187,10,32,42,299,22*4A
 
$GLGSV,7,4,27,65,36,292,17,66,8,345,22,72,28,233,17,73,24,78,22*66
 
$GLGSV,7,5,27,74,67,3,16,75,31,287,17,83,36,52,18,84,34,123,15*50
 
$BDGSV,7,6,27,205,10,109,8,207,5,,,208,17,29,,211,5,,*6A
 
$BDGSV,7,7,27,212,9,176,16,213,5,,,214,19,241,8*67
 
