VTG,21.68,T,,M,0.00,N,0.0,K,D*35
 
$GPGGA,103049.000,4825.0835,N,00428.3977,W,2,11,0.8,94.5,M,52.0,M,2.8,0000*50
 
$GPGSA,A,3,03,32,06,09,31,23,17,01,11,12,19,,1.5,0.8,1.3*3E
 
$GPRMC,103049.000,A,4825.0835,N,00428.3977,W,0.00,21.68,060116,,,D*4A
 
$GPVTG,21.68,T,,M,0.00,N,0.0,K,D*35
 
$GPGGA,103050.000,4825.0835,N,00428.3977,W,2,11,0.8,94.5,M,52.0,M,1.8,0000*5B
 
$GPGSA,A,3,03,32,06,09,31,23,17,01,11,12,19,,1.5,0.8,1.3*3E
 
$GPGSV,3,1,12,32,20,073,36,03,56,067,34,06,36,303,32,09,36,198,45*73
 
$GPGSV,3,2,12,31,15,042,29,01,30,129,27,17,45,241,50,23,66,155,39*72
 
$GPGSV,3,3,12,11,12,146,18,19,44,225,45,12,05,325,48,49,33,167,42*7A
 
$GPRMC,103050.000,A,4825.0835,N,00428.3977,W,0.00,21.68,060116,,,D*42
 
$GPVTG,21.68,T,,M,0.00,N,0.0,K,D*35
 
$GPGGA,103051.000,4825.0835,N,00428.3977,W,2,11,0.8,94.5,M,52.0,M,1.8,0000*5A
 
$GPGSA,A,3,03,32,06,09,31,23,17,01,11,12,19,,1.5,0.8,1.3*3E
 
$GPRMC,103051.000,A,4825.0835,N,00428.3977,W,0.00,21.68,060116,,,D*43
 
$GPVTG,21.68,T,,M,0.00,N,0.0,K,D*35
 
$GPGGA,103052.000,4825.0835,N,00428.3977,W,2,11,0.8,94.5,M,52.0,M,1.8,0000*59
 
$GPGSA,A,3,03,32,06,09,31,23,17,01,11,12,19,,1.5,0.8,1.3*3E
 
$GPRMC,103052.000,A,4825.0835,N,00428.3977,W,0.00,21.68,060116,,,D*40
 
$GPVTG,21.68,T,,M,0.00,N,0.0,K,D*35
 
$GPGGA,103053.000,4825.0812,N,00428.3928,W,2,11,0.8,106.5,M,52.0,M,2.8,0000*6E
 
$GPGSA,A,3,03,32,06,09,31,23,17,01,11,12,19,,1.5,0.8,1.3*3E
 
$GPGSV,3,1,12,32,20,073,48,03,56,067,44,06,36,303,40,09,36,198,34*7E
 
$GPGSV,3,2,12,31,15,042,27,01,30,129,26,17,45,241,35,23,66,155,43*73
 
$GPGSV,3,3,12,11,12,146,27,19,44,225,37,12,05,325,37,49,33,167,43*7A
 
$GPRMC,103053.000,A,4825.0812,N,00428.3928,W,1.78,2.46,060116,,,D*7D
 
$GPVTG,2.46,T,,M,1.78,N,3.3,K,D*06
 
$GPGGA,103054.000,4825.0817,N,00428.3926,W,2,11,0.8,106.7,M,52.0,M,1.8,0000*63
 
$GPGSA,A,3,03,32,06,09,31,23,17,01,11,12,19,,1.5,0.8,1.3*3E
 
$GPRMC,103054.000,A,4825.0817,N,00428.3926,W,1.96,4.76,060116,,,D*74
 
$GPVTG,4.76,T,,M,1.96,N,3.6,K,D*06
 
$GPGGA,103055.000,4825.0823,N,00428.3924,W,2,11,0.8,106.8,M,52.0,M,1.8,0000*68
 
$GPGSA,A,3,03,32,06,09,31,23,17,01,11,12,19,,1.5,0.8,1.3*3E
 
$GPRMC,103055.000,A,4825.0823,N,00428.3924,W,2.36,4.85,060116,,,D*75
 
$GPVTG,4.85,T,,M,2.36,N,4.4,K,D*06
 
$GPGGA,103056.000,4825.0829,N,00428.3923,W,2,11,0.8,106.8,M,52.0,M,1.8,0000*66
 
$GPGSA,A,3,03,32,06,09,31,23,17,01,11,12,19,,1.5,0.8,1.3*3E
 
$GPGSV,3,1,12,32,20,073,45,03,56,067,45,06,36,303,39,09,36,198,34*7C
 
$GPGSV,3,2,12,31,15,042,28,01,30,129,26,17,45,241,37,23,66,155,44*79
 
$GPGSV,3,3,12,11,12,146,27,19,44,225,30,12,05,325,36,49,33,167,37*7F
 
$GPRMC,103056.000,A,4825.0829,N,00428.3923,W,2.16,358.52,060116,,,D*79
 
$GPVTG,358.52,T,,M,2.16,N,4.0,K,D*00
 
$GPGGA,103057.000,4825.0835,N,00428.3922,W,2,10,0.8,106.8,M,52.0,M,2.8,0000*69
 
$GPGSA,A,3,03,32,06,09,31,23,17,11,12,19,,,1.5,0.8,1.3*3F
 
$GPRMC,103057.000,A,4825.0835,N,00428.3922,W,2.06,354.99,060116,,,D*7E
 
$GPVTG,354.99,T,,M,2.06,N,3.8,K,D*05
 
$GPGGA,103058.000,4825.0841,N,00428.3923,W,2,10,0.8,106.6,M,52.0,M,3.8,0000*6B
 
$GPGSA,A,3,03,32,06,09,31,23,17,11,12,19,,,1.5,0.8,1.3*3F
 
$GPRMC,103058.000,A,4825.0841,N,00428.3923,W,2.42,354.42,060116,,,D*75
 
$GPVTG,354.42,T,,M,2.42,N,4.5,K,D*09
 
$GPGGA,103059.000,4825.0847,N,00428.3924,W,2,11,0.8,106.8,M,52.0,M,4.8,0000*63
 
$GPGSA,A,3,03,32,06,09,31,23,17,01,11,12,19,,1.5,0.8,1.3*3E
 
$GPGSV,3,1,12,32,20,073,26,03,56,067,45,06,36,303,39,09,36,198,27*7B
 
$GPGSV,3,2,12,31,15,042,20,01,30,129,35,17,45,241,37,23,66,155,43*74
 
$GPGSV,3,3,12,11,12,146,14,19,44,225,31,12,05,325,32,49,33,167,31*7C
 
$GPRMC,103059.000,A,4825.0847,N,00428.3924,W,2.33,352.87,060116,,,D*7C
 
$GPVTG,352.87,T,,M,2.33,N,4.3,K,D*06
 
$GPGGA,103100.000,4825.0855,N,00428.3928,W,2,11,0.8,107.3,M,52.0,M,5.8,0000*6A
 
$GPGSA,A,3,03,32,06,09,31,23,17,01,11,12,19,,1.5,0.8,1.3*3E
 
$GPRMC,103100.000,A,4825.0855,N,00428.3928,W,2.28,0.67,060116,,,D*7E
 
$GPVTG,0.67,T,,M,2.28,N,4.2,K,D*07
 
$GPGGA,103101.000,4825.0863,N,00428.3930,W,2,11,0.8,107.6,M,52.0,M,6.8,0000*61
 
$GPGSA,A,3,03,32,06,09,31,23,17,01,11,12,19,,1.5,0.8,1.3*3E
 
$GPRMC,103101.000,A,4825.0863,N,00428.3930,W,2.32,1.46,060116,,,D*7A
 
$GPVTG,1.46,T,,M,2.32,N,4.3,K,D*0F
 
$GPGGA,103102.000,4825.0871,N,00428.3932,W,2,11,0.8,107.6,M,52.0,M,7.8,0000*62
 
$GPGSA,A,3,03,32,06,09,31,23,17,01,11,12,19,,1.5,0.8,1.3*3E
 
$GPGSV,3,1,12,32,20,073,25,03,56,067,46,06,36,303,40,09,36,198,30*73
 
$GPGSV,3,2,12,31,15,042,24,01,30,129,43,17,45,241,38,23,66,155,42*7F
 
$GPGSV,3,3,12,11,12,146,17,19,44,225,31,12,05,325,34,49,33,167,37*7F
 
$GPRMC,103102.000,A,4825.0871,N,00428.3932,W,2.67,352.53,060116,,,D*79
 
$GPVTG,352.53,T,,M,2.67,N,4.9,K,D*04
 
$GPGGA,103103.000,4825.0878,N,00428.3935,W,2,11,0.8,107.5,M,52.0,M,1.8,0000*68
 
$GPGSA,A,3,03,32,06,09,31,23,17,01,11,12,19,,1.5,0.8,1.3*3E
 
$GPRMC,103103.000,A,4825.0878,N,00428.3935,W,2.43,355.32,060116,,,D*70
 
$GPVTG,355.32,T,,M,2.43,N,4.5,K,D*0E
 
$GPGGA,103104.000,4825.0886,N,00428.3938,W,2,11,0.8,107.4,M,52.0,M,1.8,0000*62
 
$GPGSA,A,3,03,32,06,09,31,23,17,01,11,12,19,,1.5,0.8,1.3*3E
 
$GPRMC,103104.000,A,4825.0886,N,00428.3938,W,2.49,350.35,060116,,,D*73
 
$GPVTG,350.35,T,,M,2.49,N,4.6,K,D*05
 
$GPGGA,103105.000,4825.0895,N,00428.3942,W,2,11,0.8,107.5,M,52.0,M,2.8,0000*6E
 
$GPGSA,A,3,03,32,06,09,31,23,17,01,11,12,19,,1.5,0.8,1.3*3E
 
$GPGSV,3,1,12,32,20,073,25,03,56,067,47,06,36,303,40,09,36,198,32*70
 
$GPGSV,3,2,12,31,15,042,24,01,30,129,44,17,45,241,39,23,66,155,42*79
 
$GPGSV,3,3,12,11,12,146,18,19,44,225,36,12,05,325,40,49,33,167,32*71
 
$GPRMC,103105.000,A,4825.0895,N,00428.3942,W,2.53,349.63,060116,,,D*7D
 
$GPVTG,349.63,T,,M,2.53,N,4.7,K,D*04
 
$GPGGA,103106.000,4825.0903,N,00428.3945,W,2,11,0.8,107.4,M,52.0,M,3.8,0000*64
 
$GPGSA,A,3,03,32,06,09,31,23,17,01,11,12,19,,1.5,0.8,1.3*3E
 
$GPRMC,103106.000,A,4825.0903,N,00428.3945,W,2.54,350.25,060116,,,D*7A
 
$GPVTG,350.25,T,,M,2.54,N,4.7,K,D*09
 
$GPGGA,103107.000,4825.0910,N,00428.3949,W,2,11,0.8,107.4,M,52.0,M,4.8,0000*6C
 
$GPGSA,A,3,03,32,06,09,31,23,17,01,11,12,19,,1.5,0.8,1.3*3E
 
$GPRMC,103107.000,A,4825.0910,N,00428.3949,W,2.49,349.70,060116,,,D*71
 
$GPVTG,349.70,T,,M,2.49,N,4.6,K,D*0C
 
$GPGGA,103108.000,4825.0918,N,00428.3952,W,2,11,0.8,107.5,M,52.0,M,1.8,0000*65
 
$GPGSA,A,3,03,32,06,09,31,23,17,01,11,12,19,,1.5,0.8,1.3*3E
 
$GPGSV,3,1,12,32,20,073,25,03,56,067,46,06,36,303,36,09,36,198,31*73
 
$GPGSV,3,2,12,31,15,042,26,01,30,129,45,17,45,241,39,23,66,155,43*7B
 
$GPGSV,3,3,12,11,12,146,19,19,44,225,35,12,05,325,39,49,33,167,34*7B
 
$GPRMC,103108.000,A,4825.0918,N,00428.3952,W,2.46,354.24,060116,,,D*7E
 
$GPVTG,354.24,T,,M,2.46,N,4.6,K,D*0E
 
$GPGGA,103109.000,4825.0926,N,00428.3955,W,2,11,0.8,107.4,M,52.0,M,2.8,0000*6C
 
$GPGSA,A,3,03,32,06,09,31,23,17,01,11,12,19,,1.5,0.8,1.3*3E
 
$GPRMC,103109.000,A,4825.0926,N,00428.3955,W,2.70,353.12,060116,,,D*72
 
$GPVTG,353.12,T,,M,2.70,N,5.0,K,D*0E
 
$GPGGA,103110.000,4825.0934,N,00428.3958,W,2,11,0.8,107.3,M,52.0,M,1.8,0000*6E
 
$GPGSA,A,3,03,32,06,09,31,23,17,01,11,12,19,,1.5,0.8,1.3*3E
 
$GPRMC,103110.000,A,4825.0934,N,00428.3958,W,2.74,351.06,060116,,,D*77
 
$GPVTG,351.06,T,,M,2.74,N,5.1,K,D*0C
 
$GPGGA,103111.000,4825.0943,N,00428.3961,W,2,11,0.8,107.2,M,52.0,M,2.8,0000*67
 
$GPGSA,A,3,03,32,06,09,31,23,17,01,11,12,19,,1.5,0.8,1.3*3E
 
$GPGSV,3,1,12,32,20,073,26,03,56,067,47,06,36,303,38,09,36,198,31*7F
 
$GPGSV,3,2,12,31,15,042,30,01,30,129,45,17,45,241,40,23,66,155,44*75
 
$GPGSV,3,3,12,11,12,146,24,19,44,225,37,12,05,325,40,49,33,167,34*79
 
$GPRMC,103111.000,A,4825.0943,N,00428.3961,W,2.80,350.65,060116,,,D*73
 
$GPVTG,350.65,T,,M,2.80,N,5.2,K,D*00
 
$GPGGA,103112.000,4825.0951,N,00428.3964,W,2,11,0.8,107.2,M,52.0,M,3.8,0000*63
 
$GPGSA,A,3,03,32,06,09,31,23,17,01,11,12,19,,1.5,0.8,1.3*3E
 
$GPRMC,103112.000,A,4825.0951,N,00428.3964,W,2.55,349.39,060116,,,D*7F
 
$GPVTG,349.39,T,,M,2.55,N,4.7,K,D*0D
 
$GPGGA,103113.000,4825.0958,N,00428.3966,W,2,11,0.8,107.0,M,52.0,M,4.8,0000*6C
 
$GPGSA,A,3,03,32,06,09,31,23,17,01,11,12,19,,1.5,0.8,1.3*3E
 
$GPRMC,103113.000,A,4825.0958,N,00428.3966,W,2.68,351.75,060116,,,D*7A
 
$GPVTG,351.75,T,,M,2.68,N,5.0,K,D*04
 
$GPGGA,103114.000,4825.0965,N,00428.3968,W,2,11,0.8,107.0,M,52.0,M,5.8,0000*6A
 
$GPGSA,A,3,03,32,06,09,31,23,17,01,11,12,19,,1.5,0.8,1.3*3E
 
$GPGSV,3,1,12,32,20,073,30,03,56,067,47,06,36,303,37,09,36,198,29*7E
 
$GPGSV,3,2,12,31,15,042,30,01,30,129,45,17,45,241,41,23,66,155,44*74
 
$GPGSV,3,3,12,11,12,146,26,19,44,225,37,12,05,325,40,49,33,167,33*7C
 
$GPRMC,103114.000,A,4825.0965,N,00428.3968,W,2.55,357.46,060116,,,D*75
 
$GPVTG,357.46,T,,M,2.55,N,4.7,K,D*0A
 
$GPGGA,103115.000,4825.0973,N,00428.3969,W,2,11,0.8,106.9,M,52.0,M,6.8,0000*66
 
$GPGSA,A,3,03,32,06,09,31,23,17,01,11,12,19,,1.5,0.8,1.3*3E
 
$GPRMC,103115.000,A,4825.0973,N,00428.3969,W,2.59,353.86,060116,,,D*76
 
$GPVTG,353.86,T,,M,2.59,N,4.8,K,D*01
 
$GPGGA,103116.000,4825.0980,N,00428.3971,W,2,11,0.8,106.6,M,52.0,M,7.8,0000*6E
 
$GPGSA,A,3,03,32,06,09,31,23,17,01,11,12,19,,1.5,0.8,1.3*3E
 
$GPRMC,103116.000,A,4825.0980,N,00428.3971,W,2.73,352.09,060116,,,D*7E
 
$GPVTG,352.09,T,,M,2.73,N,5.1,K,D*07
 
$GPGGA,103117.000,4825.0988,N,00428.3972,W,2,11,0.8,106.3,M,52.0,M,8.8,0000*6E
 
$GPGSA,A,3,03,32,06,09,31,23,17,01,11,12,19,,1.5,0.8,1.3*3E
 
$GPGSV,3,1,12,32,20,073,31,03,56,067,47,06,36,303,32,09,36,198,30*72
 
$GPGSV,3,2,12,31,15,042,38,01,30,129,44,17,45,241,42,23,66,155,45*7F
 
$GPGSV,3,3,12,11,12,146,33,19,44,225,37,12,05,325,40,49,33,167,33*78
 
$GPRMC,103117.000,A,4825.0988,N,00428.3972,W,2.79,352.32,060116,,,D*76
 
$GPVTG,352.32,T,,M,2.79,N,5.2,K,D*06
 
$GPGGA,103118.000,4825.0996,N,00428.3974,W,2,11,0.8,106.0,M,52.0,M,9.8,0000*6A
 
$GPGSA,A,3,03,32,06,09,31,23,17,01,11,12,19,,1.5,0.8,1.3*3E
 
$GPRMC,103118.000,A,4825.0996,N,00428.3974,W,2.73,349.76,060116,,,D*70
 
$GPVTG,349.76,T,,M,2.73,N,5.1,K,D*05
 
$GPGGA,161346.00,4825.1489,N,00428.4577,W,1,22,0.542,140.317,M,,M,0,*54
 
$GNGSA,A,3,2,6,10,12,14,15,19,24,25,29,32,208,212,214,65,72,73,74,75,83,1.043,0.542,0.890*18
 
$GPGSA,A,3,2,6,10,12,14,15,19,24,25,29,32,,,,,,,,,,1.043,0.542,0.890*32
 
$GLGSA,A,3,65,72,73,74,75,83,84,85,,,,,,,,,,,,,1.043,0.542,0.890*23
 
$BDGSA,A,3,208,212,214,,,,,,,,,,,,,,,,,,1.043,0.542,0.890*1B
 
$QZGSA,A,3,,,,,,,,,,,,,,,,,,,,,1.043,0.542,0.890*2A
 
$GPGSV,9,1,28,2,6,109,36,4,5,,,6,10,73,24,10,10,255,36*41
 
$GPGSV,9,2,28,12,82,36,36,14,23,314,31,15,9,166,32,17,7,32,16*7B
 
$GPGSV,9,3,28,19,22,43,26,24,56,108,33,25,50,247,38,29,7,187,37*70
 
$GPGSV,9,4,28,32,43,296,33*45
 
$GLGSV,9,5,28,65,36,289,35,66,10,343,12,72,26,231,22,73,22,80,28*51
 
$GLGSV,9,6,28,74,66,10,31,75,33,290,36,83,35,49,24,84,36,121,34*66
 
$GLGSV,9,7,28,85,5,163,32*6C
 
$BDGSV,9,8,28,205,10,109,23,208,16,29,17,211,5,,,212,11,176,26*5E
 
$BDGSV,9,9,28,213,5,,27,214,17,239,25*6C
 
$GPRMC,161346.00,A,4825.1489,N,00428.4577,W,2.288,252.205,040317,,E,A*0D
 
$GPGGA,161354.00,4825.1463,N,00428.4637,W,1,23,0.535,137.906,M,,M,0,*5F
 
$GNGSA,A,3,2,6,10,12,14,15,19,24,25,29,32,205,208,212,214,65,72,73,74,75,1.033,0.535,0.884*26
 
$GPGSA,A,3,2,6,10,12,14,15,19,24,25,29,32,,,,,,,,,,1.033,0.535,0.884*30
 
$GLGSA,A,3,65,72,73,74,75,83,84,85,,,,,,,,,,,,,1.033,0.535,0.884*21
 
$BDGSA,A,3,205,208,212,214,,,,,,,,,,,,,,,,,1.033,0.535,0.884*2E
 
$QZGSA,A,3,,,,,,,,,,,,,,,,,,,,,1.033,0.535,0.884*28
 
$GPGSV,9,1,28,2,6,109,33,4,5,,,6,10,73,29,10,10,255,34*4B
 
$GPGSV,9,2,28,12,82,37,37,14,23,314,33,15,9,166,26,17,7,32,22*7B
 
$GPGSV,9,3,28,19,22,43,34,24,56,108,34,25,50,247,40,29,7,187,31*7D
 
$GPGSV,9,4,28,32,43,296,38*4E
 
$GLGSV,9,5,28,65,36,289,35,66,10,343,30,72,26,231,27,73,22,80,23*5F
 
$GLGSV,9,6,28,74,66,11,34,75,33,290,40,83,35,49,35,84,36,121,24*62
 
$GLGSV,9,7,28,85,5,163,20*6F
 
$BDGSV,9,8,28,205,10,109,24,207,5,,,208,16,29,27,212,11,176,32*58
 
$BDGSV,9,9,28,213,5,,27,214,17,239,30*68
 
$GPRMC,161354.00,A,4825.1463,N,00428.4637,W,1.462,230.157,040317,,E,A*0C
 
$GPGGA,161355.00,4825.1462,N,00428.4639,W,1,23,0.535,137.665,M,,M,0,*5B
 
$GNGSA,A,3,2,6,10,12,14,15,19,24,25,29,32,205,208,212,214,65,72,73,74,75,1.033,0.535,0.884*26
 
$GPGSA,A,3,2,6,10,12,14,15,19,24,25,29,32,,,,,,,,,,1.033,0.535,0.884*30
 
$GLGSA,A,3,65,72,73,74,75,83,84,85,,,,,,,,,,,,,1.033,0.535,0.884*21
 
$BDGSA,A,3,205,208,212,214,,,,,,,,,,,,,,,,,1.033,0.535,0.884*2E
 
$QZGSA,A,3,,,,,,,,,,,,,,,,,,,,,1.033,0.535,0.884*28
 
$GPGSV,9,1,28,2,6,109,33,4,5,,,6,10,73,29,10,10,255,31*4E
 
$GPGSV,9,2,28,12,82,37,38,14,23,314,28,15,9,166,25,17,7,32,20*7F
 
$GPGSV,9,3,28,19,22,43,30,24,56,108,37,25,50,247,42,29,7,187,27*7F
 
$GPGSV,9,4,28,32,43,296,35*43
 
$GLGSV,9,5,28,65,36,289,33,66,10,343,31,72,26,231,24,73,22,80,29*51
 
$GLGSV,9,6,28,74,66,11,33,75,33,290,37,83,35,49,32,84,36,121,27*61
 
$GLGSV,9,7,28,85,5,163,24*6B
 
$BDGSV,9,8,28,205,10,109,24,207,5,,,208,16,29,29,212,11,176,33*57
 
$BDGSV,9,9,28,213,5,,26,214,17,239,24*6C
 
$GPRMC,161355.00,A,4825.1462,N,00428.4639,W,1.414,234.405,040317,,E,A*05
 
$GPGGA,161356.00,4825.1462,N,00428.4644,W,1,23,0.535,137.497,M,,M,0,*5D
 
$GNGSA,A,3,2,6,10,12,14,15,19,24,25,29,32,205,208,212,214,65,72,73,74,75,1.033,0.535,0.884*26
 
$GPGSA,A,3,2,6,10,12,14,15,19,24,25,29,32,,,,,,,,,,1.033,0.535,0.884*30
 
$GLGSA,A,3,65,72,73,74,75,83,84,85,,,,,,,,,,,,,1.033,0.535,0.884*21
 
$BDGSA,A,3,205,208,212,214,,,,,,,,,,,,,,,,,1.033,0.535,0.884*2E
 
$QZGSA,A,3,,,,,,,,,,,,,,,,,,,,,1.033,0.535,0.884*28
 
$GPGSV,9,1,29,2,6,109,34,4,5,,,6,10,73,26,10,10,255,31*47
 
$GPGSV,9,2,29,12,82,37,33,14,23,314,30,15,9,166,26,17,7,32,21*7E
 
$GPGSV,9,3,29,19,22,43,26,24,56,108,33,25,50,247,39,29,7,187,25*73
 
$GPGSV,9,4,29,32,43,296,34*43
 
$GLGSV,9,5,29,65,36,289,32,66,10,343,32,72,26,231,25,73,22,80,30*5B
 
$GLGSV,9,6,29,74,66,11,27,75,33,290,37,83,35,49,27,84,37,121,26*61
 
$GLGSV,9,7,29,85,5,163,24*6A
 
$BDGSV,9,8,29,205,10,109,24,207,5,,,208,16,29,28,211,5,,*51
 
$BDGSV,9,9,29,212,11,176,31,213,5,,22,214,17,239,22*6C
 
$GPRMC,161356.00,A,4825.1462,N,00428.4644,W,1.578,258.000,040317,,E,A*0C
 
$GPGGA,161357.00,4825.1461,N,00428.4649,W,1,23,0.535,137.419,M,,M,0,*54
 
$GNGSA,A,3,2,6,10,12,14,15,19,24,25,29,32,205,208,212,214,65,72,73,74,75,1.033,0.535,0.884*26
 
$GPGSA,A,3,2,6,10,12,14,15,19,24,25,29,32,,,,,,,,,,1.033,0.535,0.884*30
 
$GLGSA,A,3,65,72,73,74,75,83,84,85,,,,,,,,,,,,,1.033,0.535,0.884*21
 
$BDGSA,A,3,205,208,212,214,,,,,,,,,,,,,,,,,1.033,0.535,0.884*2E
 
$QZGSA,A,3,,,,,,,,,,,,,,,,,,,,,1.033,0.535,0.884*28
 
$GPGSV,9,1,29,2,6,109,32,4,5,,,6,10,73,29,10,10,255,26*48
 
$GPGSV,9,2,29,12,82,37,31,14,23,314,28,15,9,166,27,17,7,32,19*7F
 
$GPGSV,9,3,29,19,22,43,22,24,56,108,35,25,50,247,37,29,7,187,32*79
 
$GPGSV,9,4,29,32,43,296,34*43
 
$GLGSV,9,5,29,65,36,289,33,66,10,343,34,72,26,231,31,73,22,80,31*58
 
$GLGSV,9,6,29,74,66,11,27,75,33,290,33,83,35,49,27,84,37,121,30*62
 
$GLGSV,9,7,29,85,5,163,23*6D
 
$BDGSV,9,8,29,205,10,109,24,207,5,,,208,16,29,27,211,5,,*5E
 
$BDGSV,9,9,29,212,11,176,29,213,5,,26,214,17,239,21*62
 
$GPRMC,161357.00,A,4825.1461,N,00428.4649,W,1.840,241.784,040317,,E,A*06
 
$GPGGA,161358.00,4825.1458,N,00428.4655,W,1,23,0.535,137.454,M,,M,0,*55
 
$GNGSA,A,3,2,6,10,12,14,15,19,24,25,29,32,205,208,212,214,65,72,73,74,75,1.033,0.535,0.884*26
 
$GPGSA,A,3,2,6,10,12,14,15,19,24,25,29,32,,,,,,,,,,1.033,0.535,0.884*30
 
$GLGSA,A,3,65,72,73,74,75,83,84,85,,,,,,,,,,,,,1.033,0.535,0.884*21
 
$BDGSA,A,3,205,208,212,214,,,,,,,,,,,,,,,,,1.033,0.535,0.884*2E
 
$QZGSA,A,3,,,,,,,,,,,,,,,,,,,,,1.033,0.535,0.884*28
 
$GPGSV,9,1,29,2,6,109,26,4,5,,,6,10,73,24,10,10,255,32*45
 
$GPGSV,9,2,29,12,82,37,31,14,23,314,32,15,9,166,31,17,7,32,21*78
 
$GPGSV,9,3,29,19,22,43,24,24,56,108,32,25,50,247,39,29,7,187,31*75
 
$GPGSV,9,4,29,32,43,296,31*46
 
$GLGSV,9,5,29,65,36,289,36,66,10,343,35,72,26,231,27,73,22,80,36*5C
 
$GLGSV,9,6,29,74,66,11,29,75,33,290,34,83,35,49,26,84,37,121,29*62
 
$GLGSV,9,7,29,85,5,163,25*6B
 
$BDGSV,9,8,29,205,10,109,23,207,5,,,208,16,29,28,211,5,,*56
 
$BDGSV,9,9,29,212,11,176,25,213,5,,30,214,17,239,25*6D
 
$GPRMC,161358.00,A,4825.1458,N,00428.4655,W,2.551,229.681,040317,,E,A*0A
 
$GPGGA,161359.00,4825.1450,N,00428.4662,W,1,23,0.534,137.721,M,,M,0,*58
 
$GNGSA,A,3,2,6,10,12,14,15,19,24,25,29,32,205,208,212,214,65,72,73,74,75,1.033,0.534,0.884*27
 
$GPGSA,A,3,2,6,10,12,14,15,19,24,25,29,32,,,,,,,,,,1.033,0.534,0.884*31
 
$GLGSA,A,3,65,72,73,74,75,83,84,85,,,,,,,,,,,,,1.033,0.534,0.884*20
 
$BDGSA,A,3,205,208,212,214,,,,,,,,,,,,,,,,,1.033,0.534,0.884*2F
 
$QZGSA,A,3,,,,,,,,,,,,,,,,,,,,,1.033,0.534,0.884*29
 
$GPGSV,9,1,29,2,6,109,28,4,5,,,6,10,73,29,10,10,255,32*46
 
$GPGSV,9,2,29,12,82,37,28,14,23,314,37,15,9,166,31,17,7,32,21*75
 
$GPGSV,9,3,29,19,22,43,24,24,56,108,34,25,50,247,39,29,7,187,34*76
 
$GPGSV,9,4,29,32,43,296,33*44
 
$GLGSV,9,5,29,65,36,289,33,66,10,343,36,72,26,231,32,73,22,80,36*5E
 
$GLGSV,9,6,29,74,66,11,29,75,33,290,38,83,35,49,27,84,37,121,28*6E
 
$GLGSV,9,7,29,85,5,163,23*6D
 
$BDGSV,9,8,29,205,10,109,23,207,5,,,208,16,29,27,211,5,,*59
 
$BDGSV,9,9,29,212,11,176,23,213,5,,29,214,17,239,24*62
 
$GPRMC,161359.00,A,4825.1450,N,00428.4662,W,3.006,222.800,040317,,E,A*0D
 
$GPGGA,161400.00,4825.1443,N,00428.4670,W,1,23,0.534,137.929,M,,M,0,*54
 
$GNGSA,A,3,2,6,10,12,14,15,19,24,25,29,32,205,208,212,214,65,72,73,74,75,1.033,0.534,0.884*27
 
$GPGSA,A,3,2,6,10,12,14,15,19,24,25,29,32,,,,,,,,,,1.033,0.534,0.884*31
 
$GLGSA,A,3,65,72,73,74,75,83,84,85,,,,,,,,,,,,,1.033,0.534,0.884*20
 
$BDGSA,A,3,205,208,212,214,,,,,,,,,,,,,,,,,1.033,0.534,0.884*2F
 
$QZGSA,A,3,,,,,,,,,,,,,,,,,,,,,1.033,0.534,0.884*29
 
$GPGSV,9,1,29,2,6,109,28,4,5,,,6,10,73,26,10,10,255,34*4F
 
$GPGSV,9,2,29,12,82,37,31,14,23,314,36,15,9,166,29,17,7,32,19*7E
 
$GPGSV,9,3,29,19,22,43,24,24,56,108,34,25,50,247,37,29,7,187,31*7D
 
$GPGSV,9,4,29,32,43,296,33*44
 
$GLGSV,9,5,29,65,36,289,33,66,10,343,36,72,26,231,31,73,22,80,35*5E
 
$GLGSV,9,6,29,74,66,11,29,75,33,290,35,83,35,49,27,84,37,121,28*63
 
$GLGSV,9,7,29,85,5,163,28*66
 
$BDGSV,9,8,29,205,10,109,22,207,5,,,208,16,29,28,211,5,,*57
 
