VTG,21.68,T,,M,0.00,N,0.0,K,D*35
 
$GPGGA,103049.000,4825.0835,N,00428.3977,W,2,11,0.8,94.5,M,52.0,M,2.8,0000*50
 
$GPGSA,A,3,03,32,06,09,31,23,17,01,11,12,19,,1.5,0.8,1.3*3E
 
$GPRMC,103049.000,A,4825.0835,N,00428.3977,W,0.00,21.68,060116,,,D*4A
 
$GPVTG,21.68,T,,M,0.00,N,0.0,K,D*35
 
$GPGGA,103050.000,4825.0835,N,00428.3977,W,2,11,0.8,94.5,M,52.0,M,1.8,0000*5B
 
$GPGSA,A,3,03,32,06,09,31,23,17,01,11,12,19,,1.5,0.8,1.3*3E
 
$GPGSV,3,1,12,32,20,073,36,03,56,067,34,06,36,303,32,09,36,198,45*73
 
$GPGSV,3,2,12,31,15,042,29,01,30,129,27,17,45,241,50,23,66,155,39*72
 
$GPGSV,3,3,12,11,12,146,18,19,44,225,45,12,05,325,48,49,33,167,42*7A
 
$GPRMC,103050.000,A,4825.0835,N,00428.3977,W,0.00,21.68,060116,,,D*42
 
$GPVTG,21.68,T,,M,0.00,N,0.0,K,D*35
 
$GPGGA,103051.000,4825.0835,N,00428.3977,W,2,11,0.8,94.5,M,52.0,M,1.8,0000*5A
 
$GPGSA,A,3,03,32,06,09,31,23,17,01,11,12,19,,1.5,0.8,1.3*3E
 
$GPRMC,103051.000,A,4825.0835,N,00428.3977,W,0.00,21.68,060116,,,D*43
 
$GPVTG,21.68,T,,M,0.00,N,0.0,K,D*35
 
$GPGGA,103052.000,4825.0835,N,00428.3977,W,2,11,0.8,94.5,M,52.0,M,1.8,0000*59
 
$GPGSA,A,3,03,32,06,09,31,23,17,01,11,12,19,,1.5,0.8,1.3*3E
 
$GPRMC,103052.000,A,4825.0835,N,00428.3977,W,0.00,21.68,060116,,,D*40
 
$GPVTG,21.68,T,,M,0.00,N,0.0,K,D*35
 
$GPGGA,103053.000,4825.0812,N,00428.3928,W,2,11,0.8,106.5,M,52.0,M,2.8,0000*6E
 
$GPGSA,A,3,03,32,06,09,31,23,17,01,11,12,19,,1.5,0.8,1.3*3E
 
$GPGSV,3,1,12,32,20,073,48,03,56,067,44,06,36,303,40,09,36,198,34*7E
 
$GPGSV,3,2,12,31,15,042,27,01,30,129,26,17,45,241,35,23,66,155,43*73
 
$GPGSV,3,3,12,11,12,146,27,19,44,225,37,12,05,325,37,49,33,167,43*7A
 
$GPRMC,103053.000,A,4825.0812,N,00428.3928,W,1.78,2.46,060116,,,D*7D
 
$GPVTG,2.46,T,,M,1.78,N,3.3,K,D*06
 
$GPGGA,103054.000,4825.0817,N,00428.3926,W,2,11,0.8,106.7,M,52.0,M,1.8,0000*63
 
$GPGSA,A,3,03,32,06,09,31,23,17,01,11,12,19,,1.5,0.8,1.3*3E
 
$GPRMC,103054.000,A,4825.0817,N,00428.3926,W,1.96,4.76,060116,,,D*74
 
$GPVTG,4.76,T,,M,1.96,N,3.6,K,D*06
 
$GPGGA,103055.000,4825.0823,N,00428.3924,W,2,11,0.8,106.8,M,52.0,M,1.8,0000*68
 
$GPGSA,A,3,03,32,06,09,31,23,17,01,11,12,19,,1.5,0.8,1.3*3E
 
$GPRMC,103055.000,A,4825.0823,N,00428.3924,W,2.36,4.85,060116,,,D*75
 
$GPVTG,4.85,T,,M,2.36,N,4.4,K,D*06
 
$GPGGA,103056.000,4825.0829,N,00428.3923,W,2,11,0.8,106.8,M,52.0,M,1.8,0000*66
 
$GPGSA,A,3,03,32,06,09,31,23,17,01,11,12,19,,1.5,0.8,1.3*3E
 
$GPGSV,3,1,12,32,20,073,45,03,56,067,45,06,36,303,39,09,36,198,34*7C
 
$GPGSV,3,2,12,31,15,042,28,01,30,129,26,17,45,241,37,23,66,155,44*79
 
$GPGSV,3,3,12,11,12,146,27,19,44,225,30,12,05,325,36,49,33,167,37*7F
 
$GPRMC,103056.000,A,4825.0829,N,00428.3923,W,2.16,358.52,060116,,,D*79
 
$GPVTG,358.52,T,,M,2.16,N,4.0,K,D*00
 
$GPGGA,103057.000,4825.0835,N,00428.3922,W,2,10,0.8,106.8,M,52.0,M,2.8,0000*69
 
$GPGSA,A,3,03,32,06,09,31,23,17,11,12,19,,,1.5,0.8,1.3*3F
 
$GPRMC,103057.000,A,4825.0835,N,00428.3922,W,2.06,354.99,060116,,,D*7E
 
$GPVTG,354.99,T,,M,2.06,N,3.8,K,D*05
 
$GPGGA,103058.000,4825.0841,N,00428.3923,W,2,10,0.8,106.6,M,52.0,M,3.8,0000*6B
 
$GPGSA,A,3,03,32,06,09,31,23,17,11,12,19,,,1.5,0.8,1.3*3F
 
$GPRMC,103058.000,A,4825.0841,N,00428.3923,W,2.42,354.42,060116,,,D*75
 
$GPVTG,354.42,T,,M,2.42,N,4.5,K,D*09
 
$GPGGA,103059.000,4825.0847,N,00428.3924,W,2,11,0.8,106.8,M,52.0,M,4.8,0000*63
 
$GPGSA,A,3,03,32,06,09,31,23,17,01,11,12,19,,1.5,0.8,1.3*3E
 
$GPGSV,3,1,12,32,20,073,26,03,56,067,45,06,36,303,39,09,36,198,27*7B
 
$GPGSV,3,2,12,31,15,042,20,01,30,129,35,17,45,241,37,23,66,155,43*74
 
$GPGSV,3,3,12,11,12,146,14,19,44,225,31,12,05,325,32,49,33,167,31*7C
 
$GPRMC,103059.000,A,4825.0847,N,00428.3924,W,2.33,352.87,060116,,,D*7C
 
$GPVTG,352.87,T,,M,2.33,N,4.3,K,D*06
 
$GPGGA,103100.000,4825.0855,N,00428.3928,W,2,11,0.8,107.3,M,52.0,M,5.8,0000*6A
 
$GPGSA,A,3,03,32,06,09,31,23,17,01,11,12,19,,1.5,0.8,1.3*3E
 
$GPRMC,103100.000,A,4825.0855,N,00428.3928,W,2.28,0.67,060116,,,D*7E
 
$GPVTG,0.67,T,,M,2.28,N,4.2,K,D*07
 
$GPGGA,103101.000,4825.0863,N,00428.3930,W,2,11,0.8,107.6,M,52.0,M,6.8,0000*61
 
$GPGSA,A,3,03,32,06,09,31,23,17,01,11,12,19,,1.5,0.8,1.3*3E
 
$GPRMC,103101.000,A,4825.0863,N,00428.3930,W,2.32,1.46,060116,,,D*7A
 
$GPVTG,1.46,T,,M,2.32,N,4.3,K,D*0F
 
$GPGGA,103102.000,4825.0871,N,00428.3932,W,2,11,0.8,107.6,M,52.0,M,7.8,0000*62
 
$GPGSA,A,3,03,32,06,09,31,23,17,01,11,12,19,,1.5,0.8,1.3*3E
 
$GPGSV,3,1,12,32,20,073,25,03,56,067,46,06,36,303,40,09,36,198,30*73
 
$GPGSV,3,2,12,31,15,042,24,01,30,129,43,17,45,241,38,23,66,155,42*7F
 
$GPGSV,3,3,12,11,12,146,17,19,44,225,31,12,05,325,34,49,33,167,37*7F
 
$GPRMC,103102.000,A,4825.0871,N,00428.3932,W,2.67,352.53,060116,,,D*79
 
$GPVTG,352.53,T,,M,2.67,N,4.9,K,D*04
 
$GPGGA,103103.000,4825.0878,N,00428.3935,W,2,11,0.8,107.5,M,52.0,M,1.8,0000*68
 
$GPGSA,A,3,03,32,06,09,31,23,17,01,11,12,19,,1.5,0.8,1.3*3E
 
$GPRMC,103103.000,A,4825.0878,N,00428.3935,W,2.43,355.32,060116,,,D*70
 
$GPVTG,355.32,T,,M,2.43,N,4.5,K,D*0E
 
$GPGGA,103104.000,4825.0886,N,00428.3938,W,2,11,0.8,107.4,M,52.0,M,1.8,0000*62
 
$GPGSA,A,3,03,32,06,09,31,23,17,01,11,12,19,,1.5,0.8,1.3*3E
 
$GPRMC,103104.000,A,4825.0886,N,00428.3938,W,2.49,350.35,060116,,,D*73
 
$GPVTG,350.35,T,,M,2.49,N,4.6,K,D*05
 
$GPGGA,103105.000,4825.0895,N,00428.3942,W,2,11,0.8,107.5,M,52.0,M,2.8,0000*6E
 
$GPGSA,A,3,03,32,06,09,31,23,17,01,11,12,19,,1.5,0.8,1.3*3E
 
$GPGSV,3,1,12,32,20,073,25,03,56,067,47,06,36,303,40,09,36,198,32*70
 
$GPGSV,3,2,12,31,15,042,24,01,30,129,44,17,45,241,39,23,66,155,42*79
 
$GPGSV,3,3,12,11,12,146,18,19,44,225,36,12,05,325,40,49,33,167,32*71
 
$GPRMC,103105.000,A,4825.0895,N,00428.3942,W,2.53,349.63,060116,,,D*7D
 
$GPVTG,349.63,T,,M,2.53,N,4.7,K,D*04
 
$GPGGA,103106.000,4825.0903,N,00428.3945,W,2,11,0.8,107.4,M,52.0,M,3.8,0000*64
 
$GPGSA,A,3,03,32,06,09,31,23,17,01,11,12,19,,1.5,0.8,1.3*3E
 
$GPRMC,103106.000,A,4825.0903,N,00428.3945,W,2.54,350.25,060116,,,D*7A
 
$GPVTG,350.25,T,,M,2.54,N,4.7,K,D*09
 
$GPGGA,103107.000,4825.0910,N,00428.3949,W,2,11,0.8,107.4,M,52.0,M,4.8,0000*6C
 
$GPGSA,A,3,03,32,06,09,31,23,17,01,11,12,19,,1.5,0.8,1.3*3E
 
$GPRMC,103107.000,A,4825.0910,N,00428.3949,W,2.49,349.70,060116,,,D*71
 
$GPVTG,349.70,T,,M,2.49,N,4.6,K,D*0C
 
$GPGGA,103108.000,4825.0918,N,00428.3952,W,2,11,0.8,107.5,M,52.0,M,1.8,0000*65
 
$GPGSA,A,3,03,32,06,09,31,23,17,01,11,12,19,,1.5,0.8,1.3*3E
 
$GPGSV,3,1,12,32,20,073,25,03,56,067,46,06,36,303,36,09,36,198,31*73
 
$GPGSV,3,2,12,31,15,042,26,01,30,129,45,17,45,241,39,23,66,155,43*7B
 
$GPGSV,3,3,12,11,12,146,19,19,44,225,35,12,05,325,39,49,33,167,34*7B
 
$GPRMC,103108.000,A,4825.0918,N,00428.3952,W,2.46,354.24,060116,,,D*7E
 
$GPVTG,354.24,T,,M,2.46,N,4.6,K,D*0E
 
$GPGGA,103109.000,4825.0926,N,00428.3955,W,2,11,0.8,107.4,M,52.0,M,2.8,0000*6C
 
$GPGSA,A,3,03,32,06,09,31,23,17,01,11,12,19,,1.5,0.8,1.3*3E
 
$GPRMC,103109.000,A,4825.0926,N,00428.3955,W,2.70,353.12,060116,,,D*72
 
$GPVTG,353.12,T,,M,2.70,N,5.0,K,D*0E
 
$GPGGA,103110.000,4825.0934,N,00428.3958,W,2,11,0.8,107.3,M,52.0,M,1.8,0000*6E
 
$GPGSA,A,3,03,32,06,09,31,23,17,01,11,12,19,,1.5,0.8,1.3*3E
 
$GPRMC,103110.000,A,4825.0934,N,00428.3958,W,2.74,351.06,060116,,,D*77
 
$GPVTG,351.06,T,,M,2.74,N,5.1,K,D*0C
 
$GPGGA,103111.000,4825.0943,N,00428.3961,W,2,11,0.8,107.2,M,52.0,M,2.8,0000*67
 
$GPGSA,A,3,03,32,06,09,31,23,17,01,11,12,19,,1.5,0.8,1.3*3E
 
$GPGSV,3,1,12,32,20,073,26,03,56,067,47,06,36,303,38,09,36,198,31*7F
 
$GPGSV,3,2,12,31,15,042,30,01,30,129,45,17,45,241,40,23,66,155,44*75
 
$GPGSV,3,3,12,11,12,146,24,19,44,225,37,12,05,325,40,49,33,167,34*79
 
$GPRMC,103111.000,A,4825.0943,N,00428.3961,W,2.80,350.65,060116,,,D*73
 
$GPVTG,350.65,T,,M,2.80,N,5.2,K,D*00
 
$GPGGA,103112.000,4825.0951,N,00428.3964,W,2,11,0.8,107.2,M,52.0,M,3.8,0000*63
 
