VTG,21.68,T,,M,0.00,N,0.0,K,D*35
 
$GPGGA,103049.000,4825.0835,N,00428.3977,W,2,11,0.8,94.5,M,52.0,M,2.8,0000*50
 
$GPGSA,A,3,03,32,06,09,31,23,17,01,11,12,19,,1.5,0.8,1.3*3E
 
$GPRMC,103049.000,A,4825.0835,N,00428.3977,W,0.00,21.68,060116,,,D*4A
 
$GPVTG,21.68,T,,M,0.00,N,0.0,K,D*35
 
$GPGGA,103050.000,4825.0835,N,00428.3977,W,2,11,0.8,94.5,M,52.0,M,1.8,0000*5B
 
$GPGSA,A,3,03,32,06,09,31,23,17,01,11,12,19,,1.5,0.8,1.3*3E
 
$GPGSV,3,1,12,32,20,073,36,03,56,067,34,06,36,303,32,09,36,198,45*73
 
$GPGSV,3,2,12,31,15,042,29,01,30,129,27,17,45,241,50,23,66,155,39*72
 
$GPGSV,3,3,12,11,12,146,18,19,44,225,45,12,05,325,48,49,33,167,42*7A
 
$GPRMC,103050.000,A,4825.0835,N,00428.3977,W,0.00,21.68,060116,,,D*42
 
$GPVTG,21.68,T,,M,0.00,N,0.0,K,D*35
 
$GPGGA,103051.000,4825.0835,N,00428.3977,W,2,11,0.8,94.5,M,52.0,M,1.8,0000*5A
 
$GPGSA,A,3,03,32,06,09,31,23,17,01,11,12,19,,1.5,0.8,1.3*3E
 
$GPRMC,103051.000,A,4825.0835,N,00428.3977,W,0.00,21.68,060116,,,D*43
 
$GPVTG,21.68,T,,M,0.00,N,0.0,K,D*35
 
$GPGGA,103052.000,4825.0835,N,00428.3977,W,2,11,0.8,94.5,M,52.0,M,1.8,0000*59
 
$GPGSA,A,3,03,32,06,09,31,23,17,01,11,12,19,,1.5,0.8,1.3*3E
 
$GPRMC,103052.000,A,4825.0835,N,00428.3977,W,0.00,21.68,060116,,,D*40
 
$GPVTG,21.68,T,,M,0.00,N,0.0,K,D*35
 
$GPGGA,103053.000,4825.0812,N,00428.3928,W,2,11,0.8,106.5,M,52.0,M,2.8,0000*6E
 
$GPGSA,A,3,03,32,06,09,31,23,17,01,11,12,19,,1.5,0.8,1.3*3E
 
$GPGSV,3,1,12,32,20,073,48,03,56,067,44,06,36,303,40,09,36,198,34*7E
 
$GPGSV,3,2,12,31,15,042,27,01,30,129,26,17,45,241,35,23,66,155,43*73
 
$GPGSV,3,3,12,11,12,146,27,19,44,225,37,12,05,325,37,49,33,167,43*7A
 
$GPRMC,103053.000,A,4825.0812,N,00428.3928,W,1.78,2.46,060116,,,D*7D
 
$GPVTG,2.46,T,,M,1.78,N,3.3,K,D*06
 
$GPGGA,103054.000,4825.0817,N,00428.3926,W,2,11,0.8,106.7,M,52.0,M,1.8,0000*63
 
$GPGSA,A,3,03,32,06,09,31,23,17,01,11,12,19,,1.5,0.8,1.3*3E
 
$GPRMC,103054.000,A,4825.0817,N,00428.3926,W,1.96,4.76,060116,,,D*74
 
$GPVTG,4.76,T,,M,1.96,N,3.6,K,D*06
 
$GPGGA,103055.000,4825.0823,N,00428.3924,W,2,11,0.8,106.8,M,52.0,M,1.8,0000*68
 
$GPGSA,A,3,03,32,06,09,31,23,17,01,11,12,19,,1.5,0.8,1.3*3E
 
$GPRMC,103055.000,A,4825.0823,N,00428.3924,W,2.36,4.85,060116,,,D*75
 
$GPVTG,4.85,T,,M,2.36,N,4.4,K,D*06
 
$GPGGA,103056.000,4825.0829,N,00428.3923,W,2,11,0.8,106.8,M,52.0,M,1.8,0000*66
 
$GPGSA,A,3,03,32,06,09,31,23,17,01,11,12,19,,1.5,0.8,1.3*3E
 
$GPGSV,3,1,12,32,20,073,45,03,56,067,45,06,36,303,39,09,36,198,34*7C
 
$GPGSV,3,2,12,31,15,042,28,01,30,129,26,17,45,241,37,23,66,155,44*79
 
$GPGSV,3,3,12,11,12,146,27,19,44,225,30,12,05,325,36,49,33,167,37*7F
 
$GPRMC,103056.000,A,4825.0829,N,00428.3923,W,2.16,358.52,060116,,,D*79
 
$GPVTG,358.52,T,,M,2.16,N,4.0,K,D*00
 
$GPGGA,103057.000,4825.0835,N,00428.3922,W,2,10,0.8,106.8,M,52.0,M,2.8,0000*69
 
$GPGSA,A,3,03,32,06,09,31,23,17,11,12,19,,,1.5,0.8,1.3*3F
 
$GPRMC,103057.000,A,4825.0835,N,00428.3922,W,2.06,354.99,060116,,,D*7E
 
$GPVTG,354.99,T,,M,2.06,N,3.8,K,D*05
 
$GPGGA,103058.000,4825.0841,N,00428.3923,W,2,10,0.8,106.6,M,52.0,M,3.8,0000*6B
 
$GPGSA,A,3,03,32,06,09,31,23,17,11,12,19,,,1.5,0.8,1.3*3F
 
$GPRMC,103058.000,A,4825.0841,N,00428.3923,W,2.42,354.42,060116,,,D*75
 
$GPVTG,354.42,T,,M,2.42,N,4.5,K,D*09
 
$GPGGA,103059.000,4825.0847,N,00428.3924,W,2,11,0.8,106.8,M,52.0,M,4.8,0000*63
 
$GPGSA,A,3,03,32,06,09,31,23,17,01,11,12,19,,1.5,0.8,1.3*3E
 
$GPGSV,3,1,12,32,20,073,26,03,56,067,45,06,36,303,39,09,36,198,27*7B
 
$GPGSV,3,2,12,31,15,042,20,01,30,129,35,17,45,241,37,23,66,155,43*74
 
$GPGSV,3,3,12,11,12,146,14,19,44,225,31,12,05,325,32,49,33,167,31*7C
 
$GPRMC,103059.000,A,4825.0847,N,00428.3924,W,2.33,352.87,060116,,,D*7C
 
$GPVTG,352.87,T,,M,2.33,N,4.3,K,D*06
 
$GPGGA,103100.000,4825.0855,N,00428.3928,W,2,11,0.8,107.3,M,52.0,M,5.8,0000*6A
 
$GPGSA,A,3,03,32,06,09,31,23,17,01,11,12,19,,1.5,0.8,1.3*3E
 
$GPRMC,103100.000,A,4825.0855,N,00428.3928,W,2.28,0.67,060116,,,D*7E
 
$GPVTG,0.67,T,,M,2.28,N,4.2,K,D*07
 
$GPGGA,103101.000,4825.0863,N,00428.3930,W,2,11,0.8,107.6,M,52.0,M,6.8,0000*61
 
$GPGSA,A,3,03,32,06,09,31,23,17,01,11,12,19,,1.5,0.8,1.3*3E
 
$GPRMC,103101.000,A,4825.0863,N,00428.3930,W,2.32,1.46,060116,,,D*7A
 
$GPVTG,1.46,T,,M,2.32,N,4.3,K,D*0F
 
$GPGGA,103102.000,4825.0871,N,00428.3932,W,2,11,0.8,107.6,M,52.0,M,7.8,0000*62
 
$GPGSA,A,3,03,32,06,09,31,23,17,01,11,12,19,,1.5,0.8,1.3*3E
 
$GPGSV,3,1,12,32,20,073,25,03,56,067,46,06,36,303,40,09,36,198,30*73
 
$GPGSV,3,2,12,31,15,042,24,01,30,129,43,17,45,241,38,23,66,155,42*7F
 
$GPGSV,3,3,12,11,12,146,17,19,44,225,31,12,05,325,34,49,33,167,37*7F
 
$GPRMC,103102.000,A,4825.0871,N,00428.3932,W,2.67,352.53,060116,,,D*79
 
$GPVTG,352.53,T,,M,2.67,N,4.9,K,D*04
 
$GPGGA,103103.000,4825.0878,N,00428.3935,W,2,11,0.8,107.5,M,52.0,M,1.8,0000*68
 
$GPGSA,A,3,03,32,06,09,31,23,17,01,11,12,19,,1.5,0.8,1.3*3E
 
$GPRMC,103103.000,A,4825.0878,N,00428.3935,W,2.43,355.32,060116,,,D*70
 
$GPVTG,355.32,T,,M,2.43,N,4.5,K,D*0E
 
$GPGGA,103104.000,4825.0886,N,00428.3938,W,2,11,0.8,107.4,M,52.0,M,1.8,0000*62
 
$GPGSA,A,3,03,32,06,09,31,23,17,01,11,12,19,,1.5,0.8,1.3*3E
 
$GPRMC,103104.000,A,4825.0886,N,00428.3938,W,2.49,350.35,060116,,,D*73
 
$GPVTG,350.35,T,,M,2.49,N,4.6,K,D*05
 
$GPGGA,103105.000,4825.0895,N,00428.3942,W,2,11,0.8,107.5,M,52.0,M,2.8,0000*6E
 
$GPGSA,A,3,03,32,06,09,31,23,17,01,11,12,19,,1.5,0.8,1.3*3E
 
$GPGSV,3,1,12,32,20,073,25,03,56,067,47,06,36,303,40,09,36,198,32*70
 
$GPGSV,3,2,12,31,15,042,24,01,30,129,44,17,45,241,39,23,66,155,42*79
 
$GPGSV,3,3,12,11,12,146,18,19,44,225,36,12,05,325,40,49,33,167,32*71
 
$GPRMC,103105.000,A,4825.0895,N,00428.3942,W,2.53,349.63,060116,,,D*7D
 
$GPVTG,349.63,T,,M,2.53,N,4.7,K,D*04
 
$GPGGA,103106.000,4825.0903,N,00428.3945,W,2,11,0.8,107.4,M,52.0,M,3.8,0000*64
 
$GPGSA,A,3,03,32,06,09,31,23,17,01,11,12,19,,1.5,0.8,1.3*3E
 
$GPRMC,103106.000,A,4825.0903,N,00428.3945,W,2.54,350.25,060116,,,D*7A
 
$GPVTG,350.25,T,,M,2.54,N,4.7,K,D*09
 
$GPGGA,103107.000,4825.0910,N,00428.3949,W,2,11,0.8,107.4,M,52.0,M,4.8,0000*6C
 
$GPGSA,A,3,03,32,06,09,31,23,17,01,11,12,19,,1.5,0.8,1.3*3E
 
$GPRMC,103107.000,A,4825.0910,N,00428.3949,W,2.49,349.70,060116,,,D*71
 
$GPVTG,349.70,T,,M,2.49,N,4.6,K,D*0C
 
$GPGGA,103108.000,4825.0918,N,00428.3952,W,2,11,0.8,107.5,M,52.0,M,1.8,0000*65
 
$GPGGA,161346.00,4825.1489,N,00428.4577,W,1,22,0.542,140.317,M,,M,0,*54
 
$GNGSA,A,3,2,6,10,12,14,15,19,24,25,29,32,208,212,214,65,72,73,74,75,83,1.043,0.542,0.890*18
 
$GPGSA,A,3,2,6,10,12,14,15,19,24,25,29,32,,,,,,,,,,1.043,0.542,0.890*32
 
$GLGSA,A,3,65,72,73,74,75,83,84,85,,,,,,,,,,,,,1.043,0.542,0.890*23
 
$BDGSA,A,3,208,212,214,,,,,,,,,,,,,,,,,,1.043,0.542,0.890*1B
 
$QZGSA,A,3,,,,,,,,,,,,,,,,,,,,,1.043,0.542,0.890*2A
 
$GPGSV,9,1,28,2,6,109,36,4,5,,,6,10,73,24,10,10,255,36*41
 
$GPGSV,9,2,28,12,82,36,36,14,23,314,31,15,9,166,32,17,7,32,16*7B
 
$GPGSV,9,3,28,19,22,43,26,24,56,108,33,25,50,247,38,29,7,187,37*70
 
$GPGSV,9,4,28,32,43,296,33*45
 
$GLGSV,9,5,28,65,36,289,35,66,10,343,12,72,26,231,22,73,22,80,28*51
 
$GLGSV,9,6,28,74,66,10,31,75,33,290,36,83,35,49,24,84,36,121,34*66
 
$GLGSV,9,7,28,85,5,163,32*6C
 
$BDGSV,9,8,28,205,10,109,23,208,16,29,17,211,5,,,212,11,176,26*5E
 
$BDGSV,9,9,28,213,5,,27,214,17,239,25*6C
 
$GPRMC,161346.00,A,4825.1489,N,00428.4577,W,2.288,252.205,040317,,E,A*0D
 
$GPGGA,161354.00,4825.1463,N,00428.4637,W,1,23,0.535,137.906,M,,M,0,*5F
 
$GNGSA,A,3,2,6,10,12,14,15,19,24,25,29,32,205,208,212,214,65,72,73,74,75,1.033,0.535,0.884*26
 
$GPGSA,A,3,2,6,10,12,14,15,19,24,25,29,32,,,,,,,,,,1.033,0.535,0.884*30
 
$GLGSA,A,3,65,72,73,74,75,83,84,85,,,,,,,,,,,,,1.033,0.535,0.884*21
 
$BDGSA,A,3,205,208,212,214,,,,,,,,,,,,,,,,,1.033,0.535,0.884*2E
 
$QZGSA,A,3,,,,,,,,,,,,,,,,,,,,,1.033,0.535,0.884*28
 
$GPGSV,9,1,28,2,6,109,33,4,5,,,6,10,73,29,10,10,255,34*4B
 
$GPGSV,9,2,28,12,82,37,37,14,23,314,33,15,9,166,26,17,7,32,22*7B
 
$GPGSV,9,3,28,19,22,43,34,24,56,108,34,25,50,247,40,29,7,187,31*7D
 
$GPGSV,9,4,28,32,43,296,38*4E
 
$GLGSV,9,5,28,65,36,289,35,66,10,343,30,72,26,231,27,73,22,80,23*5F
 
$GLGSV,9,6,28,74,66,11,34,75,33,290,40,83,35,49,35,84,36,121,24*62
 
$GLGSV,9,7,28,85,5,163,20*6F
 
$BDGSV,9,8,28,205,10,109,24,207,5,,,208,16,29,27,212,11,176,32*58
 
$BDGSV,9,9,28,213,5,,27,214,17,239,30*68
 
$GPRMC,161354.00,A,4825.1463,N,00428.4637,W,1.462,230.157,040317,,E,A*0C
 
$GPGGA,161355.00,4825.1462,N,00428.4639,W,1,23,0.535,137.665,M,,M,0,*5B
 
$GNGSA,A,3,2,6,10,12,14,15,19,24,25,29,32,205,208,212,214,65,72,73,74,75,1.033,0.535,0.884*26
 
$GPGSA,A,3,2,6,10,12,14,15,19,24,25,29,32,,,,,,,,,,1.033,0.535,0.884*30
 
$GLGSA,A,3,65,72,73,74,75,83,84,85,,,,,,,,,,,,,1.033,0.535,0.884*21
 
$BDGSA,A,3,205,208,212,214,,,,,,,,,,,,,,,,,1.033,0.535,0.884*2E
 
$QZGSA,A,3,,,,,,,,,,,,,,,,,,,,,1.033,0.535,0.884*28
 
$GPGSV,9,1,28,2,6,109,33,4,5,,,6,10,73,29,10,10,255,31*4E
 
$GPGSV,9,2,28,12,82,37,38,14,23,314,28,15,9,166,25,17,7,32,20*7F
 
$GPGSV,9,3,28,19,22,43,30,24,56,108,37,25,50,247,42,29,7,187,27*7F
 
$GPGSV,9,4,28,32,43,296,35*43
 
$GLGSV,9,5,28,65,36,289,33,66,10,343,31,72,26,231,24,73,22,80,29*51
 
$GLGSV,9,6,28,74,66,11,33,75,33,290,37,83,35,49,32,84,36,121,27*61
 
$GLGSV,9,7,28,85,5,163,24*6B
 
$BDGSV,9,8,28,205,10,109,24,207,5,,,208,16,29,29,212,11,176,33*57
 
$BDGSV,9,9,28,213,5,,26,214,17,239,24*6C
 
$GPRMC,161355.00,A,4825.1462,N,00428.4639,W,1.414,234.405,040317,,E,A*05
 
$GPGGA,161356.00,4825.1462,N,00428.4644,W,1,23,0.535,137.497,M,,M,0,*5D
 
$GNGSA,A,3,2,6,10,12,14,15,19,24,25,29,32,205,208,212,214,65,72,73,74,75,1.033,0.535,0.884*26
 
$GPGSA,A,3,2,6,10,12,14,15,19,24,25,29,32,,,,,,,,,,1.033,0.535,0.884*30
 
$GLGSA,A,3,65,72,73,74,75,83,84,85,,,,,,,,,,,,,1.033,0.535,0.884*21
 
$BDGSA,A,3,205,208,212,214,,,,,,,,,,,,,,,,,1.033,0.535,0.884*2E
 
$QZGSA,A,3,,,,,,,,,,,,,,,,,,,,,1.033,0.535,0.884*28
 
$GPGSV,9,1,29,2,6,109,34,4,5,,,6,10,73,26,10,10,255,31*47
 
$GPGSV,9,2,29,12,82,37,33,14,23,314,30,15,9,166,26,17,7,32,21*7E
 
$GPGSV,9,3,29,19,22,43,26,24,56,108,33,25,50,247,39,29,7,187,25*73
 
$GPGSV,9,4,29,32,43,296,34*43
 
$GLGSV,9,5,29,65,36,289,32,66,10,343,32,72,26,231,25,73,22,80,30*5B
 
$GLGSV,9,6,29,74,66,11,27,75,33,290,37,83,35,49,27,84,37,121,26*61
 
$GLGSV,9,7,29,85,5,163,24*6A
 
$BDGSV,9,8,29,205,10,109,24,207,5,,,208,16,29,28,211,5,,*51
 
$BDGSV,9,9,29,212,11,176,31,213,5,,22,214,17,239,22*6C
 
$GPRMC,161356.00,A,4825.1462,N,00428.4644,W,1.578,258.000,040317,,E,A*0C
 
$GPGGA,161357.00,4825.1461,N,00428.4649,W,1,23,0.535,137.419,M,,M,0,*54
 
$GNGSA,A,3,2,6,10,12,14,15,19,24,25,29,32,205,208,212,214,65,72,73,74,75,1.033,0.535,0.884*26
 
$GPGSA,A,3,2,6,10,12,14,15,19,24,25,29,32,,,,,,,,,,1.033,0.535,0.884*30
 
$GLGSA,A,3,65,72,73,74,75,83,84,85,,,,,,,,,,,,,1.033,0.535,0.884*21
 
$BDGSA,A,3,205,208,212,214,,,,,,,,,,,,,,,,,1.033,0.535,0.884*2E
 
$QZGSA,A,3,,,,,,,,,,,,,,,,,,,,,1.033,0.535,0.884*28
 
$GPGSV,9,1,29,2,6,109,32,4,5,,,6,10,73,29,10,10,255,26*48
 
$GPGSV,9,2,29,12,82,37,31,14,23,314,28,15,9,166,27,17,7,32,19*7F
 
$GPGSV,9,3,29,19,22,43,22,24,56,108,35,25,50,247,37,29,7,187,32*79
 
$GPGSV,9,4,29,32,43,296,34*43
 
$GLGSV,9,5,29,65,36,289,33,66,10,343,34,72,26,231,31,73,22,80,31*58
 
$GLGSV,9,6,29,74,66,11,27,75,33,290,33,83,35,49,27,84,37,121,30*62
 
$GLGSV,9,7,29,85,5,163,23*6D
 
$BDGSV,9,8,29,205,10,109,24,207,5,,,208,16,29,27,211,5,,*5E
 
$BDGSV,9,9,29,212,11,176,29,213,5,,26,214,17,239,21*62
 
$GPRMC,161357.00,A,4825.1461,N,00428.4649,W,1.840,241.784,040317,,E,A*06
 
$GPGGA,161358.00,4825.1458,N,00428.4655,W,1,23,0.535,137.454,M,,M,0,*55
 
$GNGSA,A,3,2,6,10,12,14,15,19,24,25,29,32,205,208,212,214,65,72,73,74,75,1.033,0.535,0.884*26
 
$GPGSA,A,3,2,6,10,12,14,15,19,24,25,29,32,,,,,,,,,,1.033,0.535,0.884*30
 
$GLGSA,A,3,65,72,73,74,75,83,84,85,,,,,,,,,,,,,1.033,0.535,0.884*21
 
$BDGSA,A,3,205,208,212,214,,,,,,,,,,,,,,,,,1.033,0.535,0.884*2E
 
$QZGSA,A,3,,,,,,,,,,,,,,,,,,,,,1.033,0.535,0.884*28
 
$GPGSV,9,1,29,2,6,109,26,4,5,,,6,10,73,24,10,10,255,32*45
 
$GPGSV,9,2,29,12,82,37,31,14,23,314,32,15,9,166,31,17,7,32,21*78
 
$GPGSV,9,3,29,19,22,43,24,24,56,108,32,25,50,247,39,29,7,187,31*75
 
$GPGSV,9,4,29,32,43,296,31*46
 
$GLGSV,9,5,29,65,36,289,36,66,10,343,35,72,26,231,27,73,22,80,36*5C
 
$GLGSV,9,6,29,74,66,11,29,75,33,290,34,83,35,49,26,84,37,121,29*62
 
$GLGSV,9,7,29,85,5,163,25*6B
 
$BDGSV,9,8,29,205,10,109,23,207,5,,,208,16,29,28,211,5,,*56
 
$BDGSV,9,9,29,212,11,176,25,213,5,,30,214,17,239,25*6D
 
$GPRMC,161358.00,A,4825.1458,N,00428.4655,W,2.551,229.681,040317,,E,A*0A
 
$GPGGA,161359.00,4825.1450,N,00428.4662,W,1,23,0.534,137.721,M,,M,0,*58
 
$GNGSA,A,3,2,6,10,12,14,15,19,24,25,29,32,205,208,212,214,65,72,73,74,75,1.033,0.534,0.884*27
 
$GPGSA,A,3,2,6,10,12,14,15,19,24,25,29,32,,,,,,,,,,1.033,0.534,0.884*31
 
$GLGSA,A,3,65,72,73,74,75,83,84,85,,,,,,,,,,,,,1.033,0.534,0.884*20
 
$BDGSA,A,3,205,208,212,214,,,,,,,,,,,,,,,,,1.033,0.534,0.884*2F
 
$QZGSA,A,3,,,,,,,,,,,,,,,,,,,,,1.033,0.534,0.884*29
 
$GPGSV,9,1,29,2,6,109,28,4,5,,,6,10,73,29,10,10,255,32*46
 
$GPGSV,9,2,29,12,82,37,28,14,23,314,37,15,9,166,31,17,7,32,21*75
 
$GPGSV,9,3,29,19,22,43,24,24,56,108,34,25,50,247,39,29,7,187,34*76
 
$GPGSV,9,4,29,32,43,296,33*44
 
$GLGSV,9,5,29,65,36,289,33,66,10,343,36,72,26,231,32,73,22,80,36*5E
 
$GLGSV,9,6,29,74,66,11,29,75,33,290,38,83,35,49,27,84,37,121,28*6E
 
$GLGSV,9,7,29,85,5,163,23*6D
 
$BDGSV,9,8,29,205,10,109,23,207,5,,,208,16,29,27,211,5,,*59
 
$BDGSV,9,9,29,212,11,176,23,213,5,,29,214,17,239,24*62
 
$GPRMC,161359.00,A,4825.1450,N,00428.4662,W,3.006,222.800,040317,,E,A*0D
 
$GPGGA,161400.00,4825.1443,N,00428.4670,W,1,23,0.534,137.929,M,,M,0,*54
 
$GNGSA,A,3,2,6,10,12,14,15,19,24,25,29,32,205,208,212,214,65,72,73,74,75,1.033,0.534,0.884*27
 
$GPGSA,A,3,2,6,10,12,14,15,19,24,25,29,32,,,,,,,,,,1.033,0.534,0.884*31
 
$GLGSA,A,3,65,72,73,74,75,83,84,85,,,,,,,,,,,,,1.033,0.534,0.884*20
 
$BDGSA,A,3,205,208,212,214,,,,,,,,,,,,,,,,,1.033,0.534,0.884*2F
 
$QZGSA,A,3,,,,,,,,,,,,,,,,,,,,,1.033,0.534,0.884*29
 
$GPGSV,9,1,29,2,6,109,28,4,5,,,6,10,73,26,10,10,255,34*4F
 
$GPGSV,9,2,29,12,82,37,31,14,23,314,36,15,9,166,29,17,7,32,19*7E
 
$GPGSV,9,3,29,19,22,43,24,24,56,108,34,25,50,247,37,29,7,187,31*7D
 
$GPGSV,9,4,29,32,43,296,33*44
 
$GLGSV,9,5,29,65,36,289,33,66,10,343,36,72,26,231,31,73,22,80,35*5E
 
$GLGSV,9,6,29,74,66,11,29,75,33,290,35,83,35,49,27,84,37,121,28*63
 
$GLGSV,9,7,29,85,5,163,28*66
 
$BDGSV,9,8,29,205,10,109,22,207,5,,,208,16,29,28,211,5,,*57
 
$BDGSV,9,9,29,212,11,176,28,213,5,,26,214,17,239,25*67
 
$GPRMC,161400.00,A,4825.1443,N,00428.4670,W,3.356,214.954,040317,,E,A*04
 
$GPGGA,161401.00,4825.1433,N,00428.4679,W,1,24,0.505,138.103,M,,M,0,*51
 
$GNGSA,A,3,2,6,10,12,14,15,17,19,24,25,29,32,205,208,212,214,65,72,73,74,0.972,0.505,0.830*23
 
$GPGSA,A,3,2,6,10,12,14,15,17,19,24,25,29,32,,,,,,,,,0.972,0.505,0.830*37
 
$GLGSA,A,3,65,72,73,74,75,83,84,85,,,,,,,,,,,,,0.972,0.505,0.830*20
 
$BDGSA,A,3,205,208,212,214,,,,,,,,,,,,,,,,,0.972,0.505,0.830*2F
 
$QZGSA,A,3,,,,,,,,,,,,,,,,,,,,,0.972,0.505,0.830*29
 
$GPGSV,9,1,29,2,6,109,26,4,5,,,6,10,73,26,10,10,255,32*47
 
$GPGSV,9,2,29,12,82,37,31,14,23,314,35,15,9,166,31,17,7,32,18*75
 
$GPGSV,9,3,29,19,22,43,27,24,56,108,34,25,50,247,38,29,7,187,33*73
 
$GPGSV,9,4,29,32,43,296,33*44
 
$GLGSV,9,5,29,65,36,289,30,66,10,343,36,72,26,231,31,73,22,80,34*5C
 
$GLGSV,9,6,29,74,66,11,28,75,33,290,36,83,35,49,27,84,37,121,29*60
 
$GLGSV,9,7,29,85,5,163,23*6D
 
$BDGSV,9,8,29,205,10,109,22,207,5,,,208,16,29,20,211,5,,*5F
 
$BDGSV,9,9,29,212,11,176,21,213,5,,23,214,17,239,23*6D
 
$GPRMC,161401.00,A,4825.1433,N,00428.4679,W,3.469,216.711,040317,,E,A*0D
 
$GPGGA,161402.00,4825.1421,N,00428.4688,W,1,24,0.505,138.213,M,,M,0,*5D
 
$GNGSA,A,3,2,6,10,12,14,15,17,19,24,25,29,32,205,208,212,214,65,72,73,74,0.972,0.505,0.830*23
 
$GPGSA,A,3,2,6,10,12,14,15,17,19,24,25,29,32,,,,,,,,,0.972,0.505,0.830*37
 
$GLGSA,A,3,65,72,73,74,75,83,84,85,,,,,,,,,,,,,0.972,0.505,0.830*20
 
$BDGSA,A,3,205,208,212,214,,,,,,,,,,,,,,,,,0.972,0.505,0.830*2F
 
$QZGSA,A,3,,,,,,,,,,,,,,,,,,,,,0.972,0.505,0.830*29
 
$GPGSV,9,1,29,2,6,109,23,4,5,,,6,10,73,27,10,10,255,31*40
 
$GPGSV,9,2,29,12,82,37,29,14,23,314,37,15,9,166,32,17,7,32,19*7C
 
$GPGSV,9,3,29,19,22,43,26,24,56,108,37,25,50,247,40,29,7,187,34*79
 
$GPGSV,9,4,29,32,43,296,36*41
 
$GLGSV,9,5,29,65,36,289,29,66,10,343,36,72,26,231,28,73,22,80,34*5C
 
$GLGSV,9,6,29,74,66,11,31,75,33,290,36,83,35,49,27,84,37,121,29*68
 
$GLGSV,9,7,29,85,5,163,26*68
 
$BDGSV,9,8,29,205,10,109,21,207,5,,,208,16,29,21,211,5,,*5D
 
$BDGSV,9,9,29,212,11,176,22,213,5,,24,214,17,239,28*62
 
$GPRMC,161402.00,A,4825.1421,N,00428.4688,W,3.392,217.745,040317,,E,A*00
 
$GPGGA,161403.00,4825.1410,N,00428.4698,W,1,24,0.505,138.189,M,,M,0,*5F
 
$GNGSA,A,3,2,6,10,12,14,15,17,19,24,25,29,32,205,208,212,214,65,72,73,74,0.972,0.505,0.830*23
 
$GPGSA,A,3,2,6,10,12,14,15,17,19,24,25,29,32,,,,,,,,,0.972,0.505,0.830*37
 
$GLGSA,A,3,65,72,73,74,75,83,84,85,,,,,,,,,,,,,0.972,0.505,0.830*20
 
$BDGSA,A,3,205,208,212,214,,,,,,,,,,,,,,,,,0.972,0.505,0.830*2F
 
$QZGSA,A,3,,,,,,,,,,,,,,,,,,,,,0.972,0.505,0.830*29
 
$GPGSV,9,1,29,2,6,109,26,4,5,,,6,10,73,29,10,10,255,34*4E
 
$GPGSV,9,2,29,12,82,37,31,14,23,314,38,15,9,166,30,17,7,32,22*70
 
$GPGSV,9,3,29,19,22,43,30,24,56,108,33,25,50,247,40,29,7,187,33*7D
 
$GPGSV,9,4,29,32,43,296,35*42
 
$GLGSV,9,5,29,65,36,289,30,66,10,343,37,72,26,231,30,73,22,80,35*5D
 
$GLGSV,9,6,29,74,66,11,32,75,33,290,37,83,35,49,29,84,37,121,29*64
 
$GLGSV,9,7,29,85,5,163,22*6C
 
$BDGSV,9,8,29,205,10,109,21,207,5,,,208,16,29,24,211,5,,*58
 
$BDGSV,9,9,29,212,11,176,24,213,5,,29,214,17,239,24*65
 
$GPRMC,161403.00,A,4825.1410,N,00428.4698,W,3.431,214.106,040317,,E,A*0E
 
$GPGGA,161404.00,4825.1399,N,00428.4702,W,1,24,0.505,138.210,M,,M,0,*5F
 
$GNGSA,A,3,2,6,10,12,14,15,17,19,24,25,29,32,205,208,212,214,65,72,73,74,0.972,0.505,0.830*23
 
$GPGSA,A,3,2,6,10,12,14,15,17,19,24,25,29,32,,,,,,,,,0.972,0.505,0.830*37
 
$GLGSA,A,3,65,72,73,74,75,83,84,85,,,,,,,,,,,,,0.972,0.505,0.830*20
 
$BDGSA,A,3,205,208,212,214,,,,,,,,,,,,,,,,,0.972,0.505,0.830*2F
 
$QZGSA,A,3,,,,,,,,,,,,,,,,,,,,,0.972,0.505,0.830*29
 
$GPGSV,9,1,29,2,6,109,30,4,5,,,6,10,73,29,10,10,255,33*4E
 
$GPGSV,9,2,29,12,82,37,32,14,23,314,37,15,9,166,31,17,7,32,23*7C
 
$GPGSV,9,3,29,19,22,43,29,24,56,108,34,25,50,247,39,29,7,187,34*7B
 
$GPGSV,9,4,29,32,43,296,33*44
 
$GLGSV,9,5,29,65,36,289,30,66,10,343,37,72,26,231,25,73,22,80,35*59
 
$GLGSV,9,6,29,74,66,11,31,75,33,290,37,83,35,49,33,84,37,121,29*6C
 
$GLGSV,9,7,29,85,5,163,22*6C
 
$BDGSV,9,8,29,205,10,109,21,207,5,,,208,16,29,22,211,5,,*5E
 
$BDGSV,9,9,29,212,11,176,28,213,5,,30,214,17,239,25*60
 
$GPRMC,161404.00,A,4825.1399,N,00428.4702,W,3.151,203.956,040317,,E,A*05
 
$GPGGA,161405.00,4825.1388,N,00428.4706,W,1,23,0.514,138.186,M,,M,0,*51
 
$GNGSA,A,3,2,6,10,12,14,15,17,19,24,25,29,32,208,212,214,65,72,73,74,75,0.980,0.514,0.834*1F
 
$GPGSA,A,3,2,6,10,12,14,15,17,19,24,25,29,32,,,,,,,,,0.980,0.514,0.834*3E
 
$GLGSA,A,3,65,72,73,74,75,83,84,85,,,,,,,,,,,,,0.980,0.514,0.834*29
 
$BDGSA,A,3,208,212,214,,,,,,,,,,,,,,,,,,0.980,0.514,0.834*11
 
$QZGSA,A,3,,,,,,,,,,,,,,,,,,,,,0.980,0.514,0.834*20
 
$GPGSV,9,1,29,2,6,109,29,4,5,,,6,10,73,30,10,10,255,34*49
 
$GPGSV,9,2,29,12,82,37,33,14,23,314,39,15,9,166,30,17,7,32,21*70
 
$GPGSV,9,3,29,19,22,43,32,24,56,108,34,25,50,247,37,29,7,187,32*79
 
$GPGSV,9,4,29,32,43,296,38*4F
 
$GLGSV,9,5,29,65,36,289,36,66,10,343,31,72,26,231,31,73,22,80,28*50
 
$GLGSV,9,6,29,74,66,11,29,75,33,290,31,83,35,49,33,84,37,121,26*6C
 
$GLGSV,9,7,29,85,5,163,30*6F
 
$BDGSV,9,8,29,205,10,109,21,207,5,,,208,16,29,21,211,5,,*5D
 
$BDGSV,9,9,29,212,11,176,29,213,5,,32,214,17,239,24*62
 
$GPRMC,161405.00,A,4825.1388,N,00428.4706,W,2.853,209.504,040317,,E,A*0B
 
$GPGGA,161406.00,4825.1379,N,00428.4709,W,1,24,0.505,138.108,M,,M,0,*52
 
$GNGSA,A,3,2,6,10,12,14,15,17,19,24,25,29,32,205,208,212,214,65,72,73,74,0.972,0.505,0.830*23
 
$GPGSA,A,3,2,6,10,12,14,15,17,19,24,25,29,32,,,,,,,,,0.972,0.505,0.830*37
 
$GLGSA,A,3,65,72,73,74,75,83,84,85,,,,,,,,,,,,,0.972,0.505,0.830*20
 
$BDGSA,A,3,205,208,212,214,,,,,,,,,,,,,,,,,0.972,0.505,0.830*2F
 
$QZGSA,A,3,,,,,,,,,,,,,,,,,,,,,0.972,0.505,0.830*29
 
$GPGSV,9,1,29,2,6,109,29,4,5,,,6,10,73,30,10,10,255,32*4F
 
$GPGSV,9,2,29,12,82,37,33,14,23,314,37,15,9,166,29,17,7,32,24*73
 
$GPGSV,9,3,29,19,22,43,30,24,56,108,34,25,50,247,37,29,7,187,33*7A
 
$GPGSV,9,4,29,32,43,296,41*41
 
$GLGSV,9,5,29,65,36,289,37,66,10,343,36,72,26,231,27,73,22,80,26*5F
 
$GLGSV,9,6,29,74,66,11,26,75,33,290,31,83,35,49,35,84,37,121,29*6A
 
$GLGSV,9,7,29,85,5,163,30*6F
 
$BDGSV,9,8,29,205,10,109,21,207,5,,,208,16,29,23,211,5,,*5F
 
$BDGSV,9,9,29,212,11,176,32,213,5,,33,214,17,239,24*69
 
$GPRMC,161406.00,A,4825.1379,N,00428.4709,W,2.774,207.559,040317,,E,A*05
 
$GPGGA,161407.00,4825.1369,N,00428.4713,W,1,24,0.505,138.211,M,,M,0,*52
 
$GNGSA,A,3,2,6,10,12,14,15,17,19,24,25,29,32,205,208,212,214,65,72,73,74,0.972,0.505,0.830*23
 
$GPGSA,A,3,2,6,10,12,14,15,17,19,24,25,29,32,,,,,,,,,0.972,0.505,0.830*37
 
$GLGSA,A,3,65,72,73,74,75,83,84,85,,,,,,,,,,,,,0.972,0.505,0.830*20
 
$BDGSA,A,3,205,208,212,214,,,,,,,,,,,,,,,,,0.972,0.505,0.830*2F
 
$QZGSA,A,3,,,,,,,,,,,,,,,,,,,,,0.972,0.505,0.830*29
 
$GPGSV,9,1,29,2,6,109,30,4,5,,,6,10,73,32,10,10,255,33*44
 
$GPGSV,9,2,29,12,82,37,34,14,23,314,38,15,9,166,24,17,7,32,27*75
 
$GPGSV,9,3,29,19,22,43,29,24,56,108,35,25,50,247,40,29,8,187,33*7C
 
$GPGSV,9,4,29,32,43,296,36*41
 
$GLGSV,9,5,29,65,36,289,31,66,10,343,37,72,26,231,30,73,22,80,30*59
 
$GLGSV,9,6,29,74,66,11,29,75,33,290,38,83,35,49,36,84,37,121,23*65
 
$GLGSV,9,7,29,85,5,163,23*6D
 
$BDGSV,9,8,29,205,10,109,21,207,5,,,208,16,29,23,211,5,,*5F
 
$BDGSV,9,9,29,212,11,176,30,213,5,,34,214,17,239,24*6C
 
$GPRMC,161407.00,A,4825.1369,N,00428.4713,W,3.046,198.816,040317,,E,A*0A
 
$GPGGA,161408.00,4825.1359,N,00428.4717,W,1,24,0.505,138.149,M,,M,0,*54
 
$GNGSA,A,3,2,6,10,12,14,15,17,19,24,25,29,32,205,208,212,214,65,72,73,74,0.972,0.505,0.830*23
 
$GPGSA,A,3,2,6,10,12,14,15,17,19,24,25,29,32,,,,,,,,,0.972,0.505,0.830*37
 
$GLGSA,A,3,65,72,73,74,75,83,84,85,,,,,,,,,,,,,0.972,0.505,0.830*20
 
$BDGSA,A,3,205,208,212,214,,,,,,,,,,,,,,,,,0.972,0.505,0.830*2F
 
$QZGSA,A,3,,,,,,,,,,,,,,,,,,,,,0.972,0.505,0.830*29
 
$GPGSV,9,1,29,2,6,109,27,4,5,,,6,10,73,33,10,10,255,33*43
 
$GPGSV,9,2,29,12,82,37,36,14,23,314,37,15,9,166,28,17,7,32,24*77
 
$GPGSV,9,3,29,19,22,43,30,24,56,108,34,25,50,247,39,29,8,187,34*7C
 
$GPGSV,9,4,29,32,43,296,36*41
 
$GLGSV,9,5,29,65,36,289,29,66,10,343,34,72,26,231,29,73,22,80,25*5F
 
$GLGSV,9,6,29,74,66,11,30,75,33,290,38,83,35,48,37,84,37,121,24*6A
 
$GLGSV,9,7,29,85,5,163,25*6B
 
$BDGSV,9,8,29,205,10,109,20,207,5,,,208,16,29,26,211,5,,*5B
 
$BDGSV,9,9,29,212,11,176,30,213,5,,34,214,17,239,31*68
 
$GPRMC,161408.00,A,4825.1359,N,00428.4717,W,3.411,196.462,040317,,E,A*05
 
$GPGGA,161409.00,4825.1346,N,00428.4722,W,1,24,0.505,138.177,M,,M,0,*50
 
$GNGSA,A,3,2,6,10,12,14,15,17,19,24,25,29,32,205,208,212,214,65,72,73,74,0.972,0.505,0.830*23
 
$GPGSA,A,3,2,6,10,12,14,15,17,19,24,25,29,32,,,,,,,,,0.972,0.505,0.830*37
 
$GLGSA,A,3,65,72,73,74,75,83,84,85,,,,,,,,,,,,,0.972,0.505,0.830*20
 
$BDGSA,A,3,205,208,212,214,,,,,,,,,,,,,,,,,0.972,0.505,0.830*2F
 
$QZGSA,A,3,,,,,,,,,,,,,,,,,,,,,0.972,0.505,0.830*29
 
$GPGSV,9,1,29,2,6,109,28,4,5,,,6,10,73,34,10,10,255,31*49
 
$GPGSV,9,2,29,12,82,37,34,14,23,314,39,15,9,166,30,17,7,32,23*75
 
$GPGSV,9,3,29,19,22,43,33,24,56,108,35,25,50,247,36,29,8,187,32*77
 
$GPGSV,9,4,29,32,43,296,31*46
 
$GLGSV,9,5,29,65,36,289,28,66,10,343,34,72,26,231,31,73,22,80,29*5B
 
$GLGSV,9,6,29,74,66,11,32,75,33,290,39,83,35,48,36,84,37,121,24*68
 
$GLGSV,9,7,29,85,5,163,22*6C
 
$BDGSV,9,8,29,205,10,109,20,207,5,,,208,16,29,26,211,5,,*5B
 
$BDGSV,9,9,29,212,11,176,28,213,5,,29,214,17,239,33*6F
 
$GPRMC,161409.00,A,4825.1346,N,00428.4722,W,3.685,196.486,040317,,E,A*09
 
$GPGGA,161410.00,4825.1335,N,00428.4727,W,1,24,0.505,138.094,M,,M,0,*55
 
$GNGSA,A,3,2,6,10,12,14,15,17,19,24,25,29,32,205,208,212,214,65,72,73,74,0.972,0.505,0.830*23
 
$GPGSA,A,3,2,6,10,12,14,15,17,19,24,25,29,32,,,,,,,,,0.972,0.505,0.830*37
 
$GLGSA,A,3,65,72,73,74,75,83,84,85,,,,,,,,,,,,,0.972,0.505,0.830*20
 
$BDGSA,A,3,205,208,212,214,,,,,,,,,,,,,,,,,0.972,0.505,0.830*2F
 
$QZGSA,A,3,,,,,,,,,,,,,,,,,,,,,0.972,0.505,0.830*29
 
$GPGSV,9,1,29,2,6,109,28,4,5,,,6,10,73,31,10,10,255,29*45
 
$GPGSV,9,2,29,12,82,37,31,14,23,314,33,15,9,166,33,17,7,32,23*79
 
$GPGSV,9,3,29,19,22,43,32,24,56,108,35,25,50,247,32,29,8,187,28*79
 
$GPGSV,9,4,29,32,43,296,33*44
 
$GLGSV,9,5,29,65,36,289,31,66,10,343,35,72,26,231,29,73,22,80,32*51
 
$GLGSV,9,6,29,74,66,11,30,75,33,290,37,83,35,48,35,84,37,121,26*65
 
$GLGSV,9,7,29,85,5,163,24*6A
 
$BDGSV,9,8,29,205,10,109,21,207,5,,,208,16,29,26,211,5,,*5A
 
$BDGSV,9,9,29,212,11,176,26,213,5,,27,214,17,239,32*6E
 
$GPRMC,161410.00,A,4825.1335,N,00428.4727,W,3.515,196.878,040317,,E,A*07
 
$GPGGA,161411.00,4825.1325,N,00428.4730,W,1,24,0.505,138.061,M,,M,0,*59
 
$GNGSA,A,3,2,6,10,12,14,15,17,19,24,25,29,32,205,208,212,214,65,72,73,74,0.972,0.505,0.830*23
 
$GPGSA,A,3,2,6,10,12,14,15,17,19,24,25,29,32,,,,,,,,,0.972,0.505,0.830*37
 
$GLGSA,A,3,65,72,73,74,75,83,84,85,,,,,,,,,,,,,0.972,0.505,0.830*20
 
$BDGSA,A,3,205,208,212,214,,,,,,,,,,,,,,,,,0.972,0.505,0.830*2F
 
$QZGSA,A,3,,,,,,,,,,,,,,,,,,,,,0.972,0.505,0.830*29
 
$GPGSV,9,1,28,2,6,109,27,4,5,,,6,10,73,33,10,10,255,28*48
 
$GPGSV,9,2,28,12,82,37,31,14,23,314,37,15,9,166,31,17,7,32,24*79
 
$GPGSV,9,3,28,19,22,43,33,24,56,108,35,25,50,247,34,29,8,187,25*72
 
$GPGSV,9,4,28,32,43,296,33*45
 
$GLGSV,9,5,28,65,36,289,31,66,10,343,33,72,26,231,29,73,22,80,30*54
 
$GLGSV,9,6,28,74,66,11,30,75,33,290,39,83,35,48,36,84,37,121,21*6E
 
$GLGSV,9,7,28,85,5,163,23*6C
 
$BDGSV,9,8,28,205,10,109,21,208,16,29,26,211,5,,,212,11,176,27*5F
 
$BDGSV,9,9,28,213,5,,29,214,17,239,32*64
 
$GPRMC,161411.00,A,4825.1325,N,00428.4730,W,3.393,190.971,040317,,E,A*07
 
$GPGGA,161412.00,4825.1315,N,00428.4732,W,1,24,0.505,137.999,M,,M,0,*5A
 
$GNGSA,A,3,2,6,10,12,14,15,17,19,24,25,29,32,205,208,212,214,65,72,73,74,0.972,0.505,0.830*23
 
$GPGSA,A,3,2,6,10,12,14,15,17,19,24,25,29,32,,,,,,,,,0.972,0.505,0.830*37
 
$GLGSA,A,3,65,72,73,74,75,83,84,85,,,,,,,,,,,,,0.972,0.505,0.830*20
 
$BDGSA,A,3,205,208,212,214,,,,,,,,,,,,,,,,,0.972,0.505,0.830*2F
 
$QZGSA,A,3,,,,,,,,,,,,,,,,,,,,,0.972,0.505,0.830*29
 
$GPGSV,9,1,28,2,6,109,27,4,5,,,6,10,73,32,10,10,255,27*46
 
$GPGSV,9,2,28,12,82,37,34,14,23,314,35,15,9,166,29,17,7,32,25*76
 
$GPGSV,9,3,28,19,22,43,33,24,56,108,36,25,50,247,37,29,8,187,28*7F
 
$GPGSV,9,4,28,32,43,296,33*45
 
$GLGSV,9,5,28,65,36,289,29,66,10,343,32,72,26,231,27,73,22,80,24*57
 
$GLGSV,9,6,28,74,66,11,30,75,33,290,40,83,35,48,35,84,37,121,24*66
 
$GLGSV,9,7,28,85,5,163,25*6A
 
$BDGSV,9,8,28,205,10,109,21,208,16,29,27,211,5,,,212,11,176,29*50
 
$BDGSV,9,9,28,213,5,,31,214,17,239,33*6C
 
$GPRMC,161412.00,A,4825.1315,N,00428.4732,W,3.348,183.262,040317,,E,A*08
 
$GPGGA,161413.00,4825.1307,N,00428.4733,W,1,23,0.514,138.028,M,,M,0,*52
 
$GNGSA,A,3,2,6,10,12,14,15,17,19,24,25,29,32,208,212,214,65,72,73,74,75,0.980,0.514,0.834*1F
 
$GPGSA,A,3,2,6,10,12,14,15,17,19,24,25,29,32,,,,,,,,,0.980,0.514,0.834*3E
 
$GLGSA,A,3,65,72,73,74,75,83,84,85,,,,,,,,,,,,,0.980,0.514,0.834*29
 
$BDGSA,A,3,208,212,214,,,,,,,,,,,,,,,,,,0.980,0.514,0.834*11
 
$QZGSA,A,3,,,,,,,,,,,,,,,,,,,,,0.980,0.514,0.834*20
 
$GPGSV,9,1,28,2,6,109,25,4,5,,,6,10,73,32,10,10,255,28*4B
 
$GPGSV,9,2,28,12,82,37,34,14,23,314,38,15,9,166,32,17,7,32,27*73
 
$GPGSV,9,3,28,19,22,43,32,24,56,108,36,25,50,247,37,29,8,187,32*75
 
$GPGSV,9,4,28,32,43,296,33*45
 
$GLGSV,9,5,28,65,36,289,30,66,10,343,31,72,26,231,30,73,22,80,24*5A
 
$GLGSV,9,6,28,74,66,11,30,75,33,290,39,83,35,48,34,84,37,121,25*68
 
$GLGSV,9,7,28,85,5,163,28*67
 
$BDGSV,9,8,28,205,10,109,21,208,16,29,28,211,5,,,212,11,176,32*55
 
$BDGSV,9,9,28,213,5,,28,214,17,239,33*64
 
$GPRMC,161413.00,A,4825.1307,N,00428.4733,W,3.408,184.687,040317,,E,A*00
 
$GPGGA,161414.00,4825.1298,N,00428.4735,W,1,24,0.505,138.057,M,,M,0,*5B
 
$GNGSA,A,3,2,6,10,12,14,15,17,19,24,25,29,32,205,208,212,214,65,72,73,74,0.972,0.505,0.830*23
 
$GPGSA,A,3,2,6,10,12,14,15,17,19,24,25,29,32,,,,,,,,,0.972,0.505,0.830*37
 
$GLGSA,A,3,65,72,73,74,75,83,84,85,,,,,,,,,,,,,0.972,0.505,0.830*20
 
$BDGSA,A,3,205,208,212,214,,,,,,,,,,,,,,,,,0.972,0.505,0.830*2F
 
$QZGSA,A,3,,,,,,,,,,,,,,,,,,,,,0.972,0.505,0.830*29
 
$GPGSV,9,1,28,2,6,109,27,4,5,,,6,10,73,32,10,10,255,29*48
 
$GPGSV,9,2,28,12,82,37,33,14,23,314,36,15,9,166,33,17,7,32,31*7C
 
$GPGSV,9,3,28,19,22,43,33,24,56,108,35,25,50,247,36,29,8,187,30*74
 
$GPGSV,9,4,28,32,43,296,31*47
 
$GLGSV,9,5,28,65,36,289,31,66,10,343,31,72,26,231,35,73,22,80,27*5D
 
$GLGSV,9,6,28,74,66,11,31,75,33,290,39,83,35,48,35,84,37,121,22*6F
 
$GLGSV,9,7,28,85,5,163,27*68
 
$BDGSV,9,8,28,205,10,109,21,208,16,29,27,211,5,,,212,11,176,31*59
 
$BDGSV,9,9,28,213,5,,27,214,17,239,35*6D
 
$GPRMC,161414.00,A,4825.1298,N,00428.4735,W,3.357,185.995,040317,,E,A*06
 
$GPGGA,161415.00,4825.1288,N,00428.4736,W,1,24,0.505,138.060,M,,M,0,*5C
 
$GNGSA,A,3,2,6,10,12,14,15,17,19,24,25,29,32,205,208,212,214,65,72,73,74,0.972,0.505,0.830*23
 
$GPGSA,A,3,2,6,10,12,14,15,17,19,24,25,29,32,,,,,,,,,0.972,0.505,0.830*37
 
$GLGSA,A,3,65,72,73,74,75,83,84,85,,,,,,,,,,,,,0.972,0.505,0.830*20
 
$BDGSA,A,3,205,208,212,214,,,,,,,,,,,,,,,,,0.972,0.505,0.830*2F
 
$QZGSA,A,3,,,,,,,,,,,,,,,,,,,,,0.972,0.505,0.830*29
 
$GPGSV,9,1,28,2,6,109,25,4,5,,,6,10,73,31,10,10,255,28*48
 
$GPGSV,9,2,28,12,82,37,30,14,23,314,36,15,9,166,35,17,7,32,32*7A
 
$GPGSV,9,3,28,19,22,43,33,24,56,108,35,25,50,247,33,29,8,187,29*79
 
$GPGSV,9,4,28,32,43,296,34*42
 
$GLGSV,9,5,28,65,36,289,32,66,10,343,33,72,26,231,33,73,22,80,26*5B
 
$GLGSV,9,6,28,74,66,11,31,75,33,290,40,83,35,48,35,84,37,121,24*67
 
$GLGSV,9,7,28,85,5,163,26*69
 
$BDGSV,9,8,28,205,10,109,21,208,16,29,27,211,5,,,212,11,176,31*59
 
$BDGSV,9,9,28,213,5,,31,214,17,239,34*6B
 
$GPRMC,161415.00,A,4825.1288,N,00428.4736,W,3.338,180.604,040317,,E,A*0E
 
$GPGGA,161416.00,4825.1279,N,00428.4735,W,1,24,0.505,138.381,M,,M,0,*5E
 
$GNGSA,A,3,2,6,10,12,14,15,17,19,24,25,29,32,205,208,212,214,65,72,73,74,0.972,0.505,0.830*23
 
$GPGSA,A,3,2,6,10,12,14,15,17,19,24,25,29,32,,,,,,,,,0.972,0.505,0.830*37
 
$GLGSA,A,3,65,72,73,74,75,83,84,85,,,,,,,,,,,,,0.972,0.505,0.830*20
 
$BDGSA,A,3,205,208,212,214,,,,,,,,,,,,,,,,,0.972,0.505,0.830*2F
 
$QZGSA,A,3,,,,,,,,,,,,,,,,,,,,,0.972,0.505,0.830*29
 
$GPGSV,9,1,28,2,6,109,25,4,5,,,6,10,73,30,10,10,255,29*48
 
$GPGSV,9,2,28,12,82,37,34,14,23,314,37,15,9,166,32,17,7,32,32*78
 
$GPGSV,9,3,28,19,22,43,33,24,56,108,34,25,50,247,38,29,8,187,30*7B
 
$GPGSV,9,4,28,32,43,296,34*42
 
$GLGSV,9,5,28,65,36,289,30,66,10,343,35,72,26,231,33,73,22,80,29*50
 
$GLGSV,9,6,28,74,66,11,30,75,33,290,40,83,35,48,35,84,37,121,27*65
 
$GLGSV,9,7,28,85,5,163,23*6C
 
$BDGSV,9,8,28,205,10,109,20,207,5,,,208,16,29,26,212,11,176,28*56
 
$BDGSV,9,9,28,213,5,,34,214,17,239,32*68
 
$GPRMC,161416.00,A,4825.1279,N,00428.4735,W,3.416,175.790,040317,,E,A*0D
 
$GPGGA,161417.00,4825.1270,N,00428.4734,W,1,24,0.505,138.626,M,,M,0,*5F
 
$GNGSA,A,3,2,6,10,12,14,15,17,19,24,25,29,32,205,208,212,214,65,72,73,74,0.972,0.505,0.830*23
 
$GPGSA,A,3,2,6,10,12,14,15,17,19,24,25,29,32,,,,,,,,,0.972,0.505,0.830*37
 
$GLGSA,A,3,65,72,73,74,75,83,84,85,,,,,,,,,,,,,0.972,0.505,0.830*20
 
$BDGSA,A,3,205,208,212,214,,,,,,,,,,,,,,,,,0.972,0.505,0.830*2F
 
$QZGSA,A,3,,,,,,,,,,,,,,,,,,,,,0.972,0.505,0.830*29
 
$GPGSV,9,1,28,2,6,109,27,4,5,,,6,10,73,27,10,10,255,33*47
 
$GPGSV,9,2,28,12,82,37,33,14,23,314,36,15,9,166,33,17,7,32,36*7B
 
$GPGSV,9,3,28,19,22,43,30,24,56,108,34,25,50,247,37,29,8,187,32*75
 
$GPGSV,9,4,28,32,43,296,33*45
 
$GLGSV,9,5,28,65,36,289,30,66,10,343,33,72,26,231,29,73,22,80,30*55
 
$GLGSV,9,6,28,74,66,11,30,75,33,290,40,83,35,48,35,84,37,121,29*6B
 
$GLGSV,9,7,28,85,5,163,23*6C
 
$BDGSV,9,8,28,205,10,109,20,207,5,,,208,16,29,30,212,11,176,29*50
 
$BDGSV,9,9,28,213,5,,30,214,17,239,29*66
 
$GPRMC,161417.00,A,4825.1270,N,00428.4734,W,3.492,174.271,040317,,E,A*03
 
$GPGGA,161418.00,4825.1262,N,00428.4731,W,1,24,0.505,138.945,M,,M,0,*5C
 
$GNGSA,A,3,2,6,10,12,14,15,17,19,24,25,29,32,205,208,212,214,65,72,73,74,0.972,0.505,0.830*23
 
$GPGSA,A,3,2,6,10,12,14,15,17,19,24,25,29,32,,,,,,,,,0.972,0.505,0.830*37
 
$GLGSA,A,3,65,72,73,74,75,83,84,85,,,,,,,,,,,,,0.972,0.505,0.830*20
 
$BDGSA,A,3,205,208,212,214,,,,,,,,,,,,,,,,,0.972,0.505,0.830*2F
 
$QZGSA,A,3,,,,,,,,,,,,,,,,,,,,,0.972,0.505,0.830*29
 
$GPGSV,9,1,28,2,6,109,27,4,5,,,6,10,72,35,10,10,255,33*45
 
$GPGSV,9,2,28,12,82,37,34,14,23,314,33,15,9,166,32,17,7,32,38*76
 
$GPGSV,9,3,28,19,22,43,31,24,56,108,35,25,50,247,36,29,8,187,34*72
 
$GPGSV,9,4,28,32,43,296,34*42
 
$GLGSV,9,5,28,65,36,289,28,66,10,343,34,72,26,231,31,73,22,80,29*5A
 
$GLGSV,9,6,28,74,66,11,31,75,33,290,40,83,35,48,33,84,37,121,28*6D
 
$GLGSV,9,7,28,85,5,163,19*65
 
$BDGSV,9,8,28,205,10,109,22,207,5,,,208,16,29,31,212,11,176,31*5A
 
$BDGSV,9,9,28,213,5,,27,214,17,239,28*61
 
$GPRMC,161418.00,A,4825.1262,N,00428.4731,W,3.615,170.314,040317,,E,A*01
 
$GPGGA,161419.00,4825.1253,N,00428.4730,W,1,24,0.505,139.225,M,,M,0,*52
 
$GNGSA,A,3,2,6,10,12,14,15,17,19,24,25,29,32,205,208,212,214,65,72,73,74,0.972,0.505,0.830*23
 
$GPGSA,A,3,2,6,10,12,14,15,17,19,24,25,29,32,,,,,,,,,0.972,0.505,0.830*37
 
$GLGSA,A,3,65,72,73,74,75,83,84,85,,,,,,,,,,,,,0.972,0.505,0.830*20
 
$BDGSA,A,3,205,208,212,214,,,,,,,,,,,,,,,,,0.972,0.505,0.830*2F
 
$QZGSA,A,3,,,,,,,,,,,,,,,,,,,,,0.972,0.505,0.830*29
 
$GPGSV,9,1,28,2,6,109,26,4,5,,,6,10,72,30,10,10,255,33*41
 
$GPGSV,9,2,28,12,82,37,35,14,23,314,35,15,9,166,32,17,7,32,38*71
 
$GPGSV,9,3,28,19,22,43,30,24,56,108,33,25,50,247,37,29,8,187,36*76
 
$GPGSV,9,4,28,32,43,296,34*42
 
$GLGSV,9,5,28,65,36,289,31,66,10,343,34,72,26,231,30,73,22,80,27*5D
 
$GLGSV,9,6,28,74,66,11,30,75,33,290,40,83,35,48,33,84,37,121,30*65
 
$GLGSV,9,7,28,85,5,163,19*65
 
$BDGSV,9,8,28,205,10,109,22,207,5,,,208,16,29,33,212,11,176,32*5B
 
$BDGSV,9,9,28,213,5,,26,214,17,239,30*69
 
$GPRMC,161419.00,A,4825.1253,N,00428.4730,W,3.654,174.137,040317,,E,A*01
 
$GPGGA,161420.00,4825.1244,N,00428.4730,W,1,24,0.505,139.429,M,,M,0,*54
 
$GNGSA,A,3,2,6,10,12,14,15,17,19,24,25,29,32,205,208,212,214,65,72,73,74,0.972,0.505,0.830*23
 
$GPGSA,A,3,2,6,10,12,14,15,17,19,24,25,29,32,,,,,,,,,0.972,0.505,0.830*37
 
$GLGSA,A,3,65,72,73,74,75,83,84,85,,,,,,,,,,,,,0.972,0.505,0.830*20
 
$BDGSA,A,3,205,208,212,214,,,,,,,,,,,,,,,,,0.972,0.505,0.830*2F
 
$QZGSA,A,3,,,,,,,,,,,,,,,,,,,,,0.972,0.505,0.830*29
 
$GPGSV,9,1,28,2,6,109,25,4,5,,,6,10,72,34,10,10,255,32*47
 
$GPGSV,9,2,28,12,82,37,33,14,23,314,37,15,9,166,31,17,7,32,39*77
 
$GPGSV,9,3,28,19,22,43,30,24,56,108,34,25,50,247,35,29,8,187,39*7C
 
$GPGSV,9,4,28,32,43,296,34*42
 
$GLGSV,9,5,28,65,36,289,31,66,10,343,35,72,26,231,31,73,22,80,30*5B
 
$GLGSV,9,6,28,74,66,11,31,75,33,290,41,83,35,48,32,84,37,121,30*64
 
$GLGSV,9,7,28,85,5,163,17*6B
 
$BDGSV,9,8,28,205,10,109,21,207,5,,,208,16,29,32,212,11,176,32*59
 
$BDGSV,9,9,28,213,5,,32,214,17,239,29*64
 
$GPRMC,161420.00,A,4825.1244,N,00428.4730,W,4.105,176.684,040317,,E,A*04
 
$GPGGA,161421.00,4825.1232,N,00428.4729,W,1,24,0.505,139.518,M,,M,0,*5F
 
$GNGSA,A,3,2,6,10,12,14,15,17,19,24,25,29,32,205,208,212,214,65,72,73,74,0.972,0.505,0.830*23
 
$GPGSA,A,3,2,6,10,12,14,15,17,19,24,25,29,32,,,,,,,,,0.972,0.505,0.830*37
 
$GLGSA,A,3,65,72,73,74,75,83,84,85,,,,,,,,,,,,,0.972,0.505,0.830*20
 
$BDGSA,A,3,205,208,212,214,,,,,,,,,,,,,,,,,0.972,0.505,0.830*2F
 
$QZGSA,A,3,,,,,,,,,,,,,,,,,,,,,0.972,0.505,0.830*29
 
$GPGSV,9,1,29,2,6,109,27,4,5,,,6,10,72,29,10,10,255,33*49
 
$GPGSV,9,2,29,12,82,37,33,14,23,314,36,15,9,166,30,17,7,32,41*79
 
$GPGSV,9,3,29,19,22,43,28,24,56,108,32,25,50,247,34,29,8,187,32*78
 
$GPGSV,9,4,29,32,43,296,31*46
 
$GLGSV,9,5,29,65,36,289,33,66,10,343,35,72,26,231,32,73,22,80,29*53
 
$GLGSV,9,6,29,74,66,11,29,75,33,290,40,83,35,48,36,84,37,121,30*69
 
$GLGSV,9,7,29,85,5,163,19*64
 
$BDGSV,9,8,29,205,10,109,21,207,5,,,208,16,29,30,211,5,,*5D
 
$BDGSV,9,9,29,212,11,176,30,213,5,,34,214,17,239,28*60
 
$GPRMC,161421.00,A,4825.1232,N,00428.4729,W,4.296,173.094,040317,,E,A*07
 
$GPGGA,161422.00,4825.1220,N,00428.4728,W,1,24,0.505,139.642,M,,M,0,*52
 
$GNGSA,A,3,2,6,10,12,14,15,17,19,24,25,29,32,205,208,212,214,65,72,73,74,0.971,0.505,0.830*20
 
$GPGSA,A,3,2,6,10,12,14,15,17,19,24,25,29,32,,,,,,,,,0.971,0.505,0.830*34
 
$GLGSA,A,3,65,72,73,74,75,83,84,85,,,,,,,,,,,,,0.971,0.505,0.830*23
 
$BDGSA,A,3,205,208,212,214,,,,,,,,,,,,,,,,,0.971,0.505,0.830*2C
 
$QZGSA,A,3,,,,,,,,,,,,,,,,,,,,,0.971,0.505,0.830*2A
 
$GPGSV,9,1,29,2,6,109,27,4,5,,,6,10,72,35,10,10,255,33*44
 
$GPGSV,9,2,29,12,82,37,30,14,23,314,36,15,9,166,32,17,7,32,39*77
 
$GPGSV,9,3,29,19,22,43,29,24,56,108,32,25,50,247,33,29,8,187,36*7A
 
$GPGSV,9,4,29,32,43,296,30*47
 
$GLGSV,9,5,29,65,36,289,38,66,10,343,35,72,26,231,32,73,22,80,30*50
 
$GLGSV,9,6,29,74,66,11,30,75,33,290,39,83,35,48,33,84,37,121,33*69
 
$GLGSV,9,7,29,85,5,163,18*65
 
$BDGSV,9,8,29,205,10,109,22,207,5,,,208,16,29,31,211,5,,*5F
 
$BDGSV,9,9,29,212,11,176,35,213,5,,32,214,17,239,30*6A
 
$GPRMC,161422.00,A,4825.1220,N,00428.4728,W,4.473,172.861,040317,,E,A*08
 
$GPGGA,161423.00,4825.1210,N,00428.4725,W,1,24,0.505,139.339,M,,M,0,*54
 
$GNGSA,A,3,2,6,10,12,14,15,17,19,24,25,29,32,205,208,212,214,65,72,73,74,0.971,0.505,0.830*20
 
$GPGSA,A,3,2,6,10,12,14,15,17,19,24,25,29,32,,,,,,,,,0.971,0.505,0.830*34
 
$GLGSA,A,3,65,72,73,74,75,83,84,85,,,,,,,,,,,,,0.971,0.505,0.830*23
 
$BDGSA,A,3,205,208,212,214,,,,,,,,,,,,,,,,,0.971,0.505,0.830*2C
 
$QZGSA,A,3,,,,,,,,,,,,,,,,,,,,,0.971,0.505,0.830*2A
 
$GPGSV,9,1,29,2,6,109,28,4,5,,,6,10,72,33,10,10,255,31*4F
 
$GPGSV,9,2,29,12,82,37,31,14,23,314,37,15,9,166,31,17,7,32,37*7A
 
$GPGSV,9,3,29,19,22,43,28,24,56,108,35,25,50,247,36,29,8,187,37*78
 
$GPGSV,9,4,29,32,43,296,37*40
 
$GLGSV,9,5,29,65,36,289,30,66,10,343,33,72,26,231,30,73,22,80,32*5E
 
$GLGSV,9,6,29,74,66,11,32,75,33,290,42,83,35,48,33,84,37,121,31*65
 
$GLGSV,9,7,29,85,5,163,18*65
 
$BDGSV,9,8,29,205,10,109,22,207,5,,,208,16,29,30,211,5,,*5E
 
$BDGSV,9,9,29,212,11,176,32,213,5,,31,214,17,239,32*6C
 
$GPRMC,161423.00,A,4825.1210,N,00428.4725,W,4.070,176.219,040317,,E,A*01
 
$GPGGA,161424.00,4825.1198,N,00428.4724,W,1,24,0.505,139.453,M,,M,0,*5A
 
$GNGSA,A,3,2,6,10,12,14,15,17,19,24,25,29,32,205,208,212,214,65,72,73,74,0.971,0.505,0.830*20
 
$GPGSA,A,3,2,6,10,12,14,15,17,19,24,25,29,32,,,,,,,,,0.971,0.505,0.830*34
 
$GLGSA,A,3,65,72,73,74,75,83,84,85,,,,,,,,,,,,,0.971,0.505,0.830*23
 
$BDGSA,A,3,205,208,212,214,,,,,,,,,,,,,,,,,0.971,0.505,0.830*2C
 
$QZGSA,A,3,,,,,,,,,,,,,,,,,,,,,0.971,0.505,0.830*2A
 
$GPGSV,9,1,29,2,6,109,30,4,5,,,6,10,72,33,10,10,255,28*4E
 
$GPGSV,9,2,29,12,82,37,37,14,23,314,37,15,9,166,31,17,7,32,37*7C
 
$GPGSV,9,3,29,19,22,43,34,24,56,108,35,25,50,247,40,29,8,187,29*7B
 
$GPGSV,9,4,29,32,43,296,39*4E
 
$GLGSV,9,5,29,65,36,289,31,66,10,343,34,72,26,231,31,73,22,80,27*5D
 
$GLGSV,9,6,29,74,66,11,30,75,33,290,42,83,35,48,36,84,37,121,29*6B
 
$GLGSV,9,7,29,85,5,163,18*65
 
$BDGSV,9,8,29,205,10,109,22,207,5,,,208,16,29,29,211,5,,*56
 
$BDGSV,9,9,29,212,11,176,32,213,5,,32,214,17,239,31*6C
 
$GPRMC,161424.00,A,4825.1198,N,00428.4724,W,4.141,176.206,040317,,E,A*09
 
$GPGGA,161425.00,4825.1188,N,00428.4719,W,1,24,0.505,139.184,M,,M,0,*5B
 
$GNGSA,A,3,2,6,10,12,14,15,17,19,24,25,29,32,205,208,212,214,65,72,73,74,0.971,0.505,0.830*20
 
$GPGSA,A,3,2,6,10,12,14,15,17,19,24,25,29,32,,,,,,,,,0.971,0.505,0.830*34
 
$GLGSA,A,3,65,72,73,74,75,83,84,85,,,,,,,,,,,,,0.971,0.505,0.830*23
 
$BDGSA,A,3,205,208,212,214,,,,,,,,,,,,,,,,,0.971,0.505,0.830*2C
 
$QZGSA,A,3,,,,,,,,,,,,,,,,,,,,,0.971,0.505,0.830*2A
 
$GPGSV,9,1,29,2,6,109,26,4,5,,,6,10,72,31,10,10,255,31*43
 
$GPGSV,9,2,29,12,82,37,36,14,23,314,37,15,9,166,28,17,7,32,39*7B
 
$GPGSV,9,3,29,19,22,43,32,24,56,108,33,25,50,247,41,29,8,187,38*7A
 
$GPGSV,9,4,29,32,43,296,35*42
 
$GLGSV,9,5,29,65,36,289,30,66,10,343,34,72,26,231,31,73,22,80,28*53
 
$GLGSV,9,6,29,74,66,11,30,75,33,290,41,83,35,48,35,84,37,121,30*63
 
$GLGSV,9,7,29,85,5,163,19*64
 
$BDGSV,9,8,29,205,10,109,22,207,5,,,208,16,29,27,211,5,,*58
 
$BDGSV,9,9,29,212,11,176,32,213,5,,31,214,17,239,29*66
 
$GPRMC,161425.00,A,4825.1188,N,00428.4719,W,3.923,172.959,040317,,E,A*09
 
$GPGGA,161426.00,4825.1178,N,00428.4716,W,1,24,0.505,139.023,M,,M,0,*54
 
$GNGSA,A,3,2,6,10,12,14,15,17,19,24,25,29,32,205,208,212,214,65,72,73,74,0.971,0.505,0.830*20
 
$GPGSA,A,3,2,6,10,12,14,15,17,19,24,25,29,32,,,,,,,,,0.971,0.505,0.830*34
 
$GLGSA,A,3,65,72,73,74,75,83,84,85,,,,,,,,,,,,,0.971,0.505,0.830*23
 
$BDGSA,A,3,205,208,212,214,,,,,,,,,,,,,,,,,0.971,0.505,0.830*2C
 
$QZGSA,A,3,,,,,,,,,,,,,,,,,,,,,0.971,0.505,0.830*2A
 
$GPGSV,9,1,29,2,6,109,27,4,5,,,6,10,72,29,10,10,255,32*48
 
$GPGSV,9,2,29,12,82,37,32,14,23,314,36,15,9,166,30,17,7,32,40*79
 
$GPGSV,9,3,29,19,22,42,32,24,56,108,33,25,50,247,35,29,8,187,36*76
 
$GPGSV,9,4,29,32,43,296,30*47
 
$GLGSV,9,5,29,65,36,289,30,66,10,343,35,72,25,231,34,73,22,80,29*55
 
$GLGSV,9,6,29,74,66,11,27,75,33,290,41,83,35,48,33,84,37,121,31*62
 
$GLGSV,9,7,29,85,5,163,19*64
 
$BDGSV,9,8,29,205,10,109,25,207,5,,,208,16,29,27,211,5,,*5F
 
$BDGSV,9,9,29,212,11,176,29,213,5,,30,214,17,239,30*65
 
$GPRMC,161426.00,A,4825.1178,N,00428.4716,W,3.893,174.899,040317,,E,A*0B
 
$GPGGA,161427.00,4825.1168,N,00428.4715,W,1,24,0.505,139.058,M,,M,0,*5B
 
$GNGSA,A,3,2,6,10,12,14,15,17,19,24,25,29,32,205,208,212,214,65,72,73,74,0.971,0.505,0.830*20
 
$GPGSA,A,3,2,6,10,12,14,15,17,19,24,25,29,32,,,,,,,,,0.971,0.505,0.830*34
 
$GLGSA,A,3,65,72,73,74,75,83,84,85,,,,,,,,,,,,,0.971,0.505,0.830*23
 
$BDGSA,A,3,205,208,212,214,,,,,,,,,,,,,,,,,0.971,0.505,0.830*2C
 
$QZGSA,A,3,,,,,,,,,,,,,,,,,,,,,0.971,0.505,0.830*2A
 
$GPGSV,9,1,29,2,6,109,25,4,5,,,6,10,72,33,10,10,255,25*47
 
$GPGSV,9,2,29,12,82,37,30,14,23,314,35,15,9,166,33,17,7,32,40*7B
 
$GPGSV,9,3,29,19,22,42,32,24,56,108,34,25,50,247,33,29,8,187,37*76
 
$GPGSV,9,4,29,32,43,296,31*46
 
$GLGSV,9,5,29,65,36,289,36,66,10,343,34,72,25,231,31,73,22,80,29*57
 
$GLGSV,9,6,29,74,66,11,30,75,33,290,41,83,35,48,36,84,37,121,32*62
 
$GLGSV,9,7,29,85,5,163,19*64
 
$BDGSV,9,8,29,205,10,109,25,207,5,,,208,16,29,26,211,5,,*5E
 
$BDGSV,9,9,29,212,11,176,32,213,5,,30,214,17,239,34*6B
 
$GPRMC,161427.00,A,4825.1168,N,00428.4715,W,3.954,174.425,040317,,E,A*09
 
$GPGGA,161428.00,4825.1156,N,00428.4713,W,1,24,0.505,139.096,M,,M,0,*5D
 
$GNGSA,A,3,2,6,10,12,14,15,17,19,24,25,29,32,205,208,212,214,65,72,73,74,0.971,0.505,0.830*20
 
$GPGSA,A,3,2,6,10,12,14,15,17,19,24,25,29,32,,,,,,,,,0.971,0.505,0.830*34
 
$GLGSA,A,3,65,72,73,74,75,83,84,85,,,,,,,,,,,,,0.971,0.505,0.830*23
 
$BDGSA,A,3,205,208,212,214,,,,,,,,,,,,,,,,,0.971,0.505,0.830*2C
 
$QZGSA,A,3,,,,,,,,,,,,,,,,,,,,,0.971,0.505,0.830*2A
 
$GPGSV,9,1,29,2,6,109,28,4,5,,,6,10,72,33,10,10,255,25*4A
 
$GPGSV,9,2,29,12,82,37,30,14,23,314,38,15,9,166,33,17,7,32,36*77
 
$GPGSV,9,3,29,19,22,42,36,24,56,108,33,25,50,247,39,29,8,187,36*7E
 
$GPGSV,9,4,29,32,43,296,33*44
 
$GLGSV,9,5,29,65,36,289,29,66,10,343,34,72,25,231,31,73,22,80,31*50
 
$GLGSV,9,6,29,74,66,11,31,75,33,290,42,83,35,48,35,84,37,121,31*60
 
$GLGSV,9,7,29,85,5,163,19*64
 
$BDGSV,9,8,29,205,10,109,24,207,5,,,208,16,29,24,211,5,,*5D
 
$BDGSV,9,9,29,212,11,176,30,213,5,,31,214,17,239,34*68
 
$GPRMC,161428.00,A,4825.1156,N,00428.4713,W,4.084,174.312,040317,,E,A*0D
 
$GPGGA,161429.00,4825.1144,N,00428.4711,W,1,24,0.505,139.079,M,,M,0,*5C
 
$GNGSA,A,3,2,6,10,12,14,15,17,19,24,25,29,32,205,208,212,214,65,72,73,74,0.971,0.505,0.830*20
 
$GPGSA,A,3,2,6,10,12,14,15,17,19,24,25,29,32,,,,,,,,,0.971,0.505,0.830*34
 
$GLGSA,A,3,65,72,73,74,75,83,84,85,,,,,,,,,,,,,0.971,0.505,0.830*23
 
$BDGSA,A,3,205,208,212,214,,,,,,,,,,,,,,,,,0.971,0.505,0.830*2C
 
$QZGSA,A,3,,,,,,,,,,,,,,,,,,,,,0.971,0.505,0.830*2A
 
$GPGSV,9,1,29,2,6,109,29,4,5,,,6,10,72,33,10,10,255,26*48
 
$GPGSV,9,2,29,12,82,37,34,14,23,314,38,15,9,166,32,17,7,32,39*7D
 
$GPGSV,9,3,29,19,22,42,33,24,56,108,34,25,50,247,40,29,8,187,38*7C
 
$GPGSV,9,4,29,32,43,296,35*42
 
$GLGSV,9,5,29,65,36,289,31,66,10,343,35,72,25,231,31,73,22,80,29*51
 
$GLGSV,9,6,29,74,66,11,29,75,33,290,43,83,35,48,35,84,37,121,31*68
 
$GLGSV,9,7,29,85,5,163,19*64
 
$BDGSV,9,8,29,205,10,109,24,207,5,,,208,16,29,25,211,5,,*5C
 
$BDGSV,9,9,29,212,11,176,30,213,5,,29,214,17,239,33*66
 
$GPRMC,161429.00,A,4825.1144,N,00428.4711,W,3.870,172.592,040317,,E,A*01
 
$GPGGA,161430.00,4825.1133,N,00428.4707,W,1,24,0.505,139.248,M,,M,0,*53
 
$GNGSA,A,3,2,6,10,12,14,15,17,19,24,25,29,32,205,208,212,214,65,72,73,74,0.971,0.505,0.830*20
 
$GPGSA,A,3,2,6,10,12,14,15,17,19,24,25,29,32,,,,,,,,,0.971,0.505,0.830*34
 
$GLGSA,A,3,65,72,73,74,75,83,84,85,,,,,,,,,,,,,0.971,0.505,0.830*23
 
$BDGSA,A,3,205,208,212,214,,,,,,,,,,,,,,,,,0.971,0.505,0.830*2C
 
$QZGSA,A,3,,,,,,,,,,,,,,,,,,,,,0.971,0.505,0.830*2A
 
$GPGSV,9,1,29,2,6,109,33,4,5,,,6,10,72,31,10,10,255,25*42
 
$GPGSV,9,2,29,12,82,37,32,14,23,314,38,15,9,166,29,17,7,32,36*7E
 
$GPGSV,9,3,29,19,22,42,32,24,56,108,36,25,50,247,35,29,8,187,37*72
 
$GPGSV,9,4,29,32,43,296,36*41
 
$GLGSV,9,5,29,65,36,289,33,66,10,343,32,72,25,231,31,73,22,80,31*5D
 
$GLGSV,9,6,29,74,66,11,29,75,33,290,39,83,35,48,32,84,37,121,31*62
 
$GLGSV,9,7,29,85,5,163,19*64
 
$BDGSV,9,8,29,205,10,109,24,207,5,,,208,16,29,28,211,5,,*51
 
$BDGSV,9,9,29,212,11,176,31,213,5,,29,214,17,239,31*65
 
$GPRMC,161430.00,A,4825.1133,N,00428.4707,W,3.527,172.087,040317,,E,A*00
 
$GPGGA,161431.00,4825.1123,N,00428.4705,W,1,24,0.505,139.397,M,,M,0,*52
 
$GNGSA,A,3,2,6,10,12,14,15,17,19,24,25,29,32,205,208,212,214,65,72,73,74,0.971,0.505,0.830*20
 
$GPGSA,A,3,2,6,10,12,14,15,17,19,24,25,29,32,,,,,,,,,0.971,0.505,0.830*34
 
$GLGSA,A,3,65,72,73,74,75,83,84,85,,,,,,,,,,,,,0.971,0.505,0.830*23
 
$BDGSA,A,3,205,208,212,214,,,,,,,,,,,,,,,,,0.971,0.505,0.830*2C
 
$QZGSA,A,3,,,,,,,,,,,,,,,,,,,,,0.971,0.505,0.830*2A
 
$GPGSV,9,1,29,2,6,109,31,4,5,,,6,10,72,32,10,10,255,26*40
 
$GPGSV,9,2,29,12,82,37,34,14,23,314,37,15,9,166,30,17,7,32,33*7A
 
$GPGSV,9,3,29,19,22,42,29,24,56,108,35,25,50,247,33,29,8,187,31*7B
 
$GPGSV,9,4,29,32,43,296,41*41
 
$GLGSV,9,5,29,65,36,289,38,66,10,343,32,72,25,231,32,73,22,80,30*54
 
$GLGSV,9,6,29,74,66,11,27,75,33,290,33,83,35,48,32,84,37,121,32*65
 
$GLGSV,9,7,29,85,5,163,19*64
 
$BDGSV,9,8,29,205,10,109,24,207,5,,,208,16,29,28,211,5,,*51
 
$BDGSV,9,9,29,212,11,176,31,213,5,,31,214,17,239,32*6F
 
$GPRMC,161431.00,A,4825.1123,N,00428.4705,W,3.535,172.531,040317,,E,A*09
 
$GPGGA,161432.00,4825.1112,N,00428.4702,W,1,24,0.505,139.551,M,,M,0,*58
 
$GNGSA,A,3,2,6,10,12,14,15,17,19,24,25,29,32,205,208,212,214,65,72,73,74,0.971,0.505,0.830*20
 
$GPGSA,A,3,2,6,10,12,14,15,17,19,24,25,29,32,,,,,,,,,0.971,0.505,0.830*34
 
$GLGSA,A,3,65,72,73,74,75,83,84,85,,,,,,,,,,,,,0.971,0.505,0.830*23
 
$BDGSA,A,3,205,208,212,214,,,,,,,,,,,,,,,,,0.971,0.505,0.830*2C
 
$QZGSA,A,3,,,,,,,,,,,,,,,,,,,,,0.971,0.505,0.830*2A
 
$GPGSV,9,1,29,2,6,109,31,4,5,,,6,10,72,30,10,10,255,24*40
 
$GPGSV,9,2,29,12,82,37,34,14,23,314,37,15,9,166,28,17,7,32,37*77
 
