VTG,21.68,T,,M,0.00,N,0.0,K,D*35
 
$GPGGA,103049.000,4825.0835,N,00428.3977,W,2,11,0.8,94.5,M,52.0,M,2.8,0000*50
 
$GPGSA,A,3,03,32,06,09,31,23,17,01,11,12,19,,1.5,0.8,1.3*3E
 
$GPRMC,103049.000,A,4825.0835,N,00428.3977,W,0.00,21.68,060116,,,D*4A
 
$GPVTG,21.68,T,,M,0.00,N,0.0,K,D*35
 
$GPGGA,103050.000,4825.0835,N,00428.3977,W,2,11,0.8,94.5,M,52.0,M,1.8,0000*5B
 
$GPGSA,A,3,03,32,06,09,31,23,17,01,11,12,19,,1.5,0.8,1.3*3E
 
$GPGSV,3,1,12,32,20,073,36,03,56,067,34,06,36,303,32,09,36,198,45*73
 
$GPGSV,3,2,12,31,15,042,29,01,30,129,27,17,45,241,50,23,66,155,39*72
 
$GPGSV,3,3,12,11,12,146,18,19,44,225,45,12,05,325,48,49,33,167,42*7A
 
$GPRMC,103050.000,A,4825.0835,N,00428.3977,W,0.00,21.68,060116,,,D*42
 
$GPVTG,21.68,T,,M,0.00,N,0.0,K,D*35
 
$GPGGA,103051.000,4825.0835,N,00428.3977,W,2,11,0.8,94.5,M,52.0,M,1.8,0000*5A
 
$GPGSA,A,3,03,32,06,09,31,23,17,01,11,12,19,,1.5,0.8,1.3*3E
 
$GPRMC,103051.000,A,4825.0835,N,00428.3977,W,0.00,21.68,060116,,,D*43
 
$GPVTG,21.68,T,,M,0.00,N,0.0,K,D*35
 
$GPGGA,103052.000,4825.0835,N,00428.3977,W,2,11,0.8,94.5,M,52.0,M,1.8,0000*59
 
$GPGSA,A,3,03,32,06,09,31,23,17,01,11,12,19,,1.5,0.8,1.3*3E
 
$GPRMC,103052.000,A,4825.0835,N,00428.3977,W,0.00,21.68,060116,,,D*40
 
$GPVTG,21.68,T,,M,0.00,N,0.0,K,D*35
 
$GPGGA,103053.000,4825.0812,N,00428.3928,W,2,11,0.8,106.5,M,52.0,M,2.8,0000*6E
 
$GPGSA,A,3,03,32,06,09,31,23,17,01,11,12,19,,1.5,0.8,1.3*3E
 
$GPGSV,3,1,12,32,20,073,48,03,56,067,44,06,36,303,40,09,36,198,34*7E
 
$GPGSV,3,2,12,31,15,042,27,01,30,129,26,17,45,241,35,23,66,155,43*73
 
$GPGSV,3,3,12,11,12,146,27,19,44,225,37,12,05,325,37,49,33,167,43*7A
 
$GPRMC,103053.000,A,4825.0812,N,00428.3928,W,1.78,2.46,060116,,,D*7D
 
$GPVTG,2.46,T,,M,1.78,N,3.3,K,D*06
 
$GPGGA,103054.000,4825.0817,N,00428.3926,W,2,11,0.8,106.7,M,52.0,M,1.8,0000*63
 
$GPGSA,A,3,03,32,06,09,31,23,17,01,11,12,19,,1.5,0.8,1.3*3E
 
$GPRMC,103054.000,A,4825.0817,N,00428.3926,W,1.96,4.76,060116,,,D*74
 
$GPVTG,4.76,T,,M,1.96,N,3.6,K,D*06
 
$GPGGA,103055.000,4825.0823,N,00428.3924,W,2,11,0.8,106.8,M,52.0,M,1.8,0000*68
 
$GPGSA,A,3,03,32,06,09,31,23,17,01,11,12,19,,1.5,0.8,1.3*3E
 
$GPRMC,103055.000,A,4825.0823,N,00428.3924,W,2.36,4.85,060116,,,D*75
 
$GPVTG,4.85,T,,M,2.36,N,4.4,K,D*06
 
$GPGGA,103056.000,4825.0829,N,00428.3923,W,2,11,0.8,106.8,M,52.0,M,1.8,0000*66
 
$GPGSA,A,3,03,32,06,09,31,23,17,01,11,12,19,,1.5,0.8,1.3*3E
 
$GPGSV,3,1,12,32,20,073,45,03,56,067,45,06,36,303,39,09,36,198,34*7C
 
$GPGSV,3,2,12,31,15,042,28,01,30,129,26,17,45,241,37,23,66,155,44*79
 
$GPGSV,3,3,12,11,12,146,27,19,44,225,30,12,05,325,36,49,33,167,37*7F
 
$GPRMC,103056.000,A,4825.0829,N,00428.3923,W,2.16,358.52,060116,,,D*79
 
$GPVTG,358.52,T,,M,2.16,N,4.0,K,D*00
 
$GPGGA,103057.000,4825.0835,N,00428.3922,W,2,10,0.8,106.8,M,52.0,M,2.8,0000*69
 
$GPGSA,A,3,03,32,06,09,31,23,17,11,12,19,,,1.5,0.8,1.3*3F
 
$GPRMC,103057.000,A,4825.0835,N,00428.3922,W,2.06,354.99,060116,,,D*7E
 
$GPVTG,354.99,T,,M,2.06,N,3.8,K,D*05
 
$GPGGA,103058.000,4825.0841,N,00428.3923,W,2,10,0.8,106.6,M,52.0,M,3.8,0000*6B
 
$GPGSA,A,3,03,32,06,09,31,23,17,11,12,19,,,1.5,0.8,1.3*3F
 
$GPRMC,103058.000,A,4825.0841,N,00428.3923,W,2.42,354.42,060116,,,D*75
 
$GPVTG,354.42,T,,M,2.42,N,4.5,K,D*09
 
$GPGGA,103059.000,4825.0847,N,00428.3924,W,2,11,0.8,106.8,M,52.0,M,4.8,0000*63
 
$GPGSA,A,3,03,32,06,09,31,23,17,01,11,12,19,,1.5,0.8,1.3*3E
 
$GPGSV,3,1,12,32,20,073,26,03,56,067,45,06,36,303,39,09,36,198,27*7B
 
$GPGSV,3,2,12,31,15,042,20,01,30,129,35,17,45,241,37,23,66,155,43*74
 
$GPGSV,3,3,12,11,12,146,14,19,44,225,31,12,05,325,32,49,33,167,31*7C
 
$GPRMC,103059.000,A,4825.0847,N,00428.3924,W,2.33,352.87,060116,,,D*7C
 
$GPVTG,352.87,T,,M,2.33,N,4.3,K,D*06
 
$GPGGA,103100.000,4825.0855,N,00428.3928,W,2,11,0.8,107.3,M,52.0,M,5.8,0000*6A
 
$GPGSA,A,3,03,32,06,09,31,23,17,01,11,12,19,,1.5,0.8,1.3*3E
 
$GPRMC,103100.000,A,4825.0855,N,00428.3928,W,2.28,0.67,060116,,,D*7E
 
$GPVTG,0.67,T,,M,2.28,N,4.2,K,D*07
 
$GPGGA,103101.000,4825.0863,N,00428.3930,W,2,11,0.8,107.6,M,52.0,M,6.8,0000*61
 
$GPGSA,A,3,03,32,06,09,31,23,17,01,11,12,19,,1.5,0.8,1.3*3E
 
$GPRMC,103101.000,A,4825.0863,N,00428.3930,W,2.32,1.46,060116,,,D*7A
 
$GPVTG,1.46,T,,M,2.32,N,4.3,K,D*0F
 
$GPGGA,103102.000,4825.0871,N,00428.3932,W,2,11,0.8,107.6,M,52.0,M,7.8,0000*62
 
$GPGSA,A,3,03,32,06,09,31,23,17,01,11,12,19,,1.5,0.8,1.3*3E
 
$GPGSV,3,1,12,32,20,073,25,03,56,067,46,06,36,303,40,09,36,198,30*73
 
$GPGSV,3,2,12,31,15,042,24,01,30,129,43,17,45,241,38,23,66,155,42*7F
 
$GPGSV,3,3,12,11,12,146,17,19,44,225,31,12,05,325,34,49,33,167,37*7F
 
$GPRMC,103102.000,A,4825.0871,N,00428.3932,W,2.67,352.53,060116,,,D*79
 
$GPVTG,352.53,T,,M,2.67,N,4.9,K,D*04
 
$GPGGA,103103.000,4825.0878,N,00428.3935,W,2,11,0.8,107.5,M,52.0,M,1.8,0000*68
 
$GPGSA,A,3,03,32,06,09,31,23,17,01,11,12,19,,1.5,0.8,1.3*3E
 
$GPRMC,103103.000,A,4825.0878,N,00428.3935,W,2.43,355.32,060116,,,D*70
 
$GPVTG,355.32,T,,M,2.43,N,4.5,K,D*0E
 
$GPGGA,103104.000,4825.0886,N,00428.3938,W,2,11,0.8,107.4,M,52.0,M,1.8,0000*62
 
$GPGSA,A,3,03,32,06,09,31,23,17,01,11,12,19,,1.5,0.8,1.3*3E
 
$GPRMC,103104.000,A,4825.0886,N,00428.3938,W,2.49,350.35,060116,,,D*73
 
$GPVTG,350.35,T,,M,2.49,N,4.6,K,D*05
 
$GPGGA,103105.000,4825.0895,N,00428.3942,W,2,11,0.8,107.5,M,52.0,M,2.8,0000*6E
 
$GPGSA,A,3,03,32,06,09,31,23,17,01,11,12,19,,1.5,0.8,1.3*3E
 
$GPGSV,3,1,12,32,20,073,25,03,56,067,47,06,36,303,40,09,36,198,32*70
 
$GPGSV,3,2,12,31,15,042,24,01,30,129,44,17,45,241,39,23,66,155,42*79
 
$GPGSV,3,3,12,11,12,146,18,19,44,225,36,12,05,325,40,49,33,167,32*71
 
$GPRMC,103105.000,A,4825.0895,N,00428.3942,W,2.53,349.63,060116,,,D*7D
 
$GPVTG,349.63,T,,M,2.53,N,4.7,K,D*04
 
$GPGGA,103106.000,4825.0903,N,00428.3945,W,2,11,0.8,107.4,M,52.0,M,3.8,0000*64
 
$GPGSA,A,3,03,32,06,09,31,23,17,01,11,12,19,,1.5,0.8,1.3*3E
 
$GPRMC,103106.000,A,4825.0903,N,00428.3945,W,2.54,350.25,060116,,,D*7A
 
$GPVTG,350.25,T,,M,2.54,N,4.7,K,D*09
 
$GPGGA,103107.000,4825.0910,N,00428.3949,W,2,11,0.8,107.4,M,52.0,M,4.8,0000*6C
 
$GPGSA,A,3,03,32,06,09,31,23,17,01,11,12,19,,1.5,0.8,1.3*3E
 
$GPRMC,103107.000,A,4825.0910,N,00428.3949,W,2.49,349.70,060116,,,D*71
 
$GPVTG,349.70,T,,M,2.49,N,4.6,K,D*0C
 
$GPGGA,103108.000,4825.0918,N,00428.3952,W,2,11,0.8,107.5,M,52.0,M,1.8,0000*65
 
$GPGSA,A,3,03,32,06,09,31,23,17,01,11,12,19,,1.5,0.8,1.3*3E
 
$GPGSV,3,1,12,32,20,073,25,03,56,067,46,06,36,303,36,09,36,198,31*73
 
$GPGSV,3,2,12,31,15,042,26,01,30,129,45,17,45,241,39,23,66,155,43*7B
 
$GPGSV,3,3,12,11,12,146,19,19,44,225,35,12,05,325,39,49,33,167,34*7B
 
$GPRMC,103108.000,A,4825.0918,N,00428.3952,W,2.46,354.24,060116,,,D*7E
 
$GPVTG,354.24,T,,M,2.46,N,4.6,K,D*0E
 
$GPGGA,103109.000,4825.0926,N,00428.3955,W,2,11,0.8,107.4,M,52.0,M,2.8,0000*6C
 
$GPGSA,A,3,03,32,06,09,31,23,17,01,11,12,19,,1.5,0.8,1.3*3E
 
$GPRMC,103109.000,A,4825.0926,N,00428.3955,W,2.70,353.12,060116,,,D*72
 
$GPVTG,353.12,T,,M,2.70,N,5.0,K,D*0E
 
$GPGGA,103110.000,4825.0934,N,00428.3958,W,2,11,0.8,107.3,M,52.0,M,1.8,0000*6E
 
$GPGSA,A,3,03,32,06,09,31,23,17,01,11,12,19,,1.5,0.8,1.3*3E
 
$GPRMC,103110.000,A,4825.0934,N,00428.3958,W,2.74,351.06,060116,,,D*77
 
$GPVTG,351.06,T,,M,2.74,N,5.1,K,D*0C
 
$GPGGA,103111.000,4825.0943,N,00428.3961,W,2,11,0.8,107.2,M,52.0,M,2.8,0000*67
 
$GPGSA,A,3,03,32,06,09,31,23,17,01,11,12,19,,1.5,0.8,1.3*3E
 
$GPGSV,3,1,12,32,20,073,26,03,56,067,47,06,36,303,38,09,36,198,31*7F
 
$GPGSV,3,2,12,31,15,042,30,01,30,129,45,17,45,241,40,23,66,155,44*75
 
$GPGSV,3,3,12,11,12,146,24,19,44,225,37,12,05,325,40,49,33,167,34*79
 
$GPRMC,103111.000,A,4825.0943,N,00428.3961,W,2.80,350.65,060116,,,D*73
 
$GPVTG,350.65,T,,M,2.80,N,5.2,K,D*00
 
$GPGGA,103112.000,4825.0951,N,00428.3964,W,2,11,0.8,107.2,M,52.0,M,3.8,0000*63
 
$GPGSA,A,3,03,32,06,09,31,23,17,01,11,12,19,,1.5,0.8,1.3*3E
 
$GPRMC,103112.000,A,4825.0951,N,00428.3964,W,2.55,349.39,060116,,,D*7F
 
$GPVTG,349.39,T,,M,2.55,N,4.7,K,D*0D
 
$GPGGA,103113.000,4825.0958,N,00428.3966,W,2,11,0.8,107.0,M,52.0,M,4.8,0000*6C
 
$GPGSA,A,3,03,32,06,09,31,23,17,01,11,12,19,,1.5,0.8,1.3*3E
 
$GPRMC,103113.000,A,4825.0958,N,00428.3966,W,2.68,351.75,060116,,,D*7A
 
$GPVTG,351.75,T,,M,2.68,N,5.0,K,D*04
 
$GPGGA,103114.000,4825.0965,N,00428.3968,W,2,11,0.8,107.0,M,52.0,M,5.8,0000*6A
 
$GPGSA,A,3,03,32,06,09,31,23,17,01,11,12,19,,1.5,0.8,1.3*3E
 
$GPGSV,3,1,12,32,20,073,30,03,56,067,47,06,36,303,37,09,36,198,29*7E
 
$GPGSV,3,2,12,31,15,042,30,01,30,129,45,17,45,241,41,23,66,155,44*74
 
$GPGSV,3,3,12,11,12,146,26,19,44,225,37,12,05,325,40,49,33,167,33*7C
 
$GPRMC,103114.000,A,4825.0965,N,00428.3968,W,2.55,357.46,060116,,,D*75
 
$GPVTG,357.46,T,,M,2.55,N,4.7,K,D*0A
 
$GPGGA,103115.000,4825.0973,N,00428.3969,W,2,11,0.8,106.9,M,52.0,M,6.8,0000*66
 
$GPGSA,A,3,03,32,06,09,31,23,17,01,11,12,19,,1.5,0.8,1.3*3E
 
$GPRMC,103115.000,A,4825.0973,N,00428.3969,W,2.59,353.86,060116,,,D*76
 
$GPVTG,353.86,T,,M,2.59,N,4.8,K,D*01
 
$GPGGA,103116.000,4825.0980,N,00428.3971,W,2,11,0.8,106.6,M,52.0,M,7.8,0000*6E
 
$GPGSA,A,3,03,32,06,09,31,23,17,01,11,12,19,,1.5,0.8,1.3*3E
 
$GPRMC,103116.000,A,4825.0980,N,00428.3971,W,2.73,352.09,060116,,,D*7E
 
$GPVTG,352.09,T,,M,2.73,N,5.1,K,D*07
 
$GPGGA,103117.000,4825.0988,N,00428.3972,W,2,11,0.8,106.3,M,52.0,M,8.8,0000*6E
 
$GPGSA,A,3,03,32,06,09,31,23,17,01,11,12,19,,1.5,0.8,1.3*3E
 
$GPGSV,3,1,12,32,20,073,31,03,56,067,47,06,36,303,32,09,36,198,30*72
 
$GPGSV,3,2,12,31,15,042,38,01,30,129,44,17,45,241,42,23,66,155,45*7F
 
$GPGSV,3,3,12,11,12,146,33,19,44,225,37,12,05,325,40,49,33,167,33*78
 
$GPRMC,103117.000,A,4825.0988,N,00428.3972,W,2.79,352.32,060116,,,D*76
 
$GPVTG,352.32,T,,M,2.79,N,5.2,K,D*06
 
$GPGGA,103118.000,4825.0996,N,00428.3974,W,2,11,0.8,106.0,M,52.0,M,9.8,0000*6A
 
$GPGSA,A,3,03,32,06,09,31,23,17,01,11,12,19,,1.5,0.8,1.3*3E
 
$GPRMC,103118.000,A,4825.0996,N,00428.3974,W,2.73,349.76,060116,,,D*70
 
$GPVTG,349.76,T,,M,2.73,N,5.1,K,D*05
 
$GPGGA,103119.000,4825.1004,N,00428.3976,W,2,11,0.8,105.7,M,52.0,M,1.8,0000*66
 
$GPGSA,A,3,03,32,06,09,31,23,17,01,11,12,19,,1.5,0.8,1.3*3E
 
$GPRMC,103119.000,A,4825.1004,N,00428.3976,W,2.78,353.30,060116,,,D*72
 
$GPVTG,353.30,T,,M,2.78,N,5.2,K,D*04
 
$GPGGA,103120.000,4825.1012,N,00428.3978,W,2,11,0.8,105.5,M,52.0,M,1.8,0000*67
 
$GPGSA,A,3,03,32,06,09,31,23,17,01,11,12,19,,1.5,0.8,1.3*3E
 
$GPGSV,3,1,12,32,20,073,31,03,56,067,47,06,36,303,35,09,36,198,29*7D
 
$GPGSV,3,2,12,31,15,042,38,01,30,129,44,17,45,241,42,23,66,155,45*7F
 
$GPGSV,3,3,12,11,12,146,34,19,44,225,37,12,05,325,40,49,33,167,32*7E
 
$GPRMC,103120.000,A,4825.1012,N,00428.3978,W,2.60,354.57,060116,,,D*7E
 
$GPVTG,354.57,T,,M,2.60,N,4.8,K,D*00
 
$GPGGA,103121.000,4825.1020,N,00428.3979,W,2,11,0.8,105.2,M,52.0,M,2.8,0000*62
 
$GPGSA,A,3,03,32,06,09,31,23,17,01,11,12,19,,1.5,0.8,1.3*3E
 
$GPRMC,103121.000,A,4825.1020,N,00428.3979,W,2.77,355.08,060116,,,D*72
 
$GPVTG,355.08,T,,M,2.77,N,5.1,K,D*05
 
$GPGGA,103122.000,4825.1028,N,00428.3980,W,2,11,0.8,104.8,M,52.0,M,3.8,0000*65
 
$GPGSA,A,3,03,32,06,09,31,23,17,01,11,12,19,,1.5,0.8,1.3*3E
 
$GPRMC,103122.000,A,4825.1028,N,00428.3980,W,2.69,357.04,060116,,,D*7E
 
$GPVTG,357.04,T,,M,2.69,N,5.0,K,D*05
 
$GPGGA,103123.000,4825.1035,N,00428.3981,W,2,11,0.8,104.6,M,52.0,M,1.8,0000*65
 
$GPGSA,A,3,03,32,06,09,31,23,17,01,11,12,19,,1.5,0.8,1.3*3E
 
$GPGSV,3,1,12,32,20,073,30,03,56,067,47,06,36,303,35,09,36,198,29*7C
 
$GPGSV,3,2,12,31,15,042,38,01,30,129,45,17,45,241,36,23,66,155,45*7D
 
$GPGSV,3,3,12,11,12,146,41,19,44,225,37,12,05,325,40,49,33,167,33*7D
 
$GPRMC,103123.000,A,4825.1035,N,00428.3981,W,2.40,357.45,060116,,,D*7C
 
$GPVTG,357.45,T,,M,2.40,N,4.4,K,D*0E
 
$GPGGA,103124.000,4825.1043,N,00428.3981,W,2,11,0.8,104.3,M,52.0,M,1.8,0000*66
 
$GPGSA,A,3,03,32,06,09,31,23,17,01,11,12,19,,1.5,0.8,1.3*3E
 
$GPRMC,103124.000,A,4825.1043,N,00428.3981,W,2.51,357.35,060116,,,D*7D
 
$GPVTG,357.35,T,,M,2.51,N,4.6,K,D*0B
 
$GPGGA,103125.000,4825.1050,N,00428.3982,W,2,11,0.8,104.1,M,52.0,M,2.8,0000*67
 
$GPGSA,A,3,03,32,06,09,31,23,17,01,11,12,19,,1.5,0.8,1.3*3E
 
$GPRMC,103125.000,A,4825.1050,N,00428.3982,W,2.42,357.79,060116,,,D*77
 
$GPVTG,357.79,T,,M,2.42,N,4.5,K,D*02
 
$GPGGA,103126.000,4825.1058,N,00428.3982,W,2,11,0.8,103.8,M,52.0,M,1.8,0000*61
 
$GPGSA,A,3,03,32,06,09,31,23,17,01,11,12,19,,1.5,0.8,1.3*3E
 
$GPGSV,3,1,12,32,20,073,29,03,56,067,46,06,36,303,40,09,36,198,34*7B
 
$GPGSV,3,2,12,31,15,042,38,01,30,129,46,17,45,241,39,23,66,155,45*71
 
$GPGSV,3,3,12,11,12,146,40,19,44,225,32,12,05,325,40,49,33,167,38*72
 
$GPRMC,103126.000,A,4825.1058,N,00428.3982,W,2.53,354.54,060116,,,D*70
 
$GPVTG,354.54,T,,M,2.53,N,4.7,K,D*0C
 
$GPGGA,103127.000,4825.1065,N,00428.3982,W,2,11,0.8,103.6,M,52.0,M,1.8,0000*60
 
$GPGSA,A,3,03,32,06,09,31,23,17,01,11,12,19,,1.5,0.8,1.3*3E
 
$GPRMC,103127.000,A,4825.1065,N,00428.3982,W,2.43,3.83,060116,,,D*75
 
$GPVTG,3.83,T,,M,2.43,N,4.5,K,D*04
 
$GPGGA,103128.000,4825.1073,N,00428.3982,W,2,11,0.8,103.5,M,52.0,M,1.8,0000*6B
 
$GPGSA,A,3,03,32,06,09,31,23,17,01,11,12,19,,1.5,0.8,1.3*3E
 
$GPRMC,103128.000,A,4825.1073,N,00428.3982,W,2.51,355.60,060116,,,D*73
 
$GPVTG,355.60,T,,M,2.51,N,4.6,K,D*09
 
$GPGGA,103129.000,4825.1080,N,00428.3982,W,2,11,0.8,103.4,M,52.0,M,2.8,0000*64
 
$GPGSA,A,3,03,32,06,09,31,23,17,01,11,12,19,,1.5,0.8,1.3*3E
 
$GPGSV,3,1,12,32,20,073,35,03,56,067,46,06,36,303,40,09,36,198,33*71
 
$GPGSV,3,2,12,31,15,042,30,01,30,129,46,17,45,241,41,23,66,155,45*76
 
$GPGSV,3,3,12,11,12,146,33,19,44,225,35,12,05,325,42,49,33,167,36*7D
 
$GPRMC,103129.000,A,4825.1080,N,00428.3982,W,2.38,353.63,060116,,,D*74
 
$GPVTG,353.63,T,,M,2.38,N,4.4,K,D*01
 
$GPGGA,103130.000,4825.1088,N,00428.3982,W,2,11,0.8,103.1,M,52.0,M,1.8,0000*62
 
$GPGSA,A,3,03,32,06,09,31,23,17,01,11,12,19,,1.5,0.8,1.3*3E
 
$GPRMC,103130.000,A,4825.1088,N,00428.3982,W,2.37,352.33,060116,,,D*7F
 
$GPVTG,352.33,T,,M,2.37,N,4.4,K,D*0A
 
$GPGGA,103131.000,4825.1095,N,00428.3982,W,2,11,0.8,102.7,M,52.0,M,2.8,0000*6B
 
$GPGSA,A,3,03,32,06,09,31,23,17,01,11,12,19,,1.5,0.8,1.3*3E
 
$GPRMC,103131.000,A,4825.1095,N,00428.3982,W,2.13,2.04,060116,,,D*76
 
$GPVTG,2.04,T,,M,2.13,N,3.9,K,D*04
 
$GPGGA,103132.000,4825.1101,N,00428.3980,W,2,11,0.8,102.2,M,52.0,M,1.8,0000*60
 
$GPGSA,A,3,03,32,06,09,31,23,17,01,11,12,19,,1.5,0.8,1.3*3E
 
$GPGSV,3,1,12,32,20,073,34,03,56,067,46,06,36,303,40,09,36,198,43*77
 
$GPGSV,3,2,12,31,15,042,41,01,30,129,44,17,45,241,41,23,66,155,45*72
 
$GPGSV,3,3,12,11,12,146,32,19,44,225,42,12,05,325,43,49,33,167,46*7A
 
$GPRMC,103132.000,A,4825.1101,N,00428.3980,W,1.83,19.18,060116,,,D*46
 
$GPVTG,19.18,T,,M,1.83,N,3.4,K,D*34
 
$GPGGA,103133.000,4825.1107,N,00428.3975,W,2,11,0.8,102.0,M,52.0,M,2.8,0000*6C
 
$GPGSA,A,3,03,32,06,09,31,23,17,01,11,12,19,,1.5,0.8,1.3*3E
 
$GPRMC,103133.000,A,4825.1107,N,00428.3975,W,2.21,38.75,060116,,,D*48
 
$GPVTG,38.75,T,,M,2.21,N,4.1,K,D*35
 
$GPGGA,103134.000,4825.1112,N,00428.3968,W,2,11,0.8,101.9,M,52.0,M,1.8,0000*6A
 
$GPGSA,A,3,03,32,06,09,31,23,17,01,11,12,19,,1.5,0.8,1.3*3E
 
$GPRMC,103134.000,A,4825.1112,N,00428.3968,W,2.16,52.13,060116,,,D*4F
 
$GPVTG,52.13,T,,M,2.16,N,4.0,K,D*3C
 
$GPGGA,103135.000,4825.1117,N,00428.3961,W,2,11,0.8,101.7,M,52.0,M,1.8,0000*69
 
$GPGSA,A,3,03,32,06,09,31,23,17,01,11,12,19,,1.5,0.8,1.3*3E
 
$GPGSV,3,1,12,32,20,073,31,03,56,067,42,06,36,303,40,09,36,198,34*76
 
$GPGSV,3,2,12,31,15,042,46,01,30,129,42,17,45,241,36,23,66,155,45*73
 
$GPGSV,3,3,12,11,12,146,32,19,44,225,35,12,05,325,42,49,33,167,40*7D
 
$GPRMC,103135.000,A,4825.1117,N,00428.3961,W,1.51,36.52,060116,,,D*45
 
$GPVTG,36.52,T,,M,1.51,N,2.8,K,D*35
 
$GPGGA,103136.000,4825.1122,N,00428.3955,W,2,11,0.8,101.6,M,52.0,M,1.8,0000*6A
 
$GPGSA,A,3,03,32,06,09,31,23,17,01,11,12,19,,1.5,0.8,1.3*3E
 
$GPRMC,103136.000,A,4825.1122,N,00428.3955,W,2.49,36.07,060116,,,D*4D
 
$GPVTG,36.07,T,,M,2.49,N,4.6,K,D*37
 
$GPGGA,103137.000,4825.1129,N,00428.3947,W,2,11,0.8,101.6,M,52.0,M,2.8,0000*60
 
$GPGSA,A,3,03,32,06,09,31,23,17,01,11,12,19,,1.5,0.8,1.3*3E
 
$GPRMC,103137.000,A,4825.1129,N,00428.3947,W,2.77,41.24,060116,,,D*48
 
$GPVTG,41.24,T,,M,2.77,N,5.1,K,D*3D
 
$GPGGA,103138.000,4825.1135,N,00428.3938,W,2,11,0.8,101.6,M,52.0,M,1.8,0000*69
 
$GPGSA,A,3,03,32,06,09,31,23,17,01,11,12,19,,1.5,0.8,1.3*3E
 
$GPGSV,3,1,12,32,19,073,30,03,56,067,43,06,36,303,39,09,36,198,34*72
 
$GPGSV,3,2,12,31,15,041,45,01,30,130,45,17,45,240,36,23,66,154,45*7C
 
$GPGSV,3,3,12,11,11,146,28,19,44,225,35,12,04,325,42,49,33,167,44*70
 
$GPRMC,103138.000,A,4825.1135,N,00428.3938,W,2.90,45.59,060116,,,D*45
 
$GPVTG,45.59,T,,M,2.90,N,5.4,K,D*3F
 
$GPGGA,103139.000,4825.1142,N,00428.3929,W,2,11,0.8,101.5,M,52.0,M,1.8,0000*6B
 
$GPGSA,A,3,03,32,06,09,31,23,17,01,11,12,19,,1.5,0.8,1.3*3E
 
$GPRMC,103139.000,A,4825.1142,N,00428.3929,W,2.76,35.50,060116,,,D*42
 
$GPVTG,35.50,T,,M,2.76,N,5.1,K,D*3C
 
$GPGGA,103140.000,4825.1148,N,00428.3922,W,2,11,0.8,101.4,M,52.0,M,1.8,0000*65
 
$GPGSA,A,3,03,32,06,09,31,23,17,01,11,12,19,,1.5,0.8,1.3*3E
 
$GPRMC,103140.000,A,4825.1148,N,00428.3922,W,2.86,37.69,060116,,,D*4A
 
$GPVTG,37.69,T,,M,2.86,N,5.3,K,D*39
 
$GPGGA,103141.000,4825.1155,N,00428.3915,W,2,11,0.8,101.3,M,52.0,M,2.8,0000*68
 
$GPGSA,A,3,03,32,06,09,31,23,17,01,11,12,19,,1.5,0.8,1.3*3E
 
$GPGSV,3,1,12,32,19,073,29,03,56,067,43,06,36,303,40,09,36,198,35*75
 
$GPGSV,3,2,12,31,15,041,37,01,30,130,47,17,45,240,36,23,66,154,46*78
 
$GPGSV,3,3,12,11,11,146,25,19,44,225,35,12,04,325,37,49,33,167,44*7F
 
$GPRMC,103141.000,A,4825.1155,N,00428.3915,W,2.66,36.92,060116,,,D*48
 
$GPVTG,36.92,T,,M,2.66,N,4.9,K,D*39
 
$GPGGA,103142.000,4825.1162,N,00428.3906,W,2,11,0.8,101.2,M,52.0,M,1.8,0000*6F
 
$GPGSA,A,3,03,32,06,09,31,23,17,01,11,12,19,,1.5,0.8,1.3*3E
 
$GPRMC,103142.000,A,4825.1162,N,00428.3906,W,2.86,42.09,060116,,,D*42
 
$GPVTG,42.09,T,,M,2.86,N,5.3,K,D*3D
 
$GPGGA,103143.000,4825.1168,N,00428.3898,W,2,11,0.8,101.1,M,52.0,M,1.8,0000*61
 
$GPGSA,A,3,03,32,06,09,31,23,17,01,11,12,19,,1.5,0.8,1.3*3E
 
$GPRMC,103143.000,A,4825.1168,N,00428.3898,W,2.80,46.11,060116,,,D*44
 
$GPVTG,46.11,T,,M,2.80,N,5.2,K,D*37
 
$GPGGA,103144.000,4825.1174,N,00428.3890,W,2,11,0.8,101.0,M,52.0,M,1.8,0000*62
 
$GPGSA,A,3,03,32,06,09,31,23,17,01,11,12,19,,1.5,0.8,1.3*3E
 
$GPGSV,3,1,12,32,19,073,45,03,56,067,43,06,36,303,40,09,36,198,35*7F
 
$GPGSV,3,2,12,31,15,041,32,01,30,130,37,17,45,240,35,23,66,154,46*79
 
$GPGSV,3,3,12,11,11,146,22,19,44,225,36,12,04,325,38,49,33,167,44*74
 
$GPRMC,103144.000,A,4825.1174,N,00428.3890,W,2.72,38.73,060116,,,D*46
 
$GPVTG,38.73,T,,M,2.72,N,5.0,K,D*35
 
$GPGGA,103145.000,4825.1180,N,00428.3883,W,2,11,0.8,101.0,M,52.0,M,2.8,0000*69
 
$GPGSA,A,3,03,32,06,09,31,23,17,01,11,12,19,,1.5,0.8,1.3*3E
 
$GPRMC,103145.000,A,4825.1180,N,00428.3883,W,2.67,45.51,060116,,,D*40
 
$GPVTG,45.51,T,,M,2.67,N,4.9,K,D*33
 
$GPGGA,103146.000,4825.1186,N,00428.3874,W,2,11,0.8,100.9,M,52.0,M,1.8,0000*6F
 
$GPGSA,A,3,03,32,06,09,31,23,17,01,11,12,19,,1.5,0.8,1.3*3E
 
$GPRMC,103146.000,A,4825.1186,N,00428.3874,W,2.65,49.06,060116,,,D*41
 
$GPVTG,49.06,T,,M,2.65,N,4.9,K,D*3F
 
$GPGGA,103147.000,4825.1191,N,00428.3865,W,2,11,0.8,100.7,M,52.0,M,1.8,0000*66
 
$GPGSA,A,3,03,32,06,09,31,23,17,01,11,12,19,,1.5,0.8,1.3*3E
 
$GPGSV,3,1,12,32,19,073,44,03,56,067,43,06,36,303,40,09,36,198,40*7C
 
$GPGSV,3,2,12,31,15,041,32,01,30,130,29,17,45,240,36,23,66,154,46*75
 
$GPGSV,3,3,12,11,11,146,22,19,44,225,36,12,04,325,38,49,33,167,45*75
 
$GPRMC,103147.000,A,4825.1191,N,00428.3865,W,2.70,48.97,060116,,,D*4B
 
$GPVTG,48.97,T,,M,2.70,N,5.0,K,D*3A
 
$GPGGA,103148.000,4825.1196,N,00428.3856,W,2,11,0.8,100.6,M,52.0,M,1.8,0000*6F
 
$GPGSA,A,3,03,32,06,09,31,23,17,01,11,12,19,,1.5,0.8,1.3*3E
 
$GPRMC,103148.000,A,4825.1196,N,00428.3856,W,2.63,55.01,060116,,,D*42
 
$GPVTG,55.01,T,,M,2.63,N,4.9,K,D*33
 
$GPGGA,103149.000,4825.1200,N,00428.3847,W,2,11,0.8,100.3,M,52.0,M,2.8,0000*64
 
$GPGSA,A,3,03,32,06,09,31,23,17,01,11,12,19,,1.5,0.8,1.3*3E
 
$GPRMC,103149.000,A,4825.1200,N,00428.3847,W,2.65,62.86,060116,,,D*42
 
$GPVTG,62.86,T,,M,2.65,N,4.9,K,D*3E
 
$GPGGA,103150.000,4825.1203,N,00428.3836,W,2,11,0.8,100.1,M,52.0,M,1.8,0000*68
 
$GPGSA,A,3,03,32,06,09,31,23,17,01,11,12,19,,1.5,0.8,1.3*3E
 
$GPGSV,3,1,12,32,19,073,39,03,56,067,42,06,36,303,40,09,36,198,42*75
 
$GPGSV,3,2,12,31,15,041,32,01,30,130,29,17,45,240,40,23,66,154,46*74
 
$GPGSV,3,3,12,11,11,146,22,19,44,225,42,12,04,325,37,49,33,167,46*7A
 
$GPRMC,103150.000,A,4825.1203,N,00428.3836,W,2.85,69.44,060116,,,D*44
 
$GPVTG,69.44,T,,M,2.85,N,5.3,K,D*3E
 
$GPGGA,103151.000,4825.1204,N,00428.3826,W,2,11,0.8,99.9,M,52.0,M,1.8,0000*56
 
$GPGSA,A,3,03,32,06,09,31,23,17,01,11,12,19,,1.5,0.8,1.3*3E
 
$GPRMC,103151.000,A,4825.1204,N,00428.3826,W,2.11,91.68,060116,,,D*47
 
$GPVTG,91.68,T,,M,2.11,N,3.9,K,D*36
 
$GPGGA,103152.000,4825.1204,N,00428.3816,W,2,11,0.8,99.7,M,52.0,M,1.8,0000*58
 
$GPGSA,A,3,03,32,06,09,31,23,17,01,11,12,19,,1.5,0.8,1.3*3E
 
$GPRMC,103152.000,A,4825.1204,N,00428.3816,W,2.61,71.16,060116,,,D*47
 
$GPVTG,71.16,T,,M,2.61,N,4.8,K,D*30
 
$GPGGA,103153.000,4825.1207,N,00428.3805,W,2,11,0.8,99.3,M,52.0,M,2.8,0000*5F
 
$GPGSA,A,3,03,32,06,09,31,23,17,01,11,12,19,,1.5,0.8,1.3*3E
 
$GPGSV,3,1,12,32,19,073,32,03,56,067,43,06,36,303,31,09,36,198,43*78
 
$GPGSV,3,2,12,31,15,041,32,01,30,130,32,17,45,240,29,23,66,154,45*72
 
$GPGSV,3,3,12,11,11,146,24,19,44,225,33,12,04,325,30,49,33,167,29*74
 
$GPRMC,103153.000,A,4825.1207,N,00428.3805,W,2.81,71.92,060116,,,D*45
 
$GPVTG,71.92,T,,M,2.81,N,5.2,K,D*39
 
$GPGGA,103154.000,4825.1210,N,00428.3796,W,2,11,0.8,99.5,M,52.0,M,3.8,0000*5C
 
$GPGSA,A,3,03,32,06,09,31,23,17,01,11,12,19,,1.5,0.8,1.3*3E
 
$GPRMC,103154.000,A,4825.1210,N,00428.3796,W,2.77,75.68,060116,,,D*49
 
$GPVTG,75.68,T,,M,2.77,N,5.1,K,D*32
 
$GPGGA,103155.000,4825.1213,N,00428.3786,W,2,11,0.8,99.8,M,52.0,M,4.8,0000*55
 
$GPGSA,A,3,03,32,06,09,31,23,17,01,11,12,19,,1.5,0.8,1.3*3E
 
$GPRMC,103155.000,A,4825.1213,N,00428.3786,W,2.85,75.39,060116,,,D*43
 
$GPVTG,75.39,T,,M,2.85,N,5.3,K,D*39
 
$GPGGA,103156.000,4825.1215,N,00428.3776,W,2,11,0.8,100.1,M,52.0,M,5.8,0000*66
 
$GPGSA,A,3,03,32,06,09,31,23,17,01,11,12,19,,1.5,0.8,1.3*3E
 
$GPGSV,3,1,12,32,19,073,32,03,56,067,42,06,36,303,32,09,36,198,34*7A
 
$GPGSV,3,2,12,31,15,041,27,01,30,130,35,17,45,240,39,23,66,154,45*70
 
$GPGSV,3,3,12,11,11,146,24,19,44,225,43,12,04,325,29,49,33,167,29*7B
 
$GPRMC,103156.000,A,4825.1215,N,00428.3776,W,2.89,77.59,060116,,,D*41
 
$GPVTG,77.59,T,,M,2.89,N,5.4,K,D*36
 
