$GPGGA,161346.00,4825.1489,N,00428.4577,W,1,22,0.542,140.317,M,,M,0,*54
 
$GNGSA,A,3,2,6,10,12,14,15,19,24,25,29,32,208,212,214,65,72,73,74,75,83,1.043,0.542,0.890*18
 
$GPGSA,A,3,2,6,10,12,14,15,19,24,25,29,32,,,,,,,,,,1.043,0.542,0.890*32
 
$GLGSA,A,3,65,72,73,74,75,83,84,85,,,,,,,,,,,,,1.043,0.542,0.890*23
 
$BDGSA,A,3,208,212,214,,,,,,,,,,,,,,,,,,1.043,0.542,0.890*1B
 
$QZGSA,A,3,,,,,,,,,,,,,,,,,,,,,1.043,0.542,0.890*2A
 
$GPGSV,9,1,28,2,6,109,36,4,5,,,6,10,73,24,10,10,255,36*41
 
$GPGSV,9,2,28,12,82,36,36,14,23,314,31,15,9,166,32,17,7,32,16*7B
 
$GPGSV,9,3,28,19,22,43,26,24,56,108,33,25,50,247,38,29,7,187,37*70
 
$GPGSV,9,4,28,32,43,296,33*45
 
$GLGSV,9,5,28,65,36,289,35,66,10,343,12,72,26,231,22,73,22,80,28*51
 
$GLGSV,9,6,28,74,66,10,31,75,33,290,36,83,35,49,24,84,36,121,34*66
 
$GLGSV,9,7,28,85,5,163,32*6C
 
$BDGSV,9,8,28,205,10,109,23,208,16,29,17,211,5,,,212,11,176,26*5E
 
$BDGSV,9,9,28,213,5,,27,214,17,239,25*6C
 
$GPRMC,161346.00,A,4825.1489,N,00428.4577,W,2.288,252.205,040317,,E,A*0D
 
$GPGGA,161354.00,4825.1463,N,00428.4637,W,1,23,0.535,137.906,M,,M,0,*5F
 
$GNGSA,A,3,2,6,10,12,14,15,19,24,25,29,32,205,208,212,214,65,72,73,74,75,1.033,0.535,0.884*26
 
$GPGSA,A,3,2,6,10,12,14,15,19,24,25,29,32,,,,,,,,,,1.033,0.535,0.884*30
 
$GLGSA,A,3,65,72,73,74,75,83,84,85,,,,,,,,,,,,,1.033,0.535,0.884*21
 
$BDGSA,A,3,205,208,212,214,,,,,,,,,,,,,,,,,1.033,0.535,0.884*2E
 
$QZGSA,A,3,,,,,,,,,,,,,,,,,,,,,1.033,0.535,0.884*28
 
$GPGSV,9,1,28,2,6,109,33,4,5,,,6,10,73,29,10,10,255,34*4B
 
$GPGSV,9,2,28,12,82,37,37,14,23,314,33,15,9,166,26,17,7,32,22*7B
 
$GPGSV,9,3,28,19,22,43,34,24,56,108,34,25,50,247,40,29,7,187,31*7D
 
$GPGSV,9,4,28,32,43,296,38*4E
 
$GLGSV,9,5,28,65,36,289,35,66,10,343,30,72,26,231,27,73,22,80,23*5F
 
$GLGSV,9,6,28,74,66,11,34,75,33,290,40,83,35,49,35,84,36,121,24*62
 
$GLGSV,9,7,28,85,5,163,20*6F
 
$BDGSV,9,8,28,205,10,109,24,207,5,,,208,16,29,27,212,11,176,32*58
 
$BDGSV,9,9,28,213,5,,27,214,17,239,30*68
 
$GPRMC,161354.00,A,4825.1463,N,00428.4637,W,1.462,230.157,040317,,E,A*0C
 
$GPGGA,161355.00,4825.1462,N,00428.4639,W,1,23,0.535,137.665,M,,M,0,*5B
 
$GNGSA,A,3,2,6,10,12,14,15,19,24,25,29,32,205,208,212,214,65,72,73,74,75,1.033,0.535,0.884*26
 
$GPGSA,A,3,2,6,10,12,14,15,19,24,25,29,32,,,,,,,,,,1.033,0.535,0.884*30
 
$GLGSA,A,3,65,72,73,74,75,83,84,85,,,,,,,,,,,,,1.033,0.535,0.884*21
 
$BDGSA,A,3,205,208,212,214,,,,,,,,,,,,,,,,,1.033,0.535,0.884*2E
 
$QZGSA,A,3,,,,,,,,,,,,,,,,,,,,,1.033,0.535,0.884*28
 
$GPGSV,9,1,28,2,6,109,33,4,5,,,6,10,73,29,10,10,255,31*4E
 
$GPGSV,9,2,28,12,82,37,38,14,23,314,28,15,9,166,25,17,7,32,20*7F
 
$GPGSV,9,3,28,19,22,43,30,24,56,108,37,25,50,247,42,29,7,187,27*7F
 
$GPGSV,9,4,28,32,43,296,35*43
 
$GLGSV,9,5,28,65,36,289,33,66,10,343,31,72,26,231,24,73,22,80,29*51
 
$GLGSV,9,6,28,74,66,11,33,75,33,290,37,83,35,49,32,84,36,121,27*61
 
$GLGSV,9,7,28,85,5,163,24*6B
 
$BDGSV,9,8,28,205,10,109,24,207,5,,,208,16,29,29,212,11,176,33*57
 
$BDGSV,9,9,28,213,5,,26,214,17,239,24*6C
 
$GPRMC,161355.00,A,4825.1462,N,00428.4639,W,1.414,234.405,040317,,E,A*05
 
$GPGGA,161356.00,4825.1462,N,00428.4644,W,1,23,0.535,137.497,M,,M,0,*5D
 
$GNGSA,A,3,2,6,10,12,14,15,19,24,25,29,32,205,208,212,214,65,72,73,74,75,1.033,0.535,0.884*26
 
$GPGSA,A,3,2,6,10,12,14,15,19,24,25,29,32,,,,,,,,,,1.033,0.535,0.884*30
 
$GLGSA,A,3,65,72,73,74,75,83,84,85,,,,,,,,,,,,,1.033,0.535,0.884*21
 
$BDGSA,A,3,205,208,212,214,,,,,,,,,,,,,,,,,1.033,0.535,0.884*2E
 
$QZGSA,A,3,,,,,,,,,,,,,,,,,,,,,1.033,0.535,0.884*28
 
$GPGSV,9,1,29,2,6,109,34,4,5,,,6,10,73,26,10,10,255,31*47
 
$GPGSV,9,2,29,12,82,37,33,14,23,314,30,15,9,166,26,17,7,32,21*7E
 
$GPGSV,9,3,29,19,22,43,26,24,56,108,33,25,50,247,39,29,7,187,25*73
 
$GPGSV,9,4,29,32,43,296,34*43
 
$GLGSV,9,5,29,65,36,289,32,66,10,343,32,72,26,231,25,73,22,80,30*5B
 
$GLGSV,9,6,29,74,66,11,27,75,33,290,37,83,35,49,27,84,37,121,26*61
 
$GLGSV,9,7,29,85,5,163,24*6A
 
$BDGSV,9,8,29,205,10,109,24,207,5,,,208,16,29,28,211,5,,*51
 
$BDGSV,9,9,29,212,11,176,31,213,5,,22,214,17,239,22*6C
 
$GPRMC,161356.00,A,4825.1462,N,00428.4644,W,1.578,258.000,040317,,E,A*0C
 
$GPGGA,161357.00,4825.1461,N,00428.4649,W,1,23,0.535,137.419,M,,M,0,*54
 
$GNGSA,A,3,2,6,10,12,14,15,19,24,25,29,32,205,208,212,214,65,72,73,74,75,1.033,0.535,0.884*26
 
$GPGSA,A,3,2,6,10,12,14,15,19,24,25,29,32,,,,,,,,,,1.033,0.535,0.884*30
 
$GLGSA,A,3,65,72,73,74,75,83,84,85,,,,,,,,,,,,,1.033,0.535,0.884*21
 
$BDGSA,A,3,205,208,212,214,,,,,,,,,,,,,,,,,1.033,0.535,0.884*2E
 
$QZGSA,A,3,,,,,,,,,,,,,,,,,,,,,1.033,0.535,0.884*28
 
$GPGSV,9,1,29,2,6,109,32,4,5,,,6,10,73,29,10,10,255,26*48
 
$GPGSV,9,2,29,12,82,37,31,14,23,314,28,15,9,166,27,17,7,32,19*7F
 
$GPGSV,9,3,29,19,22,43,22,24,56,108,35,25,50,247,37,29,7,187,32*79
 
$GPGSV,9,4,29,32,43,296,34*43
 
$GLGSV,9,5,29,65,36,289,33,66,10,343,34,72,26,231,31,73,22,80,31*58
 
$GLGSV,9,6,29,74,66,11,27,75,33,290,33,83,35,49,27,84,37,121,30*62
 
$GLGSV,9,7,29,85,5,163,23*6D
 
$BDGSV,9,8,29,205,10,109,24,207,5,,,208,16,29,27,211,5,,*5E
 
$BDGSV,9,9,29,212,11,176,29,213,5,,26,214,17,239,21*62
 
$GPRMC,161357.00,A,4825.1461,N,00428.4649,W,1.840,241.784,040317,,E,A*06
 
$GPGGA,161358.00,4825.1458,N,00428.4655,W,1,23,0.535,137.454,M,,M,0,*55
 
$GNGSA,A,3,2,6,10,12,14,15,19,24,25,29,32,205,208,212,214,65,72,73,74,75,1.033,0.535,0.884*26
 
$GPGSA,A,3,2,6,10,12,14,15,19,24,25,29,32,,,,,,,,,,1.033,0.535,0.884*30
 
$GLGSA,A,3,65,72,73,74,75,83,84,85,,,,,,,,,,,,,1.033,0.535,0.884*21
 
$BDGSA,A,3,205,208,212,214,,,,,,,,,,,,,,,,,1.033,0.535,0.884*2E
 
$QZGSA,A,3,,,,,,,,,,,,,,,,,,,,,1.033,0.535,0.884*28
 
$GPGSV,9,1,29,2,6,109,26,4,5,,,6,10,73,24,10,10,255,32*45
 
$GPGSV,9,2,29,12,82,37,31,14,23,314,32,15,9,166,31,17,7,32,21*78
 
$GPGSV,9,3,29,19,22,43,24,24,56,108,32,25,50,247,39,29,7,187,31*75
 
$GPGSV,9,4,29,32,43,296,31*46
 
$GLGSV,9,5,29,65,36,289,36,66,10,343,35,72,26,231,27,73,22,80,36*5C
 
$GLGSV,9,6,29,74,66,11,29,75,33,290,34,83,35,49,26,84,37,121,29*62
 
$GLGSV,9,7,29,85,5,163,25*6B
 
$BDGSV,9,8,29,205,10,109,23,207,5,,,208,16,29,28,211,5,,*56
 
$BDGSV,9,9,29,212,11,176,25,213,5,,30,214,17,239,25*6D
 
$GPRMC,161358.00,A,4825.1458,N,00428.4655,W,2.551,229.681,040317,,E,A*0A
 
$GPGGA,161359.00,4825.1450,N,00428.4662,W,1,23,0.534,137.721,M,,M,0,*58
 
$GNGSA,A,3,2,6,10,12,14,15,19,24,25,29,32,205,208,212,214,65,72,73,74,75,1.033,0.534,0.884*27
 
$GPGSA,A,3,2,6,10,12,14,15,19,24,25,29,32,,,,,,,,,,1.033,0.534,0.884*31
 
$GLGSA,A,3,65,72,73,74,75,83,84,85,,,,,,,,,,,,,1.033,0.534,0.884*20
 
$BDGSA,A,3,205,208,212,214,,,,,,,,,,,,,,,,,1.033,0.534,0.884*2F
 
$QZGSA,A,3,,,,,,,,,,,,,,,,,,,,,1.033,0.534,0.884*29
 
$GPGSV,9,1,29,2,6,109,28,4,5,,,6,10,73,29,10,10,255,32*46
 
$GPGSV,9,2,29,12,82,37,28,14,23,314,37,15,9,166,31,17,7,32,21*75
 
$GPGSV,9,3,29,19,22,43,24,24,56,108,34,25,50,247,39,29,7,187,34*76
 
$GPGSV,9,4,29,32,43,296,33*44
 
$GLGSV,9,5,29,65,36,289,33,66,10,343,36,72,26,231,32,73,22,80,36*5E
 
$GLGSV,9,6,29,74,66,11,29,75,33,290,38,83,35,49,27,84,37,121,28*6E
 
$GLGSV,9,7,29,85,5,163,23*6D
 
$BDGSV,9,8,29,205,10,109,23,207,5,,,208,16,29,27,211,5,,*59
 
$BDGSV,9,9,29,212,11,176,23,213,5,,29,214,17,239,24*62
 
$GPRMC,161359.00,A,4825.1450,N,00428.4662,W,3.006,222.800,040317,,E,A*0D
 
$GPGGA,161400.00,4825.1443,N,00428.4670,W,1,23,0.534,137.929,M,,M,0,*54
 
$GNGSA,A,3,2,6,10,12,14,15,19,24,25,29,32,205,208,212,214,65,72,73,74,75,1.033,0.534,0.884*27
 
$GPGSA,A,3,2,6,10,12,14,15,19,24,25,29,32,,,,,,,,,,1.033,0.534,0.884*31
 
$GLGSA,A,3,65,72,73,74,75,83,84,85,,,,,,,,,,,,,1.033,0.534,0.884*20
 
$BDGSA,A,3,205,208,212,214,,,,,,,,,,,,,,,,,1.033,0.534,0.884*2F
 
$QZGSA,A,3,,,,,,,,,,,,,,,,,,,,,1.033,0.534,0.884*29
 
$GPGSV,9,1,29,2,6,109,28,4,5,,,6,10,73,26,10,10,255,34*4F
 
$GPGSV,9,2,29,12,82,37,31,14,23,314,36,15,9,166,29,17,7,32,19*7E
 
$GPGSV,9,3,29,19,22,43,24,24,56,108,34,25,50,247,37,29,7,187,31*7D
 
$GPGSV,9,4,29,32,43,296,33*44
 
$GLGSV,9,5,29,65,36,289,33,66,10,343,36,72,26,231,31,73,22,80,35*5E
 
$GLGSV,9,6,29,74,66,11,29,75,33,290,35,83,35,49,27,84,37,121,28*63
 
$GLGSV,9,7,29,85,5,163,28*66
 
$BDGSV,9,8,29,205,10,109,22,207,5,,,208,16,29,28,211,5,,*57
 
$BDGSV,9,9,29,212,11,176,28,213,5,,26,214,17,239,25*67
 
$GPRMC,161400.00,A,4825.1443,N,00428.4670,W,3.356,214.954,040317,,E,A*04
 
$GPGGA,161401.00,4825.1433,N,00428.4679,W,1,24,0.505,138.103,M,,M,0,*51
 
$GNGSA,A,3,2,6,10,12,14,15,17,19,24,25,29,32,205,208,212,214,65,72,73,74,0.972,0.505,0.830*23
 
$GPGSA,A,3,2,6,10,12,14,15,17,19,24,25,29,32,,,,,,,,,0.972,0.505,0.830*37
 
$GLGSA,A,3,65,72,73,74,75,83,84,85,,,,,,,,,,,,,0.972,0.505,0.830*20
 
$BDGSA,A,3,205,208,212,214,,,,,,,,,,,,,,,,,0.972,0.505,0.830*2F
 
$QZGSA,A,3,,,,,,,,,,,,,,,,,,,,,0.972,0.505,0.830*29
 
$GPGSV,9,1,29,2,6,109,26,4,5,,,6,10,73,26,10,10,255,32*47
 
$GPGSV,9,2,29,12,82,37,31,14,23,314,35,15,9,166,31,17,7,32,18*75
 
$GPGSV,9,3,29,19,22,43,27,24,56,108,34,25,50,247,38,29,7,187,33*73
 
$GPGSV,9,4,29,32,43,296,33*44
 
$GLGSV,9,5,29,65,36,289,30,66,10,343,36,72,26,231,31,73,22,80,34*5C
 
$GLGSV,9,6,29,74,66,11,28,75,33,290,36,83,35,49,27,84,37,121,29*60
 
$GLGSV,9,7,29,85,5,163,23*6D
 
$BDGSV,9,8,29,205,10,109,22,207,5,,,208,16,29,20,211,5,,*5F
 
$BDGSV,9,9,29,212,11,176,21,213,5,,23,214,17,239,23*6D
 
$GPRMC,161401.00,A,4825.1433,N,00428.4679,W,3.469,216.711,040317,,E,A*0D
 
$GPGGA,161402.00,4825.1421,N,00428.4688,W,1,24,0.505,138.213,M,,M,0,*5D
 
$GNGSA,A,3,2,6,10,12,14,15,17,19,24,25,29,32,205,208,212,214,65,72,73,74,0.972,0.505,0.830*23
 
$GPGSA,A,3,2,6,10,12,14,15,17,19,24,25,29,32,,,,,,,,,0.972,0.505,0.830*37
 
$GLGSA,A,3,65,72,73,74,75,83,84,85,,,,,,,,,,,,,0.972,0.505,0.830*20
 
$BDGSA,A,3,205,208,212,214,,,,,,,,,,,,,,,,,0.972,0.505,0.830*2F
 
$QZGSA,A,3,,,,,,,,,,,,,,,,,,,,,0.972,0.505,0.830*29
 
$GPGSV,9,1,29,2,6,109,23,4,5,,,6,10,73,27,10,10,255,31*40
 
$GPGSV,9,2,29,12,82,37,29,14,23,314,37,15,9,166,32,17,7,32,19*7C
 
$GPGSV,9,3,29,19,22,43,26,24,56,108,37,25,50,247,40,29,7,187,34*79
 
$GPGSV,9,4,29,32,43,296,36*41
 
$GLGSV,9,5,29,65,36,289,29,66,10,343,36,72,26,231,28,73,22,80,34*5C
 
$GLGSV,9,6,29,74,66,11,31,75,33,290,36,83,35,49,27,84,37,121,29*68
 
$GLGSV,9,7,29,85,5,163,26*68
 
$BDGSV,9,8,29,205,10,109,21,207,5,,,208,16,29,21,211,5,,*5D
 
$BDGSV,9,9,29,212,11,176,22,213,5,,24,214,17,239,28*62
 
$GPRMC,161402.00,A,4825.1421,N,00428.4688,W,3.392,217.745,040317,,E,A*00
 
$GPGGA,161403.00,4825.1410,N,00428.4698,W,1,24,0.505,138.189,M,,M,0,*5F
 
$GNGSA,A,3,2,6,10,12,14,15,17,19,24,25,29,32,205,208,212,214,65,72,73,74,0.972,0.505,0.830*23
 
$GPGSA,A,3,2,6,10,12,14,15,17,19,24,25,29,32,,,,,,,,,0.972,0.505,0.830*37
 
$GLGSA,A,3,65,72,73,74,75,83,84,85,,,,,,,,,,,,,0.972,0.505,0.830*20
 
$BDGSA,A,3,205,208,212,214,,,,,,,,,,,,,,,,,0.972,0.505,0.830*2F
 
$QZGSA,A,3,,,,,,,,,,,,,,,,,,,,,0.972,0.505,0.830*29
 
$GPGSV,9,1,29,2,6,109,26,4,5,,,6,10,73,29,10,10,255,34*4E
 
$GPGSV,9,2,29,12,82,37,31,14,23,314,38,15,9,166,30,17,7,32,22*70
 
$GPGSV,9,3,29,19,22,43,30,24,56,108,33,25,50,247,40,29,7,187,33*7D
 
$GPGSV,9,4,29,32,43,296,35*42
 
$GLGSV,9,5,29,65,36,289,30,66,10,343,37,72,26,231,30,73,22,80,35*5D
 
$GLGSV,9,6,29,74,66,11,32,75,33,290,37,83,35,49,29,84,37,121,29*64
 
$GLGSV,9,7,29,85,5,163,22*6C
 
$BDGSV,9,8,29,205,10,109,21,207,5,,,208,16,29,24,211,5,,*58
 
$BDGSV,9,9,29,212,11,176,24,213,5,,29,214,17,239,24*65
 
$GPRMC,161403.00,A,4825.1410,N,00428.4698,W,3.431,214.106,040317,,E,A*0E
 
$GPGGA,161404.00,4825.1399,N,00428.4702,W,1,24,0.505,138.210,M,,M,0,*5F
 
$GNGSA,A,3,2,6,10,12,14,15,17,19,24,25,29,32,205,208,212,214,65,72,73,74,0.972,0.505,0.830*23
 
$GPGSA,A,3,2,6,10,12,14,15,17,19,24,25,29,32,,,,,,,,,0.972,0.505,0.830*37
 
$GLGSA,A,3,65,72,73,74,75,83,84,85,,,,,,,,,,,,,0.972,0.505,0.830*20
 
$BDGSA,A,3,205,208,212,214,,,,,,,,,,,,,,,,,0.972,0.505,0.830*2F
 
$QZGSA,A,3,,,,,,,,,,,,,,,,,,,,,0.972,0.505,0.830*29
 
$GPGSV,9,1,29,2,6,109,30,4,5,,,6,10,73,29,10,10,255,33*4E
 
$GPGSV,9,2,29,12,82,37,32,14,23,314,37,15,9,166,31,17,7,32,23*7C
 
$GPGSV,9,3,29,19,22,43,29,24,56,108,34,25,50,247,39,29,7,187,34*7B
 
$GPGSV,9,4,29,32,43,296,33*44
 
$GLGSV,9,5,29,65,36,289,30,66,10,343,37,72,26,231,25,73,22,80,35*59
 
$GLGSV,9,6,29,74,66,11,31,75,33,290,37,83,35,49,33,84,37,121,29*6C
 
$GLGSV,9,7,29,85,5,163,22*6C
 
$BDGSV,9,8,29,205,10,109,21,207,5,,,208,16,29,22,211,5,,*5E
 
$BDGSV,9,9,29,212,11,176,28,213,5,,30,214,17,239,25*60
 
$GPRMC,161404.00,A,4825.1399,N,00428.4702,W,3.151,203.956,040317,,E,A*05
 
$GPGGA,161405.00,4825.1388,N,00428.4706,W,1,23,0.514,138.186,M,,M,0,*51
 
$GNGSA,A,3,2,6,10,12,14,15,17,19,24,25,29,32,208,212,214,65,72,73,74,75,0.980,0.514,0.834*1F
 
$GPGSA,A,3,2,6,10,12,14,15,17,19,24,25,29,32,,,,,,,,,0.980,0.514,0.834*3E
 
$GLGSA,A,3,65,72,73,74,75,83,84,85,,,,,,,,,,,,,0.980,0.514,0.834*29
 
