$GPGGA,183340.36,4824.6000,N,00429.9997,W,0,,100.000,164.174,M,,M,0,*54
 
$GNGSA,A,1,,,,,,,,,,,,,,,,,,,,,100.000,100.000,100.000*2F
 
$GPGSA,A,1,,,,,,,,,,,,,,,,,,,,,100.000,100.000,100.000*31
 
$GLGSA,A,1,,,,,,,,,,,,,,,,,,,,,100.000,100.000,100.000*2D
 
$BDGSA,A,1,,,,,,,,,,,,,,,,,,,,,100.000,100.000,100.000*20
 
$QZGSA,A,1,,,,,,,,,,,,,,,,,,,,,100.000,100.000,100.000*2D
 
$GPGSV,5,1,20,2,26,63,,3,5,,,6,7,28,,12,32,75,*41
 
$GPGSV,5,2,20,14,40,260,,22,5,,,24,8,137,,25,74,46,*71
 
$GPGSV,5,3,20,26,10,270,,29,62,185,,31,47,303,,32,31,229,*75
 
$GLGSV,5,4,20,68,16,290,,69,12,340,,76,30,109,,77,74,19,*5E
 
$GLGSV,5,5,20,78,26,309,,86,39,39,,87,63,146,,88,21,187,*5C
 
$GPRMC,183340.36,V,4824.6000,N,00429.9997,W,0.000,0.000,260217,,E,N*14
 
$GPGGA,183349.79,4825.0033,N,00428.2403,W,1,10,1.291,151.151,M,,M,0,*50
 
$GNGSA,A,3,2,12,14,25,26,29,31,32,69,86,,,,,,,,,,,1.991,1.291,1.516*1A
 
$GPGSA,A,3,2,12,14,25,26,29,31,32,,,,,,,,,,,,,1.991,1.291,1.516*05
 
$GLGSA,A,3,69,86,,,,,,,,,,,,,,,,,,,1.991,1.291,1.516*27
 
$BDGSA,A,3,,,,,,,,,,,,,,,,,,,,,1.991,1.291,1.516*2B
 
$QZGSA,A,3,,,,,,,,,,,,,,,,,,,,,1.991,1.291,1.516*26
 
$GPGSV,6,1,23,2,27,63,31,4,5,,,6,7,28,,12,32,75,34*42
 
$GPGSV,6,2,23,14,40,260,24,24,8,137,19,25,74,46,26,26,10,270,19*76
 
$GPGSV,6,3,23,29,63,185,23,31,47,303,30,32,31,229,24*40
 
$GLGSV,6,4,23,68,16,290,27,69,12,340,27,76,30,109,34,77,74,19,*59
 
$GLGSV,6,5,23,78,26,309,20,86,38,39,24,87,63,146,21,88,21,187,*5A
 
$BDGSV,6,6,23,205,10,109,,211,5,,,212,9,205,,213,12,35,*6A
 
$GPRMC,183349.79,A,4825.0033,N,00428.2403,W,1.928,0.000,260217,,E,A*01
 
$GPGGA,183350.79,4825.0015,N,00428.2377,W,1,13,0.898,148.046,M,,M,0,*56
 
$GNGSA,A,3,2,12,14,25,26,29,31,32,68,69,76,78,86,,,,,,,,1.708,0.898,1.453*16
 
$GPGSA,A,3,2,12,14,25,26,29,31,32,,,,,,,,,,,,,1.708,0.898,1.453*09
 
$GLGSA,A,3,68,69,76,78,86,,,,,,,,,,,,,,,,1.708,0.898,1.453*2B
 
$BDGSA,A,3,,,,,,,,,,,,,,,,,,,,,1.708,0.898,1.453*27
 
$QZGSA,A,3,,,,,,,,,,,,,,,,,,,,,1.708,0.898,1.453*2A
 
$GPGSV,6,1,23,2,27,63,28,4,5,,,6,7,28,,12,32,75,37*49
 
$GPGSV,6,2,23,14,40,260,28,24,8,137,17,25,74,46,30,26,10,270,18*72
 
$GPGSV,6,3,23,29,63,185,29,31,47,303,30,32,31,229,28*46
 
$GLGSV,6,4,23,68,16,290,25,69,12,340,23,76,30,109,35,77,74,19,*5E
 
$GLGSV,6,5,23,78,26,309,20,86,38,39,22,87,63,146,22,88,21,187,*5F
 
$BDGSV,6,6,23,205,10,109,,211,5,,,212,9,205,,213,12,35,*6A
 
$GPRMC,183350.79,A,4825.0015,N,00428.2377,W,1.559,0.000,260217,,E,A*03
 
$GPGGA,183352.00,4825.0036,N,00428.2384,W,1,13,0.898,145.034,M,,M,0,*5F
 
$GNGSA,A,3,2,12,14,25,26,29,31,32,68,69,76,78,86,,,,,,,,1.708,0.898,1.453*16
 
$GPGSA,A,3,2,12,14,25,26,29,31,32,,,,,,,,,,,,,1.708,0.898,1.453*09
 
$GLGSA,A,3,68,69,76,78,86,,,,,,,,,,,,,,,,1.708,0.898,1.453*2B
 
$BDGSA,A,3,,,,,,,,,,,,,,,,,,,,,1.708,0.898,1.453*27
 
$QZGSA,A,3,,,,,,,,,,,,,,,,,,,,,1.708,0.898,1.453*2A
 
$GPGSV,6,1,23,2,27,63,28,4,5,,,6,7,28,,12,32,75,35*4B
 
$GPGSV,6,2,23,14,40,260,28,24,8,137,17,25,74,46,29,26,10,270,18*7A
 
$GPGSV,6,3,23,29,63,185,25,31,47,303,33,32,31,229,29*48
 
$GLGSV,6,4,23,68,16,290,27,69,12,339,25,76,30,109,31,77,74,19,*50
 
$GLGSV,6,5,23,78,26,309,21,86,38,39,26,87,63,146,18,88,21,187,24*55
 
$BDGSV,6,6,23,205,10,109,,211,5,,,212,9,205,,213,12,35,*6A
 
$GPRMC,183352.00,A,4825.0036,N,00428.2384,W,1.362,0.000,260217,,E,A*0C
 
$GPGGA,183353.00,4825.0065,N,00428.2377,W,1,11,0.932,177.790,M,,M,0,*5F
 
$GNGSA,A,3,2,12,14,25,26,29,31,32,68,69,76,,,,,,,,,,1.673,0.932,1.390*13
 
$GPGSA,A,3,2,12,14,25,26,29,31,32,,,,,,,,,,,,,1.673,0.932,1.390*0D
 
$GLGSA,A,3,68,69,76,,,,,,,,,,,,,,,,,,1.673,0.932,1.390*2E
 
$BDGSA,A,3,,,,,,,,,,,,,,,,,,,,,1.673,0.932,1.390*23
 
$QZGSA,A,3,,,,,,,,,,,,,,,,,,,,,1.673,0.932,1.390*2E
 
$GPGSV,6,1,23,2,27,63,22,4,5,,,6,7,28,,12,32,75,34*40
 
$GPGSV,6,2,23,14,40,260,30,24,8,137,,25,74,46,24,26,10,270,18*78
 
$GPGSV,6,3,23,29,63,185,26,31,47,303,30,32,31,229,26*47
 
$GLGSV,6,4,23,68,16,290,29,69,12,339,20,76,30,109,29,77,74,19,*52
 
$GLGSV,6,5,23,78,26,309,20,86,38,39,30,87,63,146,22,88,21,187,24*5A
 
$BDGSV,6,6,23,205,10,109,,211,5,,,212,9,205,,213,12,35,*6A
 
$GPRMC,183353.00,A,4825.0065,N,00428.2377,W,1.299,321.081,260217,,E,A*0B
 
$GPGGA,183354.00,4825.0046,N,00428.2382,W,1,12,0.887,173.946,M,,M,0,*5E
 
$GNGSA,A,3,2,12,14,25,26,29,31,32,68,69,76,78,,,,,,,,,1.644,0.887,1.384*12
 
$GPGSA,A,3,2,12,14,25,26,29,31,32,,,,,,,,,,,,,1.644,0.887,1.384*03
 
$GLGSA,A,3,68,69,76,78,,,,,,,,,,,,,,,,,1.644,0.887,1.384*2F
 
$BDGSA,A,3,,,,,,,,,,,,,,,,,,,,,1.644,0.887,1.384*2D
 
$QZGSA,A,3,,,,,,,,,,,,,,,,,,,,,1.644,0.887,1.384*20
 
$GPGSV,6,1,23,2,27,63,27,4,5,,,6,7,28,,12,32,75,28*48
 
$GPGSV,6,2,23,14,40,260,30,24,8,137,,25,74,46,25,26,10,270,17*76
 
$GPGSV,6,3,23,29,63,185,23,31,47,303,30,32,31,229,29*4D
 
$GLGSV,6,4,23,68,16,290,29,69,12,339,25,76,30,109,26,77,74,19,*58
 
$GLGSV,6,5,23,78,26,309,24,86,38,39,31,87,63,146,24,88,21,187,22*5F
 
$BDGSV,6,6,23,205,10,109,,211,5,,,212,9,205,,213,12,35,*6A
 
$GPRMC,183354.00,A,4825.0046,N,00428.2382,W,1.662,330.240,260217,,E,A*08
 
$GPGGA,183355.00,4825.0044,N,00428.2383,W,1,12,0.887,171.180,M,,M,0,*5C
 
$GNGSA,A,3,2,12,14,25,26,29,31,32,68,69,76,78,,,,,,,,,1.644,0.887,1.384*12
 
$GPGSA,A,3,2,12,14,25,26,29,31,32,,,,,,,,,,,,,1.644,0.887,1.384*03
 
$GLGSA,A,3,68,69,76,78,,,,,,,,,,,,,,,,,1.644,0.887,1.384*2F
 
$BDGSA,A,3,,,,,,,,,,,,,,,,,,,,,1.644,0.887,1.384*2D
 
$QZGSA,A,3,,,,,,,,,,,,,,,,,,,,,1.644,0.887,1.384*20
 
$GPGSV,6,1,23,2,27,63,26,4,5,,,6,7,28,21,12,32,75,26*44
 
$GPGSV,6,2,23,14,40,260,31,24,8,137,12,25,74,46,27,26,10,270,17*76
 
$GPGSV,6,3,23,29,63,185,21,31,47,303,30,32,31,229,26*40
 
$GLGSV,6,4,23,68,16,290,30,69,12,339,24,76,30,109,27,77,74,19,*50
 
$GLGSV,6,5,23,78,26,309,23,86,38,39,30,87,63,146,24,88,21,187,18*50
 
$BDGSV,6,6,23,205,10,109,,211,5,,,212,9,205,,213,12,35,*6A
 
$GPRMC,183355.00,A,4825.0044,N,00428.2383,W,1.986,332.715,260217,,E,A*08
 
$GPGGA,183356.00,4825.0050,N,00428.2384,W,1,13,0.750,171.507,M,,M,0,*52
 
$GNGSA,A,3,2,12,14,24,25,26,29,31,32,68,69,76,78,,,,,,,,1.352,0.750,1.125*1A
 
$GPGSA,A,3,2,12,14,24,25,26,29,31,32,,,,,,,,,,,,1.352,0.750,1.125*0B
 
$GLGSA,A,3,68,69,76,78,,,,,,,,,,,,,,,,,1.352,0.750,1.125*21
 
$BDGSA,A,3,,,,,,,,,,,,,,,,,,,,,1.352,0.750,1.125*23
 
$QZGSA,A,3,,,,,,,,,,,,,,,,,,,,,1.352,0.750,1.125*2E
 
$GPGSV,6,1,23,2,27,63,28,4,5,,,6,7,28,14,12,32,75,32*49
 
$GPGSV,6,2,23,14,40,260,27,24,8,137,17,25,74,46,24,26,10,270,17*77
 
$GPGSV,6,3,23,29,63,185,23,31,47,303,34,32,31,229,26*46
 
$GLGSV,6,4,23,68,16,290,29,69,12,339,20,76,30,109,19,77,74,19,26*55
 
$GLGSV,6,5,23,78,26,309,21,86,38,39,32,87,63,146,26,88,21,187,20*59
 
$BDGSV,6,6,23,205,10,109,,211,5,,,212,9,205,,213,12,35,*6A
 
$GPRMC,183356.00,A,4825.0050,N,00428.2384,W,2.342,339.577,260217,,E,A*05
 
$GPGGA,183357.00,4825.0046,N,00428.2384,W,1,15,0.687,166.635,M,,M,0,*5D
 
$GNGSA,A,3,2,6,12,14,24,25,26,29,31,32,68,69,76,77,78,,,,,,1.172,0.687,0.949*24
 
$GPGSA,A,3,2,6,12,14,24,25,26,29,31,32,,,,,,,,,,,1.172,0.687,0.949*35
 
$GLGSA,A,3,68,69,76,77,78,,,,,,,,,,,,,,,,1.172,0.687,0.949*29
 
$BDGSA,A,3,,,,,,,,,,,,,,,,,,,,,1.172,0.687,0.949*2B
 
$QZGSA,A,3,,,,,,,,,,,,,,,,,,,,,1.172,0.687,0.949*26
 
$GPGSV,6,1,23,2,26,63,28,4,5,,,6,7,28,15,12,32,75,30*4B
 
$GPGSV,6,2,23,14,40,260,29,24,8,137,22,25,74,46,28,26,10,270,22*75
 
$GPGSV,6,3,23,29,63,185,22,31,47,303,31,32,31,229,29*4D
 
$GLGSV,6,4,23,68,16,290,27,69,12,339,20,76,30,109,24,77,74,19,27*54
 
$GLGSV,6,5,23,78,26,309,23,86,38,39,33,87,64,146,25,88,21,187,20*5E
 
$BDGSV,6,6,23,205,10,109,,211,5,,,212,9,205,,213,12,35,*6A
 
$GPRMC,183357.00,A,4825.0046,N,00428.2384,W,2.414,344.119,260217,,E,A*01
 
$GPGGA,183358.00,4825.0053,N,00428.2383,W,1,15,0.687,165.429,M,,M,0,*5D
 
$GNGSA,A,3,2,6,12,14,24,25,26,29,31,32,68,69,76,77,78,,,,,,1.172,0.687,0.949*24
 
$GPGSA,A,3,2,6,12,14,24,25,26,29,31,32,,,,,,,,,,,1.172,0.687,0.949*35
 
$GLGSA,A,3,68,69,76,77,78,,,,,,,,,,,,,,,,1.172,0.687,0.949*29
 
$BDGSA,A,3,,,,,,,,,,,,,,,,,,,,,1.172,0.687,0.949*2B
 
$QZGSA,A,3,,,,,,,,,,,,,,,,,,,,,1.172,0.687,0.949*26
 
$GPGSV,6,1,23,2,26,63,29,4,5,,,6,7,28,16,12,32,75,30*49
 
$GPGSV,6,2,23,14,40,260,28,24,8,137,24,25,74,46,34,26,10,270,18*76
 
$GPGSV,6,3,23,29,63,185,20,31,47,303,32,32,31,229,26*43
 
$GLGSV,6,4,23,68,16,290,26,69,12,339,23,76,30,109,31,77,74,19,29*5C
 
$GLGSV,6,5,23,78,26,309,24,86,38,39,33,87,64,146,26,88,21,187,20*5A
 
$BDGSV,6,6,23,205,10,109,,211,5,,,212,9,205,,213,12,35,*6A
 
$GPRMC,183358.00,A,4825.0053,N,00428.2383,W,2.622,343.094,260217,,E,A*09
 
$GPGGA,183359.00,4825.0061,N,00428.2386,W,1,15,0.687,163.423,M,,M,0,*54
 
$GNGSA,A,3,2,6,12,14,24,25,26,29,31,32,68,69,76,77,78,,,,,,1.172,0.687,0.949*24
 
$GPGSA,A,3,2,6,12,14,24,25,26,29,31,32,,,,,,,,,,,1.172,0.687,0.949*35
 
$GLGSA,A,3,68,69,76,77,78,,,,,,,,,,,,,,,,1.172,0.687,0.949*29
 
$BDGSA,A,3,,,,,,,,,,,,,,,,,,,,,1.172,0.687,0.949*2B
 
$QZGSA,A,3,,,,,,,,,,,,,,,,,,,,,1.172,0.687,0.949*26
 
$GPGSV,6,1,23,2,26,63,28,4,5,,,6,7,28,18,12,32,75,32*44
 
$GPGSV,6,2,23,14,40,260,25,24,8,137,25,25,74,46,34,26,10,270,22*73
 
$GPGSV,6,3,23,29,63,185,23,31,47,303,35,32,31,229,29*48
 
$GLGSV,6,4,23,68,16,290,28,69,12,339,27,76,30,109,32,77,74,19,28*54
 
$GLGSV,6,5,23,78,26,309,22,86,38,39,34,87,64,146,26,88,21,187,22*59
 
$BDGSV,6,6,23,205,10,109,,211,5,,,212,9,205,,213,12,35,*6A
 
$GPRMC,183359.00,A,4825.0061,N,00428.2386,W,2.845,342.811,260217,,E,A*07
 
$GPGGA,183400.00,4825.0066,N,00428.2393,W,1,15,0.687,161.789,M,,M,0,*5D
 
$GNGSA,A,3,2,6,12,14,24,25,26,29,31,32,68,69,76,77,78,,,,,,1.171,0.687,0.949*27
 
$GPGSA,A,3,2,6,12,14,24,25,26,29,31,32,,,,,,,,,,,1.171,0.687,0.949*36
 
$GLGSA,A,3,68,69,76,77,78,,,,,,,,,,,,,,,,1.171,0.687,0.949*2A
 
$BDGSA,A,3,,,,,,,,,,,,,,,,,,,,,1.171,0.687,0.949*28
 
$QZGSA,A,3,,,,,,,,,,,,,,,,,,,,,1.171,0.687,0.949*25
 
$GPGSV,6,1,23,2,26,63,24,4,5,,,6,7,28,18,12,32,75,32*48
 
$GPGSV,6,2,23,14,40,260,29,24,8,137,20,25,74,46,31,26,10,270,25*78
 
$GPGSV,6,3,23,29,63,185,24,31,47,303,32,32,31,229,31*41
 
$GLGSV,6,4,23,68,16,290,30,69,12,339,29,76,30,109,30,77,74,19,24*5D
 
$GLGSV,6,5,23,78,26,309,22,86,38,39,32,87,64,146,23,88,21,187,19*52
 
$BDGSV,6,6,23,205,10,109,,211,5,,,212,9,205,,213,12,35,23*6B
 
$GPRMC,183400.00,A,4825.0066,N,00428.2393,W,2.728,345.999,260217,,E,A*0D
 
$GPGGA,183401.00,4825.0072,N,00428.2398,W,1,15,0.687,162.048,M,,M,0,*5B
 
$GNGSA,A,3,2,6,12,14,24,25,26,29,31,32,68,69,76,77,78,,,,,,1.171,0.687,0.949*27
 
$GPGSA,A,3,2,6,12,14,24,25,26,29,31,32,,,,,,,,,,,1.171,0.687,0.949*36
 
$GLGSA,A,3,68,69,76,77,78,,,,,,,,,,,,,,,,1.171,0.687,0.949*2A
 
$BDGSA,A,3,,,,,,,,,,,,,,,,,,,,,1.171,0.687,0.949*28
 
$QZGSA,A,3,,,,,,,,,,,,,,,,,,,,,1.171,0.687,0.949*25
 
$GPGSV,6,1,23,2,26,63,22,4,5,,,6,7,28,19,12,32,75,34*49
 
$GPGSV,6,2,23,14,40,260,29,24,8,137,20,25,74,46,29,26,10,270,29*7D
 
$GPGSV,6,3,23,29,63,185,24,31,47,303,34,32,31,229,30*46
 
$GLGSV,6,4,23,68,16,290,27,69,12,339,27,76,30,109,28,77,74,19,23*5B
 
$GLGSV,6,5,23,78,26,309,20,86,38,39,34,87,64,146,26,88,21,187,23*5A
 
$BDGSV,6,6,23,205,10,109,,211,5,,,212,9,205,,213,12,35,11*6A
 
$GPRMC,183401.00,A,4825.0072,N,00428.2398,W,2.731,344.867,260217,,E,A*0B
 
$GPGGA,183402.00,4825.0081,N,00428.2401,W,1,15,0.687,161.083,M,,M,0,*57
 
$GNGSA,A,3,2,6,12,14,24,25,26,29,31,32,68,69,76,77,78,,,,,,1.171,0.687,0.949*27
 
$GPGSA,A,3,2,6,12,14,24,25,26,29,31,32,,,,,,,,,,,1.171,0.687,0.949*36
 
$GLGSA,A,3,68,69,76,77,78,,,,,,,,,,,,,,,,1.171,0.687,0.949*2A
 
$BDGSA,A,3,,,,,,,,,,,,,,,,,,,,,1.171,0.687,0.949*28
 
$QZGSA,A,3,,,,,,,,,,,,,,,,,,,,,1.171,0.687,0.949*25
 
$GPGSV,6,1,23,2,26,63,24,4,5,,,6,7,28,19,12,32,75,31*4A
 
$GPGSV,6,2,23,14,40,260,29,24,8,137,18,25,74,46,30,26,10,270,29*7E
 
$GPGSV,6,3,23,29,63,185,26,31,47,303,32,32,31,229,28*4B
 
$GLGSV,6,4,23,68,16,290,28,69,12,339,28,76,30,109,31,77,74,19,26*56
 
$GLGSV,6,5,23,78,26,309,22,86,38,39,33,87,64,146,24,88,21,187,24*5A
 
$BDGSV,6,6,23,205,10,109,,211,5,,,212,9,205,,213,12,35,11*6A
 
$GPRMC,183402.00,A,4825.0081,N,00428.2401,W,2.951,347.315,260217,,E,A*06
 
$GPGGA,183403.00,4825.0092,N,00428.2405,W,1,15,0.687,160.587,M,,M,0,*50
 
$GNGSA,A,3,2,6,12,14,24,25,26,29,31,32,68,69,76,77,78,,,,,,1.171,0.687,0.949*27
 
$GPGSA,A,3,2,6,12,14,24,25,26,29,31,32,,,,,,,,,,,1.171,0.687,0.949*36
 
$GLGSA,A,3,68,69,76,77,78,,,,,,,,,,,,,,,,1.171,0.687,0.949*2A
 
$BDGSA,A,3,,,,,,,,,,,,,,,,,,,,,1.171,0.687,0.949*28
 
$QZGSA,A,3,,,,,,,,,,,,,,,,,,,,,1.171,0.687,0.949*25
 
$GPGSV,6,1,22,2,26,63,27,4,5,,,6,7,28,19,12,32,75,32*4B
 
$GPGSV,6,2,22,14,40,260,29,24,8,137,21,25,74,46,30,26,10,270,28*74
 
$GPGSV,6,3,22,29,63,185,27,31,47,303,32,32,31,229,29*4A
 
$GLGSV,6,4,22,68,16,290,26,69,12,339,27,76,30,109,32,77,74,19,27*54
 
$GLGSV,6,5,22,78,26,309,21,86,38,39,32,87,64,146,23,88,21,187,19*50
 
$BDGSV,6,6,22,205,10,109,,212,9,205,,213,12,35,11*6C
 
$GPRMC,183403.00,A,4825.0092,N,00428.2405,W,3.258,347.349,260217,,E,A*0B
 
$GPGGA,183404.00,4825.0103,N,00428.2411,W,1,15,0.687,159.994,M,,M,0,*5F
 
$GNGSA,A,3,2,6,12,14,24,25,26,29,31,32,68,69,76,77,78,,,,,,1.171,0.687,0.949*27
 
$GPGSA,A,3,2,6,12,14,24,25,26,29,31,32,,,,,,,,,,,1.171,0.687,0.949*36
 
$GLGSA,A,3,68,69,76,77,78,,,,,,,,,,,,,,,,1.171,0.687,0.949*2A
 
$BDGSA,A,3,,,,,,,,,,,,,,,,,,,,,1.171,0.687,0.949*28
 
$QZGSA,A,3,,,,,,,,,,,,,,,,,,,,,1.171,0.687,0.949*25
 
$GPGSV,6,1,22,2,26,63,28,4,5,,,6,7,28,18,12,32,75,34*43
 
$GPGSV,6,2,22,14,40,260,29,24,8,137,26,25,74,46,31,26,10,270,24*7E
 
$GPGSV,6,3,22,29,63,185,25,31,47,303,34,32,31,229,28*4F
 
$GLGSV,6,4,22,68,16,290,22,69,12,339,27,76,30,109,33,77,74,20,28*54
 
$GLGSV,6,5,22,78,26,309,25,86,38,39,33,87,64,146,23,88,21,187,24*5B
 
$BDGSV,6,6,22,205,10,109,,212,9,205,,213,12,35,*6C
 
$GPRMC,183404.00,A,4825.0103,N,00428.2411,W,3.184,344.791,260217,,E,A*00
 
$GPGGA,183405.00,4825.0114,N,00428.2419,W,1,15,0.687,158.359,M,,M,0,*5A
 
$GNGSA,A,3,2,6,12,14,24,25,26,29,31,32,68,69,76,77,78,,,,,,1.171,0.687,0.949*27
 
$GPGSA,A,3,2,6,12,14,24,25,26,29,31,32,,,,,,,,,,,1.171,0.687,0.949*36
 
$GLGSA,A,3,68,69,76,77,78,,,,,,,,,,,,,,,,1.171,0.687,0.949*2A
 
$BDGSA,A,3,,,,,,,,,,,,,,,,,,,,,1.171,0.687,0.949*28
 
$QZGSA,A,3,,,,,,,,,,,,,,,,,,,,,1.171,0.687,0.949*25
 
$GPGSV,6,1,22,2,26,63,30,4,5,,,6,7,27,18,12,32,75,33*42
 
$GPGSV,6,2,22,14,40,260,29,24,8,137,26,25,74,46,33,26,10,270,27*7F
 
$GPGSV,6,3,22,29,63,185,26,31,47,303,33,32,31,229,26*45
 
$GLGSV,6,4,22,68,16,290,27,69,12,339,27,76,30,109,31,77,74,20,28*53
 
