VTG,21.68,T,,M,0.00,N,0.0,K,D*35
 
$GPGGA,103049.000,4825.0835,N,00428.3977,W,2,11,0.8,94.5,M,52.0,M,2.8,0000*50
 
$GPGSA,A,3,03,32,06,09,31,23,17,01,11,12,19,,1.5,0.8,1.3*3E
 
$GPRMC,103049.000,A,4825.0835,N,00428.3977,W,0.00,21.68,060116,,,D*4A
 
$GPVTG,21.68,T,,M,0.00,N,0.0,K,D*35
 
$GPGGA,103050.000,4825.0835,N,00428.3977,W,2,11,0.8,94.5,M,52.0,M,1.8,0000*5B
 
$GPGSA,A,3,03,32,06,09,31,23,17,01,11,12,19,,1.5,0.8,1.3*3E
 
$GPGSV,3,1,12,32,20,073,36,03,56,067,34,06,36,303,32,09,36,198,45*73
 
$GPGSV,3,2,12,31,15,042,29,01,30,129,27,17,45,241,50,23,66,155,39*72
 
$GPGSV,3,3,12,11,12,146,18,19,44,225,45,12,05,325,48,49,33,167,42*7A
 
$GPRMC,103050.000,A,4825.0835,N,00428.3977,W,0.00,21.68,060116,,,D*42
 
$GPVTG,21.68,T,,M,0.00,N,0.0,K,D*35
 
$GPGGA,103051.000,4825.0835,N,00428.3977,W,2,11,0.8,94.5,M,52.0,M,1.8,0000*5A
 
$GPGSA,A,3,03,32,06,09,31,23,17,01,11,12,19,,1.5,0.8,1.3*3E
 
$GPRMC,103051.000,A,4825.0835,N,00428.3977,W,0.00,21.68,060116,,,D*43
 
$GPVTG,21.68,T,,M,0.00,N,0.0,K,D*35
 
$GPGGA,103052.000,4825.0835,N,00428.3977,W,2,11,0.8,94.5,M,52.0,M,1.8,0000*59
 
$GPGSA,A,3,03,32,06,09,31,23,17,01,11,12,19,,1.5,0.8,1.3*3E
 
$GPRMC,103052.000,A,4825.0835,N,00428.3977,W,0.00,21.68,060116,,,D*40
 
$GPVTG,21.68,T,,M,0.00,N,0.0,K,D*35
 
$GPGGA,103053.000,4825.0812,N,00428.3928,W,2,11,0.8,106.5,M,52.0,M,2.8,0000*6E
 
$GPGSA,A,3,03,32,06,09,31,23,17,01,11,12,19,,1.5,0.8,1.3*3E
 
$GPGSV,3,1,12,32,20,073,48,03,56,067,44,06,36,303,40,09,36,198,34*7E
 
$GPGSV,3,2,12,31,15,042,27,01,30,129,26,17,45,241,35,23,66,155,43*73
 
$GPGSV,3,3,12,11,12,146,27,19,44,225,37,12,05,325,37,49,33,167,43*7A
 
$GPRMC,103053.000,A,4825.0812,N,00428.3928,W,1.78,2.46,060116,,,D*7D
 
$GPVTG,2.46,T,,M,1.78,N,3.3,K,D*06
 
$GPGGA,103054.000,4825.0817,N,00428.3926,W,2,11,0.8,106.7,M,52.0,M,1.8,0000*63
 
$GPGSA,A,3,03,32,06,09,31,23,17,01,11,12,19,,1.5,0.8,1.3*3E
 
$GPRMC,103054.000,A,4825.0817,N,00428.3926,W,1.96,4.76,060116,,,D*74
 
$GPVTG,4.76,T,,M,1.96,N,3.6,K,D*06
 
$GPGGA,103055.000,4825.0823,N,00428.3924,W,2,11,0.8,106.8,M,52.0,M,1.8,0000*68
 
$GPGSA,A,3,03,32,06,09,31,23,17,01,11,12,19,,1.5,0.8,1.3*3E
 
$GPRMC,103055.000,A,4825.0823,N,00428.3924,W,2.36,4.85,060116,,,D*75
 
$GPVTG,4.85,T,,M,2.36,N,4.4,K,D*06
 
$GPGGA,103056.000,4825.0829,N,00428.3923,W,2,11,0.8,106.8,M,52.0,M,1.8,0000*66
 
$GPGSA,A,3,03,32,06,09,31,23,17,01,11,12,19,,1.5,0.8,1.3*3E
 
$GPGSV,3,1,12,32,20,073,45,03,56,067,45,06,36,303,39,09,36,198,34*7C
 
$GPGSV,3,2,12,31,15,042,28,01,30,129,26,17,45,241,37,23,66,155,44*79
 
$GPGSV,3,3,12,11,12,146,27,19,44,225,30,12,05,325,36,49,33,167,37*7F
 
$GPRMC,103056.000,A,4825.0829,N,00428.3923,W,2.16,358.52,060116,,,D*79
 
$GPVTG,358.52,T,,M,2.16,N,4.0,K,D*00
 
$GPGGA,103057.000,4825.0835,N,00428.3922,W,2,10,0.8,106.8,M,52.0,M,2.8,0000*69
 
$GPGSA,A,3,03,32,06,09,31,23,17,11,12,19,,,1.5,0.8,1.3*3F
 
$GPRMC,103057.000,A,4825.0835,N,00428.3922,W,2.06,354.99,060116,,,D*7E
 
$GPVTG,354.99,T,,M,2.06,N,3.8,K,D*05
 
$GPGGA,103058.000,4825.0841,N,00428.3923,W,2,10,0.8,106.6,M,52.0,M,3.8,0000*6B
 
$GPGSA,A,3,03,32,06,09,31,23,17,11,12,19,,,1.5,0.8,1.3*3F
 
$GPGGA,161346.00,4825.1489,N,00428.4577,W,1,22,0.542,140.317,M,,M,0,*54
 
$GNGSA,A,3,2,6,10,12,14,15,19,24,25,29,32,208,212,214,65,72,73,74,75,83,1.043,0.542,0.890*18
 
$GPGSA,A,3,2,6,10,12,14,15,19,24,25,29,32,,,,,,,,,,1.043,0.542,0.890*32
 
$GLGSA,A,3,65,72,73,74,75,83,84,85,,,,,,,,,,,,,1.043,0.542,0.890*23
 
$BDGSA,A,3,208,212,214,,,,,,,,,,,,,,,,,,1.043,0.542,0.890*1B
 
$QZGSA,A,3,,,,,,,,,,,,,,,,,,,,,1.043,0.542,0.890*2A
 
$GPGSV,9,1,28,2,6,109,36,4,5,,,6,10,73,24,10,10,255,36*41
 
$GPGSV,9,2,28,12,82,36,36,14,23,314,31,15,9,166,32,17,7,32,16*7B
 
$GPGSV,9,3,28,19,22,43,26,24,56,108,33,25,50,247,38,29,7,187,37*70
 
$GPGSV,9,4,28,32,43,296,33*45
 
$GLGSV,9,5,28,65,36,289,35,66,10,343,12,72,26,231,22,73,22,80,28*51
 
$GLGSV,9,6,28,74,66,10,31,75,33,290,36,83,35,49,24,84,36,121,34*66
 
$GLGSV,9,7,28,85,5,163,32*6C
 
$BDGSV,9,8,28,205,10,109,23,208,16,29,17,211,5,,,212,11,176,26*5E
 
$BDGSV,9,9,28,213,5,,27,214,17,239,25*6C
 
$GPRMC,161346.00,A,4825.1489,N,00428.4577,W,2.288,252.205,040317,,E,A*0D
 
$GPGGA,161354.00,4825.1463,N,00428.4637,W,1,23,0.535,137.906,M,,M,0,*5F
 
$GNGSA,A,3,2,6,10,12,14,15,19,24,25,29,32,205,208,212,214,65,72,73,74,75,1.033,0.535,0.884*26
 
$GPGSA,A,3,2,6,10,12,14,15,19,24,25,29,32,,,,,,,,,,1.033,0.535,0.884*30
 
$GLGSA,A,3,65,72,73,74,75,83,84,85,,,,,,,,,,,,,1.033,0.535,0.884*21
 
$BDGSA,A,3,205,208,212,214,,,,,,,,,,,,,,,,,1.033,0.535,0.884*2E
 
$QZGSA,A,3,,,,,,,,,,,,,,,,,,,,,1.033,0.535,0.884*28
 
$GPGSV,9,1,28,2,6,109,33,4,5,,,6,10,73,29,10,10,255,34*4B
 
$GPGSV,9,2,28,12,82,37,37,14,23,314,33,15,9,166,26,17,7,32,22*7B
 
$GPGSV,9,3,28,19,22,43,34,24,56,108,34,25,50,247,40,29,7,187,31*7D
 
$GPGSV,9,4,28,32,43,296,38*4E
 
$GLGSV,9,5,28,65,36,289,35,66,10,343,30,72,26,231,27,73,22,80,23*5F
 
$GLGSV,9,6,28,74,66,11,34,75,33,290,40,83,35,49,35,84,36,121,24*62
 
$GLGSV,9,7,28,85,5,163,20*6F
 
$BDGSV,9,8,28,205,10,109,24,207,5,,,208,16,29,27,212,11,176,32*58
 
$BDGSV,9,9,28,213,5,,27,214,17,239,30*68
 
$GPRMC,161354.00,A,4825.1463,N,00428.4637,W,1.462,230.157,040317,,E,A*0C
 
$GPGGA,161355.00,4825.1462,N,00428.4639,W,1,23,0.535,137.665,M,,M,0,*5B
 
$GNGSA,A,3,2,6,10,12,14,15,19,24,25,29,32,205,208,212,214,65,72,73,74,75,1.033,0.535,0.884*26
 
$GPGSA,A,3,2,6,10,12,14,15,19,24,25,29,32,,,,,,,,,,1.033,0.535,0.884*30
 
$GLGSA,A,3,65,72,73,74,75,83,84,85,,,,,,,,,,,,,1.033,0.535,0.884*21
 
$BDGSA,A,3,205,208,212,214,,,,,,,,,,,,,,,,,1.033,0.535,0.884*2E
 
$QZGSA,A,3,,,,,,,,,,,,,,,,,,,,,1.033,0.535,0.884*28
 
$GPGSV,9,1,28,2,6,109,33,4,5,,,6,10,73,29,10,10,255,31*4E
 
$GPGSV,9,2,28,12,82,37,38,14,23,314,28,15,9,166,25,17,7,32,20*7F
 
$GPGSV,9,3,28,19,22,43,30,24,56,108,37,25,50,247,42,29,7,187,27*7F
 
$GPGSV,9,4,28,32,43,296,35*43
 
$GLGSV,9,5,28,65,36,289,33,66,10,343,31,72,26,231,24,73,22,80,29*51
 
$GLGSV,9,6,28,74,66,11,33,75,33,290,37,83,35,49,32,84,36,121,27*61
 
$GLGSV,9,7,28,85,5,163,24*6B
 
$BDGSV,9,8,28,205,10,109,24,207,5,,,208,16,29,29,212,11,176,33*57
 
$BDGSV,9,9,28,213,5,,26,214,17,239,24*6C
 
$GPRMC,161355.00,A,4825.1462,N,00428.4639,W,1.414,234.405,040317,,E,A*05
 
$GPGGA,161356.00,4825.1462,N,00428.4644,W,1,23,0.535,137.497,M,,M,0,*5D
 
$GNGSA,A,3,2,6,10,12,14,15,19,24,25,29,32,205,208,212,214,65,72,73,74,75,1.033,0.535,0.884*26
 
$GPGSA,A,3,2,6,10,12,14,15,19,24,25,29,32,,,,,,,,,,1.033,0.535,0.884*30
 
$GLGSA,A,3,65,72,73,74,75,83,84,85,,,,,,,,,,,,,1.033,0.535,0.884*21
 
$BDGSA,A,3,205,208,212,214,,,,,,,,,,,,,,,,,1.033,0.535,0.884*2E
 
$QZGSA,A,3,,,,,,,,,,,,,,,,,,,,,1.033,0.535,0.884*28
 
$GPGSV,9,1,29,2,6,109,34,4,5,,,6,10,73,26,10,10,255,31*47
 
$GPGSV,9,2,29,12,82,37,33,14,23,314,30,15,9,166,26,17,7,32,21*7E
 
$GPGSV,9,3,29,19,22,43,26,24,56,108,33,25,50,247,39,29,7,187,25*73
 
$GPGSV,9,4,29,32,43,296,34*43
 
$GLGSV,9,5,29,65,36,289,32,66,10,343,32,72,26,231,25,73,22,80,30*5B
 
$GLGSV,9,6,29,74,66,11,27,75,33,290,37,83,35,49,27,84,37,121,26*61
 
$GLGSV,9,7,29,85,5,163,24*6A
 
$BDGSV,9,8,29,205,10,109,24,207,5,,,208,16,29,28,211,5,,*51
 
$BDGSV,9,9,29,212,11,176,31,213,5,,22,214,17,239,22*6C
 
$GPRMC,161356.00,A,4825.1462,N,00428.4644,W,1.578,258.000,040317,,E,A*0C
 
$GPGGA,161357.00,4825.1461,N,00428.4649,W,1,23,0.535,137.419,M,,M,0,*54
 
$GNGSA,A,3,2,6,10,12,14,15,19,24,25,29,32,205,208,212,214,65,72,73,74,75,1.033,0.535,0.884*26
 
$GPGSA,A,3,2,6,10,12,14,15,19,24,25,29,32,,,,,,,,,,1.033,0.535,0.884*30
 
$GLGSA,A,3,65,72,73,74,75,83,84,85,,,,,,,,,,,,,1.033,0.535,0.884*21
 
$BDGSA,A,3,205,208,212,214,,,,,,,,,,,,,,,,,1.033,0.535,0.884*2E
 
$QZGSA,A,3,,,,,,,,,,,,,,,,,,,,,1.033,0.535,0.884*28
 
$GPGSV,9,1,29,2,6,109,32,4,5,,,6,10,73,29,10,10,255,26*48
 
$GPGSV,9,2,29,12,82,37,31,14,23,314,28,15,9,166,27,17,7,32,19*7F
 
$GPGSV,9,3,29,19,22,43,22,24,56,108,35,25,50,247,37,29,7,187,32*79
 
$GPGSV,9,4,29,32,43,296,34*43
 
$GLGSV,9,5,29,65,36,289,33,66,10,343,34,72,26,231,31,73,22,80,31*58
 
$GLGSV,9,6,29,74,66,11,27,75,33,290,33,83,35,49,27,84,37,121,30*62
 
$GLGSV,9,7,29,85,5,163,23*6D
 
$BDGSV,9,8,29,205,10,109,24,207,5,,,208,16,29,27,211,5,,*5E
 
$BDGSV,9,9,29,212,11,176,29,213,5,,26,214,17,239,21*62
 
$GPRMC,161357.00,A,4825.1461,N,00428.4649,W,1.840,241.784,040317,,E,A*06
 
$GPGGA,161358.00,4825.1458,N,00428.4655,W,1,23,0.535,137.454,M,,M,0,*55
 
$GNGSA,A,3,2,6,10,12,14,15,19,24,25,29,32,205,208,212,214,65,72,73,74,75,1.033,0.535,0.884*26
 
$GPGSA,A,3,2,6,10,12,14,15,19,24,25,29,32,,,,,,,,,,1.033,0.535,0.884*30
 
$GLGSA,A,3,65,72,73,74,75,83,84,85,,,,,,,,,,,,,1.033,0.535,0.884*21
 
$BDGSA,A,3,205,208,212,214,,,,,,,,,,,,,,,,,1.033,0.535,0.884*2E
 
$QZGSA,A,3,,,,,,,,,,,,,,,,,,,,,1.033,0.535,0.884*28
 
$GPGSV,9,1,29,2,6,109,26,4,5,,,6,10,73,24,10,10,255,32*45
 
$GPGSV,9,2,29,12,82,37,31,14,23,314,32,15,9,166,31,17,7,32,21*78
 
$GPGSV,9,3,29,19,22,43,24,24,56,108,32,25,50,247,39,29,7,187,31*75
 
$GPGSV,9,4,29,32,43,296,31*46
 
$GLGSV,9,5,29,65,36,289,36,66,10,343,35,72,26,231,27,73,22,80,36*5C
 
$GLGSV,9,6,29,74,66,11,29,75,33,290,34,83,35,49,26,84,37,121,29*62
 
$GLGSV,9,7,29,85,5,163,25*6B
 
